{"type": "FeatureCollection", "features": [{"type": "Feature", "geometry": {"type": "Point", "coordinates": [-71.22943900000001, -35.002556999099966]}, "properties": {"CUT_REG": "07", "CUT_PROV": "073", "CUT_COM": "07301", "REGION": "Maule", "PROVINCIA": "Curic\u00f3", "COMUNA": "Curic\u00f3", "variable": "Centros de Eduaci\u00f3n Superior", "Nombres": "UNIVERSIDAD DE TALCA - CAMPUS CURICO", "POINT_X": -71.229439, "POINT_Y": -35.0025569991}}, {"type": "Feature", "geometry": {"type": "Point", "coordinates": [-71.22943900000001, -35.002556999099966]}, "properties": {"CUT_REG": "07", "CUT_PROV": "073", "CUT_COM": "07301", "REGION": "Maule", "PROVINCIA": "Curic\u00f3", "COMUNA": "Curic\u00f3", "variable": "Centros de Eduaci\u00f3n Superior", "Nombres": "UNIVERSIDAD CATOLICA DEL MAULE - CAMPUS SAN ISIDRO", "POINT_X": -71.229439, "POINT_Y": -35.0025569991}}, {"type": "Feature", "geometry": {"type": "Point", "coordinates": [-71.24476199999998, -34.9910649991]}, "properties": {"CUT_REG": "07", "CUT_PROV": "073", "CUT_COM": "07301", "REGION": "Maule", "PROVINCIA": "Curic\u00f3", "COMUNA": "Curic\u00f3", "variable": "Centros de Eduaci\u00f3n Superior", "Nombres": "IP AIEP - SEDE CURICO", "POINT_X": -71.244762, "POINT_Y": -34.9910649991}}, {"type": "Feature", "geometry": {"type": "Point", "coordinates": [-71.24092500000003, -34.98911399910004]}, "properties": {"CUT_REG": "07", "CUT_PROV": "073", "CUT_COM": "07301", "REGION": "Maule", "PROVINCIA": "Curic\u00f3", "COMUNA": "Curic\u00f3", "variable": "Centros de Eduaci\u00f3n Superior", "Nombres": "IP PROVIDENCIA - CENTRO DE SERVICIOS AL ESTUDIANTE", "POINT_X": -71.240925, "POINT_Y": -34.9891139991}}, {"type": "Feature", "geometry": {"type": "Point", "coordinates": [-71.23856, -34.987516999099974]}, "properties": {"CUT_REG": "07", "CUT_PROV": "073", "CUT_COM": "07301", "REGION": "Maule", "PROVINCIA": "Curic\u00f3", "COMUNA": "Curic\u00f3", "variable": "Centros de Eduaci\u00f3n Superior", "Nombres": "IP VALLE CENTRAL - SEDE CURICO", "POINT_X": -71.23856, "POINT_Y": -34.9875169991}}, {"type": "Feature", "geometry": {"type": "Point", "coordinates": [-71.24079300000002, -34.98486499910002]}, "properties": {"CUT_REG": "07", "CUT_PROV": "073", "CUT_COM": "07301", "REGION": "Maule", "PROVINCIA": "Curic\u00f3", "COMUNA": "Curic\u00f3", "variable": "Centros de Eduaci\u00f3n Superior", "Nombres": "UNIVERSIDAD DE TALCA - CENTRO DE EXTENSION", "POINT_X": -71.240793, "POINT_Y": -34.9848649991}}, {"type": "Feature", "geometry": {"type": "Point", "coordinates": [-71.24089299999996, -34.98485099910001]}, "properties": {"CUT_REG": "07", "CUT_PROV": "073", "CUT_COM": "07301", "REGION": "Maule", "PROVINCIA": "Curic\u00f3", "COMUNA": "Curic\u00f3", "variable": "Centros de Eduaci\u00f3n Superior", "Nombres": "IP SANTO TOMAS - 3040", "POINT_X": -71.240893, "POINT_Y": -34.9848509991}}, {"type": "Feature", "geometry": {"type": "Point", "coordinates": [-71.24089299999996, -34.98485099910001]}, "properties": {"CUT_REG": "07", "CUT_PROV": "073", "CUT_COM": "07301", "REGION": "Maule", "PROVINCIA": "Curic\u00f3", "COMUNA": "Curic\u00f3", "variable": "Centros de Eduaci\u00f3n Superior", "Nombres": "CFT SANTO TOMAS - 3040", "POINT_X": -71.240893, "POINT_Y": -34.9848509991}}, {"type": "Feature", "geometry": {"type": "Point", "coordinates": [-71.23925499999996, -34.98451199910003]}, "properties": {"CUT_REG": "07", "CUT_PROV": "073", "CUT_COM": "07301", "REGION": "Maule", "PROVINCIA": "Curic\u00f3", "COMUNA": "Curic\u00f3", "variable": "Centros de Eduaci\u00f3n Superior", "Nombres": "UNIVERSIDAD CATOLICA DEL MAULE - CAMPUS CARMEN", "POINT_X": -71.239255, "POINT_Y": -34.9845119991}}, {"type": "Feature", "geometry": {"type": "Point", "coordinates": [-71.23821299999999, -34.983850999099964]}, "properties": {"CUT_REG": "07", "CUT_PROV": "073", "CUT_COM": "07301", "REGION": "Maule", "PROVINCIA": "Curic\u00f3", "COMUNA": "Curic\u00f3", "variable": "Centros de Eduaci\u00f3n Superior", "Nombres": "UNIVERSIDAD CATOLICA DEL MAULE - CAMPUS CARMEN", "POINT_X": -71.238213, "POINT_Y": -34.9838509991}}, {"type": "Feature", "geometry": {"type": "Point", "coordinates": [-71.23820900000001, -34.983510999099984]}, "properties": {"CUT_REG": "07", "CUT_PROV": "073", "CUT_COM": "07301", "REGION": "Maule", "PROVINCIA": "Curic\u00f3", "COMUNA": "Curic\u00f3", "variable": "Centros de Eduaci\u00f3n Superior", "Nombres": "UNIVERSIDAD CATOLICA DEL MAULE - CAMPUS CARMEN", "POINT_X": -71.238209, "POINT_Y": -34.9835109991}}, {"type": "Feature", "geometry": {"type": "Point", "coordinates": [-71.21089400000002, -34.97891399910004]}, "properties": {"CUT_REG": "07", "CUT_PROV": "073", "CUT_COM": "07301", "REGION": "Maule", "PROVINCIA": "Curic\u00f3", "COMUNA": "Curic\u00f3", "variable": "Centros de Eduaci\u00f3n Superior", "Nombres": "UNIVERSIDAD TECNOLOGICA DE CHILE INACAP - INACAP CURICO", "POINT_X": -71.210894, "POINT_Y": -34.9789139991}}, {"type": "Feature", "geometry": {"type": "Point", "coordinates": [-71.21089400000002, -34.97891399910004]}, "properties": {"CUT_REG": "07", "CUT_PROV": "073", "CUT_COM": "07301", "REGION": "Maule", "PROVINCIA": "Curic\u00f3", "COMUNA": "Curic\u00f3", "variable": "Centros de Eduaci\u00f3n Superior", "Nombres": "IP INACAP - INACAP CURICO", "POINT_X": -71.210894, "POINT_Y": -34.9789139991}}, {"type": "Feature", "geometry": {"type": "Point", "coordinates": [-71.21089400000002, -34.97891399910004]}, "properties": {"CUT_REG": "07", "CUT_PROV": "073", "CUT_COM": "07301", "REGION": "Maule", "PROVINCIA": "Curic\u00f3", "COMUNA": "Curic\u00f3", "variable": "Centros de Eduaci\u00f3n Superior", "Nombres": "CFT INACAP - INACAP CURICO", "POINT_X": -71.210894, "POINT_Y": -34.9789139991}}]}