{"type": "FeatureCollection", "features": [{"type": "Feature", "geometry": {"type": "Point", "coordinates": [-71.81806799999995, -36.14192699909998]}, "properties": {"CUT_REG": "07", "CUT_PROV": "074", "CUT_COM": "07404", "REGION": "Maule", "PROVINCIA": "Linares", "COMUNA": "Parral", "variable": "Centros de Eduaci\u00f3n Superior", "Nombres": "UNIVERSIDAD BOLIVARIANA - SEDE PARRAL", "POINT_X": -71.818068, "POINT_Y": -36.1419269991}}, {"type": "Feature", "geometry": {"type": "Point", "coordinates": [-71.59247300000001, -35.85136099910001]}, "properties": {"CUT_REG": "07", "CUT_PROV": "074", "CUT_COM": "07401", "REGION": "Maule", "PROVINCIA": "Linares", "COMUNA": "Linares", "variable": "Centros de Eduaci\u00f3n Superior", "Nombres": "CFT SAN AGUSTIN - SEDE LINARES", "POINT_X": -71.592473, "POINT_Y": -35.8513609991}}, {"type": "Feature", "geometry": {"type": "Point", "coordinates": [-71.57869400000001, -35.84802799910002]}, "properties": {"CUT_REG": "07", "CUT_PROV": "074", "CUT_COM": "07401", "REGION": "Maule", "PROVINCIA": "Linares", "COMUNA": "Linares", "variable": "Centros de Eduaci\u00f3n Superior", "Nombres": "UNIVERSIDAD DE TALCA - CAMPUS LINARES", "POINT_X": -71.578694, "POINT_Y": -35.8480279991}}, {"type": "Feature", "geometry": {"type": "Point", "coordinates": [-71.59995600000002, -35.848008999100045]}, "properties": {"CUT_REG": "07", "CUT_PROV": "074", "CUT_COM": "07401", "REGION": "Maule", "PROVINCIA": "Linares", "COMUNA": "Linares", "variable": "Centros de Eduaci\u00f3n Superior", "Nombres": "CFT MASSACHUSETTS - SEDE LINARES", "POINT_X": -71.599956, "POINT_Y": -35.8480089991}}, {"type": "Feature", "geometry": {"type": "Point", "coordinates": [-71.60201199999995, -35.84172999910001]}, "properties": {"CUT_REG": "07", "CUT_PROV": "074", "CUT_COM": "07401", "REGION": "Maule", "PROVINCIA": "Linares", "COMUNA": "Linares", "variable": "Centros de Eduaci\u00f3n Superior", "Nombres": "UNIVERSIDAD BOLIVARIANA - SEDE LINARES", "POINT_X": -71.602012, "POINT_Y": -35.8417299991}}, {"type": "Feature", "geometry": {"type": "Point", "coordinates": [-71.57850599999999, -35.838614999100024]}, "properties": {"CUT_REG": "07", "CUT_PROV": "074", "CUT_COM": "07401", "REGION": "Maule", "PROVINCIA": "Linares", "COMUNA": "Linares", "variable": "Centros de Eduaci\u00f3n Superior", "Nombres": "CFT DE LA REGION DEL MAULE - TALLER MECANICO CFT MAULE", "POINT_X": -71.578506, "POINT_Y": -35.8386149991}}, {"type": "Feature", "geometry": {"type": "Point", "coordinates": [-71.59760999999997, -35.8374799991]}, "properties": {"CUT_REG": "07", "CUT_PROV": "074", "CUT_COM": "07401", "REGION": "Maule", "PROVINCIA": "Linares", "COMUNA": "Linares", "variable": "Centros de Eduaci\u00f3n Superior", "Nombres": "CFT DE LA REGION DEL MAULE - DEPENDENCIAS CFT MAULE", "POINT_X": -71.59761, "POINT_Y": -35.8374799991}}]}