{"type": "FeatureCollection", "features": [{"type": "Feature", "geometry": {"type": "Point", "coordinates": [-73.39786300000002, -37.79989099909996]}, "properties": {"CUT_REG": "08", "CUT_PROV": "082", "CUT_COM": "08203", "REGION": "Biob\u00edo", "PROVINCIA": "Arauco", "COMUNA": "Ca\u00f1ete", "variable": "Centros de Eduaci\u00f3n Superior", "Nombres": "CFT LOTA-ARAUCO - SEDE CANETE", "POINT_X": -73.397863, "POINT_Y": -37.7998909991}}, {"type": "Feature", "geometry": {"type": "Point", "coordinates": [-73.38964499999994, -37.7920369991]}, "properties": {"CUT_REG": "08", "CUT_PROV": "082", "CUT_COM": "08203", "REGION": "Biob\u00edo", "PROVINCIA": "Arauco", "COMUNA": "Ca\u00f1ete", "variable": "Centros de Eduaci\u00f3n Superior", "Nombres": "UNIVERSIDAD CATOLICA DE LA SANTISIMA CONCEPCION - INSTITUTO TECNOLOGICO SEDE CA\u00d1ETE", "POINT_X": -73.389645, "POINT_Y": -37.7920369991}}, {"type": "Feature", "geometry": {"type": "Point", "coordinates": [-73.39094700000004, -37.79191199909996]}, "properties": {"CUT_REG": "08", "CUT_PROV": "082", "CUT_COM": "08203", "REGION": "Biob\u00edo", "PROVINCIA": "Arauco", "COMUNA": "Ca\u00f1ete", "variable": "Centros de Eduaci\u00f3n Superior", "Nombres": "UNIVERSIDAD CATOLICA DE LA SANTISIMA CONCEPCION - INSTITUTO TECNOLOGICO SEDE CA\u00d1ETE", "POINT_X": -73.390947, "POINT_Y": -37.7919119991}}, {"type": "Feature", "geometry": {"type": "Point", "coordinates": [-73.65957999999998, -37.61117199909999]}, "properties": {"CUT_REG": "08", "CUT_PROV": "082", "CUT_COM": "08201", "REGION": "Biob\u00edo", "PROVINCIA": "Arauco", "COMUNA": "Lebu", "variable": "Centros de Eduaci\u00f3n Superior", "Nombres": "CFT CEDUC - UCN - SEDE LEBU", "POINT_X": -73.65958, "POINT_Y": -37.6111719991}}, {"type": "Feature", "geometry": {"type": "Point", "coordinates": [-73.29533399999998, -37.24715099910004]}, "properties": {"CUT_REG": "08", "CUT_PROV": "082", "CUT_COM": "08202", "REGION": "Biob\u00edo", "PROVINCIA": "Arauco", "COMUNA": "Arauco", "variable": "Centros de Eduaci\u00f3n Superior", "Nombres": "IP DUOC UC - ARAUCO", "POINT_X": -73.295334, "POINT_Y": -37.2471509991}}, {"type": "Feature", "geometry": {"type": "Point", "coordinates": [-73.31497100000001, -37.24552499909998]}, "properties": {"CUT_REG": "08", "CUT_PROV": "082", "CUT_COM": "08202", "REGION": "Biob\u00edo", "PROVINCIA": "Arauco", "COMUNA": "Arauco", "variable": "Centros de Eduaci\u00f3n Superior", "Nombres": "IP IPG - A1", "POINT_X": -73.314971, "POINT_Y": -37.2455249991}}, {"type": "Feature", "geometry": {"type": "Point", "coordinates": [-73.315238, -37.24550499910001]}, "properties": {"CUT_REG": "08", "CUT_PROV": "082", "CUT_COM": "08202", "REGION": "Biob\u00edo", "PROVINCIA": "Arauco", "COMUNA": "Arauco", "variable": "Centros de Eduaci\u00f3n Superior", "Nombres": "IP IPG - A3", "POINT_X": -73.315238, "POINT_Y": -37.2455049991}}, {"type": "Feature", "geometry": {"type": "Point", "coordinates": [-73.31458099999998, -37.24475599910003]}, "properties": {"CUT_REG": "08", "CUT_PROV": "082", "CUT_COM": "08202", "REGION": "Biob\u00edo", "PROVINCIA": "Arauco", "COMUNA": "Arauco", "variable": "Centros de Eduaci\u00f3n Superior", "Nombres": "IP IPG - A2", "POINT_X": -73.314581, "POINT_Y": -37.2447559991}}, {"type": "Feature", "geometry": {"type": "Point", "coordinates": [-73.31743299999997, -37.244184999100035]}, "properties": {"CUT_REG": "08", "CUT_PROV": "082", "CUT_COM": "08202", "REGION": "Biob\u00edo", "PROVINCIA": "Arauco", "COMUNA": "Arauco", "variable": "Centros de Eduaci\u00f3n Superior", "Nombres": "IP IPG - A5", "POINT_X": -73.317433, "POINT_Y": -37.2441849991}}]}