{"type": "FeatureCollection", "features": [{"type": "Feature", "geometry": {"type": "Point", "coordinates": [-72.628906, -39.369449999099956]}, "properties": {"CUT_REG": "09", "CUT_PROV": "091", "CUT_COM": "09109", "REGION": "La Araucan\u00eda", "PROVINCIA": "Caut\u00edn", "COMUNA": "Loncoche", "variable": "Centros de Eduaci\u00f3n Superior", "Nombres": "CFT INSTITUTO SUPERIOR DE ESTUDIOS JUR\u00cdDICOS CANON - LICEO POLITENICO ANDRES BELLO", "POINT_X": -72.628906, "POINT_Y": -39.3694499991}}, {"type": "Feature", "geometry": {"type": "Point", "coordinates": [-72.22819799999999, -39.28560999910003]}, "properties": {"CUT_REG": "09", "CUT_PROV": "091", "CUT_COM": "09120", "REGION": "La Araucan\u00eda", "PROVINCIA": "Caut\u00edn", "COMUNA": "Villarrica", "variable": "Centros de Eduaci\u00f3n Superior", "Nombres": "CFT INSTITUTO SUPERIOR DE ESTUDIOS JUR\u00cdDICOS CANON - LICEO BICENTENARIO ARAUCANIA", "POINT_X": -72.228198, "POINT_Y": -39.2856099991}}, {"type": "Feature", "geometry": {"type": "Point", "coordinates": [-72.22548599999996, -39.27750299910001]}, "properties": {"CUT_REG": "09", "CUT_PROV": "091", "CUT_COM": "09120", "REGION": "La Araucan\u00eda", "PROVINCIA": "Caut\u00edn", "COMUNA": "Villarrica", "variable": "Centros de Eduaci\u00f3n Superior", "Nombres": "PONTIFICIA UNIVERSIDAD CATOLICA DE CHILE - CAMPUS VILLARRICA", "POINT_X": -72.225486, "POINT_Y": -39.2775029991}}, {"type": "Feature", "geometry": {"type": "Point", "coordinates": [-71.96413599999997, -39.277482999100044]}, "properties": {"CUT_REG": "09", "CUT_PROV": "091", "CUT_COM": "09115", "REGION": "La Araucan\u00eda", "PROVINCIA": "Caut\u00edn", "COMUNA": "Puc\u00f3n", "variable": "Centros de Eduaci\u00f3n Superior", "Nombres": "CFT INSTITUTO SUPERIOR DE ESTUDIOS JUR\u00cdDICOS CANON - LICEO HOTELERIA Y TURISMO", "POINT_X": -71.964136, "POINT_Y": -39.2774829991}}, {"type": "Feature", "geometry": {"type": "Point", "coordinates": [-71.97908899999996, -39.27346699910002]}, "properties": {"CUT_REG": "09", "CUT_PROV": "091", "CUT_COM": "09115", "REGION": "La Araucan\u00eda", "PROVINCIA": "Caut\u00edn", "COMUNA": "Puc\u00f3n", "variable": "Centros de Eduaci\u00f3n Superior", "Nombres": "UNIVERSIDAD DE LA FRONTERA - CAMPUS PUCON", "POINT_X": -71.979089, "POINT_Y": -39.2734669991}}, {"type": "Feature", "geometry": {"type": "Point", "coordinates": [-72.02595099999999, -38.92998799910002]}, "properties": {"CUT_REG": "09", "CUT_PROV": "091", "CUT_COM": "09103", "REGION": "La Araucan\u00eda", "PROVINCIA": "Caut\u00edn", "COMUNA": "Cunco", "variable": "Centros de Eduaci\u00f3n Superior", "Nombres": "CFT INSTITUTO SUPERIOR DE ESTUDIOS JUR\u00cdDICOS CANON - CFT CANON", "POINT_X": -72.025951, "POINT_Y": -38.9299879991}}, {"type": "Feature", "geometry": {"type": "Point", "coordinates": [-72.642425, -38.754575999100005]}, "properties": {"CUT_REG": "09", "CUT_PROV": "091", "CUT_COM": "09101", "REGION": "La Araucan\u00eda", "PROVINCIA": "Caut\u00edn", "COMUNA": "Temuco", "variable": "Centros de Eduaci\u00f3n Superior", "Nombres": "UNIVERSIDAD CATOLICA DE TEMUCO - CAMPUS DR LUIS RIVAS DEL CANTO VET", "POINT_X": -72.642425, "POINT_Y": -38.7545759991}}, {"type": "Feature", "geometry": {"type": "Point", "coordinates": [-72.61683100000002, -38.749089999100036]}, "properties": {"CUT_REG": "09", "CUT_PROV": "091", "CUT_COM": "09101", "REGION": "La Araucan\u00eda", "PROVINCIA": "Caut\u00edn", "COMUNA": "Temuco", "variable": "Centros de Eduaci\u00f3n Superior", "Nombres": "UNIVERSIDAD DE LA FRONTERA - CAMPUS VALENTIN LETELIER", "POINT_X": -72.616831, "POINT_Y": -38.7490899991}}, {"type": "Feature", "geometry": {"type": "Point", "coordinates": [-72.61685, -38.74779899909998]}, "properties": {"CUT_REG": "09", "CUT_PROV": "091", "CUT_COM": "09101", "REGION": "La Araucan\u00eda", "PROVINCIA": "Caut\u00edn", "COMUNA": "Temuco", "variable": "Centros de Eduaci\u00f3n Superior", "Nombres": "UNIVERSIDAD DE LA FRONTERA - CAMPUS INTEGRADO ANDRES BELLO", "POINT_X": -72.61685, "POINT_Y": -38.7477989991}}, {"type": "Feature", "geometry": {"type": "Point", "coordinates": [-72.59114299999999, -38.74193799909998]}, "properties": {"CUT_REG": "09", "CUT_PROV": "091", "CUT_COM": "09101", "REGION": "La Araucan\u00eda", "PROVINCIA": "Caut\u00edn", "COMUNA": "Temuco", "variable": "Centros de Eduaci\u00f3n Superior", "Nombres": "IP PROVIDENCIA - CENTRO DE SERVICIOS AL ESTUDIANTE", "POINT_X": -72.591143, "POINT_Y": -38.7419379991}}, {"type": "Feature", "geometry": {"type": "Point", "coordinates": [-72.60500399999995, -38.74120799909998]}, "properties": {"CUT_REG": "09", "CUT_PROV": "091", "CUT_COM": "09101", "REGION": "La Araucan\u00eda", "PROVINCIA": "Caut\u00edn", "COMUNA": "Temuco", "variable": "Centros de Eduaci\u00f3n Superior", "Nombres": "UNIVERSIDAD LA REPUBLICA - SEDE TEMUCO", "POINT_X": -72.605004, "POINT_Y": -38.7412079991}}, {"type": "Feature", "geometry": {"type": "Point", "coordinates": [-72.59140799999999, -38.74074099909998]}, "properties": {"CUT_REG": "09", "CUT_PROV": "091", "CUT_COM": "09101", "REGION": "La Araucan\u00eda", "PROVINCIA": "Caut\u00edn", "COMUNA": "Temuco", "variable": "Centros de Eduaci\u00f3n Superior", "Nombres": "IP DE CHILE - RECINTO ARTURO PRAT", "POINT_X": -72.591408, "POINT_Y": -38.7407409991}}, {"type": "Feature", "geometry": {"type": "Point", "coordinates": [-72.58933, -38.740436999099956]}, "properties": {"CUT_REG": "09", "CUT_PROV": "091", "CUT_COM": "09101", "REGION": "La Araucan\u00eda", "PROVINCIA": "Caut\u00edn", "COMUNA": "Temuco", "variable": "Centros de Eduaci\u00f3n Superior", "Nombres": "IP INSTITUTO DE ESTUDIOS BANCARIOS GUILLERMO SUBERCASEAUX - SEDE TEMUCO", "POINT_X": -72.58933, "POINT_Y": -38.7404369991}}, {"type": "Feature", "geometry": {"type": "Point", "coordinates": [-72.58750699999999, -38.74041199910002]}, "properties": {"CUT_REG": "09", "CUT_PROV": "091", "CUT_COM": "09101", "REGION": "La Araucan\u00eda", "PROVINCIA": "Caut\u00edn", "COMUNA": "Temuco", "variable": "Centros de Eduaci\u00f3n Superior", "Nombres": "IP DE CHILE - RECINTO CLARO SOLAR", "POINT_X": -72.587507, "POINT_Y": -38.7404119991}}, {"type": "Feature", "geometry": {"type": "Point", "coordinates": [-72.60573399999996, -38.73941399909996]}, "properties": {"CUT_REG": "09", "CUT_PROV": "091", "CUT_COM": "09101", "REGION": "La Araucan\u00eda", "PROVINCIA": "Caut\u00edn", "COMUNA": "Temuco", "variable": "Centros de Eduaci\u00f3n Superior", "Nombres": "UNIVERSIDAD MAYOR - CAMPUS ALEMANIA", "POINT_X": -72.605734, "POINT_Y": -38.7394139991}}, {"type": "Feature", "geometry": {"type": "Point", "coordinates": [-72.59472599999998, -38.73867899909998]}, "properties": {"CUT_REG": "09", "CUT_PROV": "091", "CUT_COM": "09101", "REGION": "La Araucan\u00eda", "PROVINCIA": "Caut\u00edn", "COMUNA": "Temuco", "variable": "Centros de Eduaci\u00f3n Superior", "Nombres": "IP INSTITUTO DE ESTUDIOS BANCARIOS GUILLERMO SUBERCASEAUX - SEDE TEMUCO", "POINT_X": -72.594726, "POINT_Y": -38.7386789991}}, {"type": "Feature", "geometry": {"type": "Point", "coordinates": [-72.60144100000002, -38.738096999099966]}, "properties": {"CUT_REG": "09", "CUT_PROV": "091", "CUT_COM": "09101", "REGION": "La Araucan\u00eda", "PROVINCIA": "Caut\u00edn", "COMUNA": "Temuco", "variable": "Centros de Eduaci\u00f3n Superior", "Nombres": "UNIVERSIDAD CATOLICA DE TEMUCO - ACADEMIA DE ARTES", "POINT_X": -72.601441, "POINT_Y": -38.7380969991}}, {"type": "Feature", "geometry": {"type": "Point", "coordinates": [-72.59597099999996, -38.73802099909999]}, "properties": {"CUT_REG": "09", "CUT_PROV": "091", "CUT_COM": "09101", "REGION": "La Araucan\u00eda", "PROVINCIA": "Caut\u00edn", "COMUNA": "Temuco", "variable": "Centros de Eduaci\u00f3n Superior", "Nombres": "UNIVERSIDAD DE ACONCAGUA - SEDE TEMUCO", "POINT_X": -72.595971, "POINT_Y": -38.7380209991}}, {"type": "Feature", "geometry": {"type": "Point", "coordinates": [-72.599207, -38.73799499909997]}, "properties": {"CUT_REG": "09", "CUT_PROV": "091", "CUT_COM": "09101", "REGION": "La Araucan\u00eda", "PROVINCIA": "Caut\u00edn", "COMUNA": "Temuco", "variable": "Centros de Eduaci\u00f3n Superior", "Nombres": "UNIVERSIDAD DE LA FRONTERA - CAMPUS DE LA SALUD", "POINT_X": -72.599207, "POINT_Y": -38.7379949991}}, {"type": "Feature", "geometry": {"type": "Point", "coordinates": [-72.60183900000001, -38.737942999100014]}, "properties": {"CUT_REG": "09", "CUT_PROV": "091", "CUT_COM": "09101", "REGION": "La Araucan\u00eda", "PROVINCIA": "Caut\u00edn", "COMUNA": "Temuco", "variable": "Centros de Eduaci\u00f3n Superior", "Nombres": "UNIVERSIDAD CATOLICA DE TEMUCO - CAMPUS SAN FRANCISCO: A, B C, D, E, F, H, K, V, RF", "POINT_X": -72.601839, "POINT_Y": -38.7379429991}}, {"type": "Feature", "geometry": {"type": "Point", "coordinates": [-72.58379699999998, -38.73717599909997]}, "properties": {"CUT_REG": "09", "CUT_PROV": "091", "CUT_COM": "09101", "REGION": "La Araucan\u00eda", "PROVINCIA": "Caut\u00edn", "COMUNA": "Temuco", "variable": "Centros de Eduaci\u00f3n Superior", "Nombres": "IP DE CHILE - RECINTO RODRIGUEZ", "POINT_X": -72.583797, "POINT_Y": -38.7371759991}}, {"type": "Feature", "geometry": {"type": "Point", "coordinates": [-72.58988400000001, -38.736724999099955]}, "properties": {"CUT_REG": "09", "CUT_PROV": "091", "CUT_COM": "09101", "REGION": "La Araucan\u00eda", "PROVINCIA": "Caut\u00edn", "COMUNA": "Temuco", "variable": "Centros de Eduaci\u00f3n Superior", "Nombres": "CFT TEODORO WICKEL KLUWEN - CASA CENTRAL TEMUCO", "POINT_X": -72.589884, "POINT_Y": -38.7367249991}}, {"type": "Feature", "geometry": {"type": "Point", "coordinates": [-72.601812, -38.73632899909997]}, "properties": {"CUT_REG": "09", "CUT_PROV": "091", "CUT_COM": "09101", "REGION": "La Araucan\u00eda", "PROVINCIA": "Caut\u00edn", "COMUNA": "Temuco", "variable": "Centros de Eduaci\u00f3n Superior", "Nombres": "IP AIEP - SEDE TEMUCO", "POINT_X": -72.601812, "POINT_Y": -38.7363289991}}, {"type": "Feature", "geometry": {"type": "Point", "coordinates": [-72.60778500000002, -38.73630199910004]}, "properties": {"CUT_REG": "09", "CUT_PROV": "091", "CUT_COM": "09101", "REGION": "La Araucan\u00eda", "PROVINCIA": "Caut\u00edn", "COMUNA": "Temuco", "variable": "Centros de Eduaci\u00f3n Superior", "Nombres": "UNIVERSIDAD CATOLICA DE TEMUCO - CAMPUS MONSE\u00d1OR ALEJANDRO MENCHACA LIRA", "POINT_X": -72.607785, "POINT_Y": -38.7363019991}}, {"type": "Feature", "geometry": {"type": "Point", "coordinates": [-72.60427199999997, -38.736062999099985]}, "properties": {"CUT_REG": "09", "CUT_PROV": "091", "CUT_COM": "09101", "REGION": "La Araucan\u00eda", "PROVINCIA": "Caut\u00edn", "COMUNA": "Temuco", "variable": "Centros de Eduaci\u00f3n Superior", "Nombres": "UNIVERSIDAD CATOLICA DE TEMUCO - CAMPUS MONSE\u00d1OR SERGIO CONTRERAS NAVIA", "POINT_X": -72.604272, "POINT_Y": -38.7360629991}}, {"type": "Feature", "geometry": {"type": "Point", "coordinates": [-72.60798299999996, -38.73587699909996]}, "properties": {"CUT_REG": "09", "CUT_PROV": "091", "CUT_COM": "09101", "REGION": "La Araucan\u00eda", "PROVINCIA": "Caut\u00edn", "COMUNA": "Temuco", "variable": "Centros de Eduaci\u00f3n Superior", "Nombres": "UNIVERSIDAD DE LA FRONTERA - EDIFICIO DE BIOCIENCIAS", "POINT_X": -72.607983, "POINT_Y": -38.7358769991}}, {"type": "Feature", "geometry": {"type": "Point", "coordinates": [-72.60553500000002, -38.73586399910004]}, "properties": {"CUT_REG": "09", "CUT_PROV": "091", "CUT_COM": "09101", "REGION": "La Araucan\u00eda", "PROVINCIA": "Caut\u00edn", "COMUNA": "Temuco", "variable": "Centros de Eduaci\u00f3n Superior", "Nombres": "UNIVERSIDAD MAYOR - CAMPUS ALEMANIA", "POINT_X": -72.605535, "POINT_Y": -38.7358639991}}, {"type": "Feature", "geometry": {"type": "Point", "coordinates": [-72.59411799999995, -38.73531399910001]}, "properties": {"CUT_REG": "09", "CUT_PROV": "091", "CUT_COM": "09101", "REGION": "La Araucan\u00eda", "PROVINCIA": "Caut\u00edn", "COMUNA": "Temuco", "variable": "Centros de Eduaci\u00f3n Superior", "Nombres": "IP LOS LAGOS - SEDE TEMUCO", "POINT_X": -72.594118, "POINT_Y": -38.7353139991}}, {"type": "Feature", "geometry": {"type": "Point", "coordinates": [-72.59411799999995, -38.73531399910001]}, "properties": {"CUT_REG": "09", "CUT_PROV": "091", "CUT_COM": "09101", "REGION": "La Araucan\u00eda", "PROVINCIA": "Caut\u00edn", "COMUNA": "Temuco", "variable": "Centros de Eduaci\u00f3n Superior", "Nombres": "CFT LOS LAGOS - SEDE TEMUCO", "POINT_X": -72.594118, "POINT_Y": -38.7353139991}}, {"type": "Feature", "geometry": {"type": "Point", "coordinates": [-72.601913, -38.734631999099975]}, "properties": {"CUT_REG": "09", "CUT_PROV": "091", "CUT_COM": "09101", "REGION": "La Araucan\u00eda", "PROVINCIA": "Caut\u00edn", "COMUNA": "Temuco", "variable": "Centros de Eduaci\u00f3n Superior", "Nombres": "UNIVERSIDAD SANTO TOMAS - 1600", "POINT_X": -72.601913, "POINT_Y": -38.7346319991}}, {"type": "Feature", "geometry": {"type": "Point", "coordinates": [-72.601913, -38.734631999099975]}, "properties": {"CUT_REG": "09", "CUT_PROV": "091", "CUT_COM": "09101", "REGION": "La Araucan\u00eda", "PROVINCIA": "Caut\u00edn", "COMUNA": "Temuco", "variable": "Centros de Eduaci\u00f3n Superior", "Nombres": "IP SANTO TOMAS - 1600", "POINT_X": -72.601913, "POINT_Y": -38.7346319991}}, {"type": "Feature", "geometry": {"type": "Point", "coordinates": [-72.601913, -38.734631999099975]}, "properties": {"CUT_REG": "09", "CUT_PROV": "091", "CUT_COM": "09101", "REGION": "La Araucan\u00eda", "PROVINCIA": "Caut\u00edn", "COMUNA": "Temuco", "variable": "Centros de Eduaci\u00f3n Superior", "Nombres": "CFT SANTO TOMAS - 1600", "POINT_X": -72.601913, "POINT_Y": -38.7346319991}}, {"type": "Feature", "geometry": {"type": "Point", "coordinates": [-72.60220300000002, -38.73461599909999]}, "properties": {"CUT_REG": "09", "CUT_PROV": "091", "CUT_COM": "09101", "REGION": "La Araucan\u00eda", "PROVINCIA": "Caut\u00edn", "COMUNA": "Temuco", "variable": "Centros de Eduaci\u00f3n Superior", "Nombres": "UNIVERSIDAD SANTO TOMAS - 1760", "POINT_X": -72.602203, "POINT_Y": -38.7346159991}}, {"type": "Feature", "geometry": {"type": "Point", "coordinates": [-72.60220300000002, -38.73461599909999]}, "properties": {"CUT_REG": "09", "CUT_PROV": "091", "CUT_COM": "09101", "REGION": "La Araucan\u00eda", "PROVINCIA": "Caut\u00edn", "COMUNA": "Temuco", "variable": "Centros de Eduaci\u00f3n Superior", "Nombres": "IP SANTO TOMAS - 1760", "POINT_X": -72.602203, "POINT_Y": -38.7346159991}}, {"type": "Feature", "geometry": {"type": "Point", "coordinates": [-72.60220300000002, -38.73461599909999]}, "properties": {"CUT_REG": "09", "CUT_PROV": "091", "CUT_COM": "09101", "REGION": "La Araucan\u00eda", "PROVINCIA": "Caut\u00edn", "COMUNA": "Temuco", "variable": "Centros de Eduaci\u00f3n Superior", "Nombres": "CFT SANTO TOMAS - 1760", "POINT_X": -72.602203, "POINT_Y": -38.7346159991}}, {"type": "Feature", "geometry": {"type": "Point", "coordinates": [-72.596609, -38.734558999099974]}, "properties": {"CUT_REG": "09", "CUT_PROV": "091", "CUT_COM": "09101", "REGION": "La Araucan\u00eda", "PROVINCIA": "Caut\u00edn", "COMUNA": "Temuco", "variable": "Centros de Eduaci\u00f3n Superior", "Nombres": "UNIVERSIDAD DE LA FRONTERA - DPTO. SALUD PUBLICA", "POINT_X": -72.596609, "POINT_Y": -38.7345589991}}, {"type": "Feature", "geometry": {"type": "Point", "coordinates": [-72.589111, -38.73368499909996]}, "properties": {"CUT_REG": "09", "CUT_PROV": "091", "CUT_COM": "09101", "REGION": "La Araucan\u00eda", "PROVINCIA": "Caut\u00edn", "COMUNA": "Temuco", "variable": "Centros de Eduaci\u00f3n Superior", "Nombres": "UNIVERSIDAD MAYOR - CLINICA JURIDICA", "POINT_X": -72.589111, "POINT_Y": -38.7336849991}}, {"type": "Feature", "geometry": {"type": "Point", "coordinates": [-72.61795199999996, -38.73271599909999]}, "properties": {"CUT_REG": "09", "CUT_PROV": "091", "CUT_COM": "09101", "REGION": "La Araucan\u00eda", "PROVINCIA": "Caut\u00edn", "COMUNA": "Temuco", "variable": "Centros de Eduaci\u00f3n Superior", "Nombres": "UNIVERSIDAD AUTONOMA DE CHILE - EDIFICIO INSTITUCIONAL", "POINT_X": -72.617952, "POINT_Y": -38.7327159991}}, {"type": "Feature", "geometry": {"type": "Point", "coordinates": [-72.61908100000002, -38.73236599909998]}, "properties": {"CUT_REG": "09", "CUT_PROV": "091", "CUT_COM": "09101", "REGION": "La Araucan\u00eda", "PROVINCIA": "Caut\u00edn", "COMUNA": "Temuco", "variable": "Centros de Eduaci\u00f3n Superior", "Nombres": "UNIVERSIDAD AUTONOMA DE CHILE - CASA DE MUSICA TALLER", "POINT_X": -72.619081, "POINT_Y": -38.7323659991}}, {"type": "Feature", "geometry": {"type": "Point", "coordinates": [-72.61878299999998, -38.73212699910001]}, "properties": {"CUT_REG": "09", "CUT_PROV": "091", "CUT_COM": "09101", "REGION": "La Araucan\u00eda", "PROVINCIA": "Caut\u00edn", "COMUNA": "Temuco", "variable": "Centros de Eduaci\u00f3n Superior", "Nombres": "UNIVERSIDAD AUTONOMA DE CHILE - LABORATORIO TERAPIA OCUPACIONAL", "POINT_X": -72.618783, "POINT_Y": -38.7321269991}}, {"type": "Feature", "geometry": {"type": "Point", "coordinates": [-72.60408900000002, -38.731530999099995]}, "properties": {"CUT_REG": "09", "CUT_PROV": "091", "CUT_COM": "09101", "REGION": "La Araucan\u00eda", "PROVINCIA": "Caut\u00edn", "COMUNA": "Temuco", "variable": "Centros de Eduaci\u00f3n Superior", "Nombres": "IP SANTO TOMAS - 3710", "POINT_X": -72.604089, "POINT_Y": -38.7315309991}}, {"type": "Feature", "geometry": {"type": "Point", "coordinates": [-72.60408900000002, -38.731530999099995]}, "properties": {"CUT_REG": "09", "CUT_PROV": "091", "CUT_COM": "09101", "REGION": "La Araucan\u00eda", "PROVINCIA": "Caut\u00edn", "COMUNA": "Temuco", "variable": "Centros de Eduaci\u00f3n Superior", "Nombres": "CFT SANTO TOMAS - 3710", "POINT_X": -72.604089, "POINT_Y": -38.7315309991}}, {"type": "Feature", "geometry": {"type": "Point", "coordinates": [-72.63230199999997, -38.72550399910003]}, "properties": {"CUT_REG": "09", "CUT_PROV": "091", "CUT_COM": "09101", "REGION": "La Araucan\u00eda", "PROVINCIA": "Caut\u00edn", "COMUNA": "Temuco", "variable": "Centros de Eduaci\u00f3n Superior", "Nombres": "UNIVERSIDAD TECNOLOGICA DE CHILE INACAP - INACAP TEMUCO", "POINT_X": -72.632302, "POINT_Y": -38.7255039991}}, {"type": "Feature", "geometry": {"type": "Point", "coordinates": [-72.63230199999997, -38.72550399910003]}, "properties": {"CUT_REG": "09", "CUT_PROV": "091", "CUT_COM": "09101", "REGION": "La Araucan\u00eda", "PROVINCIA": "Caut\u00edn", "COMUNA": "Temuco", "variable": "Centros de Eduaci\u00f3n Superior", "Nombres": "IP INACAP - INACAP TEMUCO", "POINT_X": -72.632302, "POINT_Y": -38.7255039991}}, {"type": "Feature", "geometry": {"type": "Point", "coordinates": [-72.63230199999997, -38.72550399910003]}, "properties": {"CUT_REG": "09", "CUT_PROV": "091", "CUT_COM": "09101", "REGION": "La Araucan\u00eda", "PROVINCIA": "Caut\u00edn", "COMUNA": "Temuco", "variable": "Centros de Eduaci\u00f3n Superior", "Nombres": "CFT INACAP - INACAP TEMUCO", "POINT_X": -72.632302, "POINT_Y": -38.7255039991}}, {"type": "Feature", "geometry": {"type": "Point", "coordinates": [-72.55725899999996, -38.70990399909998]}, "properties": {"CUT_REG": "09", "CUT_PROV": "091", "CUT_COM": "09101", "REGION": "La Araucan\u00eda", "PROVINCIA": "Caut\u00edn", "COMUNA": "Temuco", "variable": "Centros de Eduaci\u00f3n Superior", "Nombres": "UNIVERSIDAD CATOLICA DE TEMUCO - CEC", "POINT_X": -72.557259, "POINT_Y": -38.7099039991}}, {"type": "Feature", "geometry": {"type": "Point", "coordinates": [-72.640568, -38.70661799909997]}, "properties": {"CUT_REG": "09", "CUT_PROV": "091", "CUT_COM": "09101", "REGION": "La Araucan\u00eda", "PROVINCIA": "Caut\u00edn", "COMUNA": "Temuco", "variable": "Centros de Eduaci\u00f3n Superior", "Nombres": "CFT PROTEC - CENTRO DE FORMACION TECNICA PROTEC", "POINT_X": -72.640568, "POINT_Y": -38.7066179991}}, {"type": "Feature", "geometry": {"type": "Point", "coordinates": [-72.54784199999999, -38.70289099909997]}, "properties": {"CUT_REG": "09", "CUT_PROV": "091", "CUT_COM": "09101", "REGION": "La Araucan\u00eda", "PROVINCIA": "Caut\u00edn", "COMUNA": "Temuco", "variable": "Centros de Eduaci\u00f3n Superior", "Nombres": "UNIVERSIDAD CATOLICA DE TEMUCO - CAMPUS SAN JUAN PABLO II", "POINT_X": -72.547842, "POINT_Y": -38.7028909991}}, {"type": "Feature", "geometry": {"type": "Point", "coordinates": [-72.22618499999997, -38.66831899910002]}, "properties": {"CUT_REG": "09", "CUT_PROV": "091", "CUT_COM": "09119", "REGION": "La Araucan\u00eda", "PROVINCIA": "Caut\u00edn", "COMUNA": "Vilc\u00fan", "variable": "Centros de Eduaci\u00f3n Superior", "Nombres": "CFT INSTITUTO SUPERIOR DE ESTUDIOS JUR\u00cdDICOS CANON - CENTRO DE FORMACION TECNICA CANON SEDE VILCUN", "POINT_X": -72.226185, "POINT_Y": -38.6683189991}}, {"type": "Feature", "geometry": {"type": "Point", "coordinates": [-72.43393100000003, -38.5345439991]}, "properties": {"CUT_REG": "09", "CUT_PROV": "091", "CUT_COM": "09108", "REGION": "La Araucan\u00eda", "PROVINCIA": "Caut\u00edn", "COMUNA": "Lautaro", "variable": "Centros de Eduaci\u00f3n Superior", "Nombres": "CFT DE LA REGION DE LA ARAUCANIA - CAMPUS LAUTARO", "POINT_X": -72.433931, "POINT_Y": -38.5345439991}}]}