{"type": "FeatureCollection", "features": [{"type": "Feature", "geometry": {"type": "Point", "coordinates": [-71.82068939999996, -36.72656939910003]}, "properties": {"CUT_REG": "16", "CUT_PROV": "163", "CUT_COM": "16302", "REGION": "\u00d1uble", "PROVINCIA": "Punilla", "COMUNA": "Coihueco", "variable": "Sitios de Inter\u00e9s Poblacional", "Nombres": "Carabineros - (police)", "POINT_X": -71.8206894, "POINT_Y": -36.7265693991}}, {"type": "Feature", "geometry": {"type": "Point", "coordinates": [-71.27689750000003, -36.66905279910003]}, "properties": {"CUT_REG": "16", "CUT_PROV": "163", "CUT_COM": "16304", "REGION": "\u00d1uble", "PROVINCIA": "Punilla", "COMUNA": "San Fabi\u00e1n", "variable": "Sitios de Inter\u00e9s Poblacional", "Nombres": "Estaci\u00f3n fluviometrica rio Los Sauces - (monitori", "POINT_X": -71.2768975, "POINT_Y": -36.6690527991}}, {"type": "Feature", "geometry": {"type": "Point", "coordinates": [-71.27543369999998, -36.66610699910001]}, "properties": {"CUT_REG": "16", "CUT_PROV": "163", "CUT_COM": "16304", "REGION": "\u00d1uble", "PROVINCIA": "Punilla", "COMUNA": "San Fabi\u00e1n", "variable": "Sitios de Inter\u00e9s Poblacional", "Nombres": "Refugio Caiman - (chalet)", "POINT_X": -71.2754337, "POINT_Y": -36.6661069991}}, {"type": "Feature", "geometry": {"type": "Point", "coordinates": [-71.31708359999996, -36.66465399909996]}, "properties": {"CUT_REG": "16", "CUT_PROV": "163", "CUT_COM": "16304", "REGION": "\u00d1uble", "PROVINCIA": "Punilla", "COMUNA": "San Fabi\u00e1n", "variable": "Sitios de Inter\u00e9s Poblacional", "Nombres": "Los Maitenes - (camp_site)", "POINT_X": -71.3170836, "POINT_Y": -36.6646539991}}, {"type": "Feature", "geometry": {"type": "Point", "coordinates": [-71.2730262, -36.664327699099964]}, "properties": {"CUT_REG": "16", "CUT_PROV": "163", "CUT_COM": "16304", "REGION": "\u00d1uble", "PROVINCIA": "Punilla", "COMUNA": "San Fabi\u00e1n", "variable": "Sitios de Inter\u00e9s Poblacional", "Nombres": "Lugar - (camp_site)", "POINT_X": -71.2730262, "POINT_Y": -36.6643276991}}, {"type": "Feature", "geometry": {"type": "Point", "coordinates": [-71.33044650000002, -36.66284209909997]}, "properties": {"CUT_REG": "16", "CUT_PROV": "163", "CUT_COM": "16304", "REGION": "\u00d1uble", "PROVINCIA": "Punilla", "COMUNA": "San Fabi\u00e1n", "variable": "Sitios de Inter\u00e9s Poblacional", "Nombres": "El Principal - (camp_site)", "POINT_X": -71.3304465, "POINT_Y": -36.6628420991}}, {"type": "Feature", "geometry": {"type": "Point", "coordinates": [-71.32653769999999, -36.66280959910003]}, "properties": {"CUT_REG": "16", "CUT_PROV": "163", "CUT_COM": "16304", "REGION": "\u00d1uble", "PROVINCIA": "Punilla", "COMUNA": "San Fabi\u00e1n", "variable": "Sitios de Inter\u00e9s Poblacional", "Nombres": "Estaci\u00f3n fluviometrica La Punilla - (monitoring_s", "POINT_X": -71.3265377, "POINT_Y": -36.6628095991}}, {"type": "Feature", "geometry": {"type": "Point", "coordinates": [-71.3309604, -36.662798699100016]}, "properties": {"CUT_REG": "16", "CUT_PROV": "163", "CUT_COM": "16304", "REGION": "\u00d1uble", "PROVINCIA": "Punilla", "COMUNA": "San Fabi\u00e1n", "variable": "Sitios de Inter\u00e9s Poblacional", "Nombres": "El Principal - (chalet)", "POINT_X": -71.3309604, "POINT_Y": -36.6627986991}}, {"type": "Feature", "geometry": {"type": "Point", "coordinates": [-71.38912619999996, -36.64934369909999]}, "properties": {"CUT_REG": "16", "CUT_PROV": "163", "CUT_COM": "16304", "REGION": "\u00d1uble", "PROVINCIA": "Punilla", "COMUNA": "San Fabi\u00e1n", "variable": "Sitios de Inter\u00e9s Poblacional", "Nombres": "Escuela El Caracol - (school)", "POINT_X": -71.3891262, "POINT_Y": -36.6493436991}}, {"type": "Feature", "geometry": {"type": "Point", "coordinates": [-71.87809060000001, -36.649205399100005]}, "properties": {"CUT_REG": "16", "CUT_PROV": "163", "CUT_COM": "16302", "REGION": "\u00d1uble", "PROVINCIA": "Punilla", "COMUNA": "Coihueco", "variable": "Sitios de Inter\u00e9s Poblacional", "Nombres": "Escuela - (school)", "POINT_X": -71.8780906, "POINT_Y": -36.6492053991}}, {"type": "Feature", "geometry": {"type": "Point", "coordinates": [-71.82465010000003, -36.6306581991]}, "properties": {"CUT_REG": "16", "CUT_PROV": "163", "CUT_COM": "16302", "REGION": "\u00d1uble", "PROVINCIA": "Punilla", "COMUNA": "Coihueco", "variable": "Sitios de Inter\u00e9s Poblacional", "Nombres": "- (mini_roundabout)", "POINT_X": -71.8246501, "POINT_Y": -36.6306581991}}, {"type": "Feature", "geometry": {"type": "Point", "coordinates": [-71.83164450000001, -36.62994629909998]}, "properties": {"CUT_REG": "16", "CUT_PROV": "163", "CUT_COM": "16302", "REGION": "\u00d1uble", "PROVINCIA": "Punilla", "COMUNA": "Coihueco", "variable": "Sitios de Inter\u00e9s Poblacional", "Nombres": "La Iglesia de Jesucristo de los Santos de los \u00da -", "POINT_X": -71.8316445, "POINT_Y": -36.6299462991}}, {"type": "Feature", "geometry": {"type": "Point", "coordinates": [-71.83958769999998, -36.629336899100004]}, "properties": {"CUT_REG": "16", "CUT_PROV": "163", "CUT_COM": "16302", "REGION": "\u00d1uble", "PROVINCIA": "Punilla", "COMUNA": "Coihueco", "variable": "Sitios de Inter\u00e9s Poblacional", "Nombres": "Carabineros Coihueco - (police)", "POINT_X": -71.8395877, "POINT_Y": -36.6293368991}}, {"type": "Feature", "geometry": {"type": "Point", "coordinates": [-71.83293129999998, -36.62884499909998]}, "properties": {"CUT_REG": "16", "CUT_PROV": "163", "CUT_COM": "16302", "REGION": "\u00d1uble", "PROVINCIA": "Punilla", "COMUNA": "Coihueco", "variable": "Sitios de Inter\u00e9s Poblacional", "Nombres": "- (parking)", "POINT_X": -71.8329313, "POINT_Y": -36.6288449991}}, {"type": "Feature", "geometry": {"type": "Point", "coordinates": [-71.83095599999997, -36.628484099099964]}, "properties": {"CUT_REG": "16", "CUT_PROV": "163", "CUT_COM": "16302", "REGION": "\u00d1uble", "PROVINCIA": "Punilla", "COMUNA": "Coihueco", "variable": "Sitios de Inter\u00e9s Poblacional", "Nombres": "- (traffic_signals)", "POINT_X": -71.830956, "POINT_Y": -36.6284840991}}, {"type": "Feature", "geometry": {"type": "Point", "coordinates": [-71.83253790000003, -36.628357799099994]}, "properties": {"CUT_REG": "16", "CUT_PROV": "163", "CUT_COM": "16302", "REGION": "\u00d1uble", "PROVINCIA": "Punilla", "COMUNA": "Coihueco", "variable": "Sitios de Inter\u00e9s Poblacional", "Nombres": "- (traffic_signals)", "POINT_X": -71.8325379, "POINT_Y": -36.6283577991}}, {"type": "Feature", "geometry": {"type": "Point", "coordinates": [-71.83264759999996, -36.62824699909998]}, "properties": {"CUT_REG": "16", "CUT_PROV": "163", "CUT_COM": "16302", "REGION": "\u00d1uble", "PROVINCIA": "Punilla", "COMUNA": "Coihueco", "variable": "Sitios de Inter\u00e9s Poblacional", "Nombres": "MInimarket San Esteban - (convenience)", "POINT_X": -71.8326476, "POINT_Y": -36.6282469991}}, {"type": "Feature", "geometry": {"type": "Point", "coordinates": [-71.8318322, -36.62824699909998]}, "properties": {"CUT_REG": "16", "CUT_PROV": "163", "CUT_COM": "16302", "REGION": "\u00d1uble", "PROVINCIA": "Punilla", "COMUNA": "Coihueco", "variable": "Sitios de Inter\u00e9s Poblacional", "Nombres": "Banco Estado - (bank)", "POINT_X": -71.8318322, "POINT_Y": -36.6282469991}}, {"type": "Feature", "geometry": {"type": "Point", "coordinates": [-71.83161719999997, -36.6282300991]}, "properties": {"CUT_REG": "16", "CUT_PROV": "163", "CUT_COM": "16302", "REGION": "\u00d1uble", "PROVINCIA": "Punilla", "COMUNA": "Coihueco", "variable": "Sitios de Inter\u00e9s Poblacional", "Nombres": "Municipalidad de Coihueco - (townhall)", "POINT_X": -71.8316172, "POINT_Y": -36.6282300991}}, {"type": "Feature", "geometry": {"type": "Point", "coordinates": [-71.84033169999998, -36.62790609910002]}, "properties": {"CUT_REG": "16", "CUT_PROV": "163", "CUT_COM": "16302", "REGION": "\u00d1uble", "PROVINCIA": "Punilla", "COMUNA": "Coihueco", "variable": "Sitios de Inter\u00e9s Poblacional", "Nombres": "Copec - (fuel)", "POINT_X": -71.8403317, "POINT_Y": -36.6279060991}}, {"type": "Feature", "geometry": {"type": "Point", "coordinates": [-71.84278610000003, -36.62684759910001]}, "properties": {"CUT_REG": "16", "CUT_PROV": "163", "CUT_COM": "16302", "REGION": "\u00d1uble", "PROVINCIA": "Punilla", "COMUNA": "Coihueco", "variable": "Sitios de Inter\u00e9s Poblacional", "Nombres": "Olivia - (convenience)", "POINT_X": -71.8427861, "POINT_Y": -36.6268475991}}, {"type": "Feature", "geometry": {"type": "Point", "coordinates": [-71.84370910000001, -36.62655509909997]}, "properties": {"CUT_REG": "16", "CUT_PROV": "163", "CUT_COM": "16302", "REGION": "\u00d1uble", "PROVINCIA": "Punilla", "COMUNA": "Coihueco", "variable": "Sitios de Inter\u00e9s Poblacional", "Nombres": "Santa Teresa - (convenience)", "POINT_X": -71.8437091, "POINT_Y": -36.6265550991}}, {"type": "Feature", "geometry": {"type": "Point", "coordinates": [-71.85084230000002, -36.62394879909997]}, "properties": {"CUT_REG": "16", "CUT_PROV": "163", "CUT_COM": "16302", "REGION": "\u00d1uble", "PROVINCIA": "Punilla", "COMUNA": "Coihueco", "variable": "Sitios de Inter\u00e9s Poblacional", "Nombres": "Petrobras - (fuel)", "POINT_X": -71.8508423, "POINT_Y": -36.6239487991}}, {"type": "Feature", "geometry": {"type": "Point", "coordinates": [-71.43669419999998, -36.62366519910004]}, "properties": {"CUT_REG": "16", "CUT_PROV": "163", "CUT_COM": "16304", "REGION": "\u00d1uble", "PROVINCIA": "Punilla", "COMUNA": "San Fabi\u00e1n", "variable": "Sitios de Inter\u00e9s Poblacional", "Nombres": "Juntes del Lara - (camp_site)", "POINT_X": -71.4366942, "POINT_Y": -36.6236651991}}, {"type": "Feature", "geometry": {"type": "Point", "coordinates": [-71.46854649999996, -36.601350299099956]}, "properties": {"CUT_REG": "16", "CUT_PROV": "163", "CUT_COM": "16304", "REGION": "\u00d1uble", "PROVINCIA": "Punilla", "COMUNA": "San Fabi\u00e1n", "variable": "Sitios de Inter\u00e9s Poblacional", "Nombres": "Bullileo - (camp_site)", "POINT_X": -71.4685465, "POINT_Y": -36.6013502991}}, {"type": "Feature", "geometry": {"type": "Point", "coordinates": [-71.46856440000002, -36.600903299100004]}, "properties": {"CUT_REG": "16", "CUT_PROV": "163", "CUT_COM": "16304", "REGION": "\u00d1uble", "PROVINCIA": "Punilla", "COMUNA": "San Fabi\u00e1n", "variable": "Sitios de Inter\u00e9s Poblacional", "Nombres": "Bullileo - (restaurant)", "POINT_X": -71.4685644, "POINT_Y": -36.6009032991}}, {"type": "Feature", "geometry": {"type": "Point", "coordinates": [-71.75564019999996, -36.59386609910003]}, "properties": {"CUT_REG": "16", "CUT_PROV": "163", "CUT_COM": "16302", "REGION": "\u00d1uble", "PROVINCIA": "Punilla", "COMUNA": "Coihueco", "variable": "Sitios de Inter\u00e9s Poblacional", "Nombres": "- (wayside_cross)", "POINT_X": -71.7556402, "POINT_Y": -36.5938660991}}, {"type": "Feature", "geometry": {"type": "Point", "coordinates": [-71.46588529999994, -36.59255329910004]}, "properties": {"CUT_REG": "16", "CUT_PROV": "163", "CUT_COM": "16304", "REGION": "\u00d1uble", "PROVINCIA": "Punilla", "COMUNA": "San Fabi\u00e1n", "variable": "Sitios de Inter\u00e9s Poblacional", "Nombres": "Scout Camp - (camp_site)", "POINT_X": -71.4658853, "POINT_Y": -36.5925532991}}, {"type": "Feature", "geometry": {"type": "Point", "coordinates": [-71.76430629999996, -36.591191399099976]}, "properties": {"CUT_REG": "16", "CUT_PROV": "163", "CUT_COM": "16302", "REGION": "\u00d1uble", "PROVINCIA": "Punilla", "COMUNA": "Coihueco", "variable": "Sitios de Inter\u00e9s Poblacional", "Nombres": "Posta Salud Bustamante - (hospital)", "POINT_X": -71.7643063, "POINT_Y": -36.5911913991}}, {"type": "Feature", "geometry": {"type": "Point", "coordinates": [-71.52420160000003, -36.58457269909999]}, "properties": {"CUT_REG": "16", "CUT_PROV": "163", "CUT_COM": "16304", "REGION": "\u00d1uble", "PROVINCIA": "Punilla", "COMUNA": "San Fabi\u00e1n", "variable": "Sitios de Inter\u00e9s Poblacional", "Nombres": "Nadico - (camp_site)", "POINT_X": -71.5242016, "POINT_Y": -36.5845726991}}, {"type": "Feature", "geometry": {"type": "Point", "coordinates": [-71.52561359999999, -36.58410609910002]}, "properties": {"CUT_REG": "16", "CUT_PROV": "163", "CUT_COM": "16304", "REGION": "\u00d1uble", "PROVINCIA": "Punilla", "COMUNA": "San Fabi\u00e1n", "variable": "Sitios de Inter\u00e9s Poblacional", "Nombres": "Camping San Ignacio - (camp_site)", "POINT_X": -71.5256136, "POINT_Y": -36.5841060991}}, {"type": "Feature", "geometry": {"type": "Point", "coordinates": [-71.53096679999996, -36.580571999099995]}, "properties": {"CUT_REG": "16", "CUT_PROV": "163", "CUT_COM": "16304", "REGION": "\u00d1uble", "PROVINCIA": "Punilla", "COMUNA": "San Fabi\u00e1n", "variable": "Sitios de Inter\u00e9s Poblacional", "Nombres": "Camping Los Yugos - (camp_site)", "POINT_X": -71.5309668, "POINT_Y": -36.5805719991}}, {"type": "Feature", "geometry": {"type": "Point", "coordinates": [-71.53371860000001, -36.5789929991]}, "properties": {"CUT_REG": "16", "CUT_PROV": "163", "CUT_COM": "16304", "REGION": "\u00d1uble", "PROVINCIA": "Punilla", "COMUNA": "San Fabi\u00e1n", "variable": "Sitios de Inter\u00e9s Poblacional", "Nombres": "Las Trincheras - (chalet)", "POINT_X": -71.5337186, "POINT_Y": -36.5789929991}}, {"type": "Feature", "geometry": {"type": "Point", "coordinates": [-71.23638549999995, -36.57750049909997]}, "properties": {"CUT_REG": "16", "CUT_PROV": "163", "CUT_COM": "16304", "REGION": "\u00d1uble", "PROVINCIA": "Punilla", "COMUNA": "San Fabi\u00e1n", "variable": "Sitios de Inter\u00e9s Poblacional", "Nombres": "Carabineros - (police)", "POINT_X": -71.2363855, "POINT_Y": -36.5775004991}}, {"type": "Feature", "geometry": {"type": "Point", "coordinates": [-72.21589049999997, -36.574633799100006]}, "properties": {"CUT_REG": "16", "CUT_PROV": "163", "CUT_COM": "16305", "REGION": "\u00d1uble", "PROVINCIA": "Punilla", "COMUNA": "San Nicol\u00e1s", "variable": "Sitios de Inter\u00e9s Poblacional", "Nombres": "- (monument)", "POINT_X": -72.2158905, "POINT_Y": -36.5746337991}}, {"type": "Feature", "geometry": {"type": "Point", "coordinates": [-71.67916209999996, -36.566132599099966]}, "properties": {"CUT_REG": "16", "CUT_PROV": "163", "CUT_COM": "16302", "REGION": "\u00d1uble", "PROVINCIA": "Punilla", "COMUNA": "Coihueco", "variable": "Sitios de Inter\u00e9s Poblacional", "Nombres": "Escuela San Jose - (school)", "POINT_X": -71.6791621, "POINT_Y": -36.5661325991}}, {"type": "Feature", "geometry": {"type": "Point", "coordinates": [-71.54843260000003, -36.55993039909998]}, "properties": {"CUT_REG": "16", "CUT_PROV": "163", "CUT_COM": "16304", "REGION": "\u00d1uble", "PROVINCIA": "Punilla", "COMUNA": "San Fabi\u00e1n", "variable": "Sitios de Inter\u00e9s Poblacional", "Nombres": "Carabineros - (police)", "POINT_X": -71.5484326, "POINT_Y": -36.5599303991}}, {"type": "Feature", "geometry": {"type": "Point", "coordinates": [-71.54884729999998, -36.55974099910003]}, "properties": {"CUT_REG": "16", "CUT_PROV": "163", "CUT_COM": "16304", "REGION": "\u00d1uble", "PROVINCIA": "Punilla", "COMUNA": "San Fabi\u00e1n", "variable": "Sitios de Inter\u00e9s Poblacional", "Nombres": "- (fuel)", "POINT_X": -71.5488473, "POINT_Y": -36.5597409991}}, {"type": "Feature", "geometry": {"type": "Point", "coordinates": [-71.54847540000002, -36.559611999100014]}, "properties": {"CUT_REG": "16", "CUT_PROV": "163", "CUT_COM": "16304", "REGION": "\u00d1uble", "PROVINCIA": "Punilla", "COMUNA": "San Fabi\u00e1n", "variable": "Sitios de Inter\u00e9s Poblacional", "Nombres": "- (bus_stop)", "POINT_X": -71.5484754, "POINT_Y": -36.5596119991}}, {"type": "Feature", "geometry": {"type": "Point", "coordinates": [-71.54853079999998, -36.55956499910003]}, "properties": {"CUT_REG": "16", "CUT_PROV": "163", "CUT_COM": "16304", "REGION": "\u00d1uble", "PROVINCIA": "Punilla", "COMUNA": "San Fabi\u00e1n", "variable": "Sitios de Inter\u00e9s Poblacional", "Nombres": "El Turquito - (supermarket)", "POINT_X": -71.5485308, "POINT_Y": -36.5595649991}}, {"type": "Feature", "geometry": {"type": "Point", "coordinates": [-71.55061989999999, -36.5584739991]}, "properties": {"CUT_REG": "16", "CUT_PROV": "163", "CUT_COM": "16304", "REGION": "\u00d1uble", "PROVINCIA": "Punilla", "COMUNA": "San Fabi\u00e1n", "variable": "Sitios de Inter\u00e9s Poblacional", "Nombres": "Pino Alto - (restaurant)", "POINT_X": -71.5506199, "POINT_Y": -36.5584739991}}, {"type": "Feature", "geometry": {"type": "Point", "coordinates": [-71.55038630000003, -36.558194299100045]}, "properties": {"CUT_REG": "16", "CUT_PROV": "163", "CUT_COM": "16304", "REGION": "\u00d1uble", "PROVINCIA": "Punilla", "COMUNA": "San Fabi\u00e1n", "variable": "Sitios de Inter\u00e9s Poblacional", "Nombres": "Cordillera - (restaurant)", "POINT_X": -71.5503863, "POINT_Y": -36.5581942991}}, {"type": "Feature", "geometry": {"type": "Point", "coordinates": [-71.55254910000002, -36.55711249909997]}, "properties": {"CUT_REG": "16", "CUT_PROV": "163", "CUT_COM": "16304", "REGION": "\u00d1uble", "PROVINCIA": "Punilla", "COMUNA": "San Fabi\u00e1n", "variable": "Sitios de Inter\u00e9s Poblacional", "Nombres": "Malacura - (restaurant)", "POINT_X": -71.5525491, "POINT_Y": -36.5571124991}}, {"type": "Feature", "geometry": {"type": "Point", "coordinates": [-71.54728520000003, -36.55643499909996]}, "properties": {"CUT_REG": "16", "CUT_PROV": "163", "CUT_COM": "16304", "REGION": "\u00d1uble", "PROVINCIA": "Punilla", "COMUNA": "San Fabi\u00e1n", "variable": "Sitios de Inter\u00e9s Poblacional", "Nombres": "PubBlos Discoteque - (nightclub)", "POINT_X": -71.5472852, "POINT_Y": -36.5564349991}}, {"type": "Feature", "geometry": {"type": "Point", "coordinates": [-71.550285, -36.55639729910004]}, "properties": {"CUT_REG": "16", "CUT_PROV": "163", "CUT_COM": "16304", "REGION": "\u00d1uble", "PROVINCIA": "Punilla", "COMUNA": "San Fabi\u00e1n", "variable": "Sitios de Inter\u00e9s Poblacional", "Nombres": "Informaci\u00f3n Turistica - (information)", "POINT_X": -71.550285, "POINT_Y": -36.5563972991}}, {"type": "Feature", "geometry": {"type": "Point", "coordinates": [-71.55049040000003, -36.55625609909999]}, "properties": {"CUT_REG": "16", "CUT_PROV": "163", "CUT_COM": "16304", "REGION": "\u00d1uble", "PROVINCIA": "Punilla", "COMUNA": "San Fabi\u00e1n", "variable": "Sitios de Inter\u00e9s Poblacional", "Nombres": "- (bus_stop)", "POINT_X": -71.5504904, "POINT_Y": -36.5562560991}}, {"type": "Feature", "geometry": {"type": "Point", "coordinates": [-71.54749779999995, -36.55620979909998]}, "properties": {"CUT_REG": "16", "CUT_PROV": "163", "CUT_COM": "16304", "REGION": "\u00d1uble", "PROVINCIA": "Punilla", "COMUNA": "San Fabi\u00e1n", "variable": "Sitios de Inter\u00e9s Poblacional", "Nombres": "A\u00f1il - (pub)", "POINT_X": -71.5474978, "POINT_Y": -36.5562097991}}, {"type": "Feature", "geometry": {"type": "Point", "coordinates": [-71.5493405, -36.556121399100036]}, "properties": {"CUT_REG": "16", "CUT_PROV": "163", "CUT_COM": "16304", "REGION": "\u00d1uble", "PROVINCIA": "Punilla", "COMUNA": "San Fabi\u00e1n", "variable": "Sitios de Inter\u00e9s Poblacional", "Nombres": "Liceo C-88 Jorge Alessandri - (school)", "POINT_X": -71.5493405, "POINT_Y": -36.5561213991}}, {"type": "Feature", "geometry": {"type": "Point", "coordinates": [-71.54972229999998, -36.555429599099995]}, "properties": {"CUT_REG": "16", "CUT_PROV": "163", "CUT_COM": "16304", "REGION": "\u00d1uble", "PROVINCIA": "Punilla", "COMUNA": "San Fabi\u00e1n", "variable": "Sitios de Inter\u00e9s Poblacional", "Nombres": "McChando - (fast_food)", "POINT_X": -71.5497223, "POINT_Y": -36.5554295991}}, {"type": "Feature", "geometry": {"type": "Point", "coordinates": [-71.552696, -36.55518899909998]}, "properties": {"CUT_REG": "16", "CUT_PROV": "163", "CUT_COM": "16304", "REGION": "\u00d1uble", "PROVINCIA": "Punilla", "COMUNA": "San Fabi\u00e1n", "variable": "Sitios de Inter\u00e9s Poblacional", "Nombres": "La Monta\u00f1a - (supermarket)", "POINT_X": -71.552696, "POINT_Y": -36.5551889991}}, {"type": "Feature", "geometry": {"type": "Point", "coordinates": [-71.5411414, -36.5547092991]}, "properties": {"CUT_REG": "16", "CUT_PROV": "163", "CUT_COM": "16304", "REGION": "\u00d1uble", "PROVINCIA": "Punilla", "COMUNA": "San Fabi\u00e1n", "variable": "Sitios de Inter\u00e9s Poblacional", "Nombres": "Camping Las Luci\u00e9rnagas - (camp_site)", "POINT_X": -71.5411414, "POINT_Y": -36.5547092991}}, {"type": "Feature", "geometry": {"type": "Point", "coordinates": [-71.54822889999997, -36.55400879910003]}, "properties": {"CUT_REG": "16", "CUT_PROV": "163", "CUT_COM": "16304", "REGION": "\u00d1uble", "PROVINCIA": "Punilla", "COMUNA": "San Fabi\u00e1n", "variable": "Sitios de Inter\u00e9s Poblacional", "Nombres": "- (bus_stop)", "POINT_X": -71.5482289, "POINT_Y": -36.5540087991}}, {"type": "Feature", "geometry": {"type": "Point", "coordinates": [-71.41737959999998, -36.553304299100006]}, "properties": {"CUT_REG": "16", "CUT_PROV": "163", "CUT_COM": "16304", "REGION": "\u00d1uble", "PROVINCIA": "Punilla", "COMUNA": "San Fabi\u00e1n", "variable": "Sitios de Inter\u00e9s Poblacional", "Nombres": "- (camp_site)", "POINT_X": -71.4173796, "POINT_Y": -36.5533042991}}, {"type": "Feature", "geometry": {"type": "Point", "coordinates": [-72.09099710000001, -36.54460989909997]}, "properties": {"CUT_REG": "16", "CUT_PROV": "163", "CUT_COM": "16305", "REGION": "\u00d1uble", "PROVINCIA": "Punilla", "COMUNA": "San Nicol\u00e1s", "variable": "Sitios de Inter\u00e9s Poblacional", "Nombres": "Villa Ilinois - (motorway_junctio)", "POINT_X": -72.0909971, "POINT_Y": -36.5446098991}}, {"type": "Feature", "geometry": {"type": "Point", "coordinates": [-71.78081269999996, -36.54386879910002]}, "properties": {"CUT_REG": "16", "CUT_PROV": "163", "CUT_COM": "16302", "REGION": "\u00d1uble", "PROVINCIA": "Punilla", "COMUNA": "Coihueco", "variable": "Sitios de Inter\u00e9s Poblacional", "Nombres": "Escuela - (school)", "POINT_X": -71.7808127, "POINT_Y": -36.5438687991}}, {"type": "Feature", "geometry": {"type": "Point", "coordinates": [-71.77956090000004, -36.543509999099996]}, "properties": {"CUT_REG": "16", "CUT_PROV": "163", "CUT_COM": "16302", "REGION": "\u00d1uble", "PROVINCIA": "Punilla", "COMUNA": "Coihueco", "variable": "Sitios de Inter\u00e9s Poblacional", "Nombres": "Carabineros - (police)", "POINT_X": -71.7795609, "POINT_Y": -36.5435099991}}, {"type": "Feature", "geometry": {"type": "Point", "coordinates": [-72.08897370000003, -36.54163159910001]}, "properties": {"CUT_REG": "16", "CUT_PROV": "163", "CUT_COM": "16305", "REGION": "\u00d1uble", "PROVINCIA": "Punilla", "COMUNA": "San Nicol\u00e1s", "variable": "Sitios de Inter\u00e9s Poblacional", "Nombres": "Carabineros de Chile - (parking)", "POINT_X": -72.0889737, "POINT_Y": -36.5416315991}}, {"type": "Feature", "geometry": {"type": "Point", "coordinates": [-72.08849089999995, -36.541321299100005]}, "properties": {"CUT_REG": "16", "CUT_PROV": "163", "CUT_COM": "16305", "REGION": "\u00d1uble", "PROVINCIA": "Punilla", "COMUNA": "San Nicol\u00e1s", "variable": "Sitios de Inter\u00e9s Poblacional", "Nombres": "- (police)", "POINT_X": -72.0884909, "POINT_Y": -36.5413212991}}, {"type": "Feature", "geometry": {"type": "Point", "coordinates": [-72.08269420000003, -36.536854599099996]}, "properties": {"CUT_REG": "16", "CUT_PROV": "163", "CUT_COM": "16305", "REGION": "\u00d1uble", "PROVINCIA": "Punilla", "COMUNA": "San Nicol\u00e1s", "variable": "Sitios de Inter\u00e9s Poblacional", "Nombres": "- (no fuel)", "POINT_X": -72.0826942, "POINT_Y": -36.5368545991}}, {"type": "Feature", "geometry": {"type": "Point", "coordinates": [-72.07012789999999, -36.52617209910004]}, "properties": {"CUT_REG": "16", "CUT_PROV": "163", "CUT_COM": "16305", "REGION": "\u00d1uble", "PROVINCIA": "Punilla", "COMUNA": "San Nicol\u00e1s", "variable": "Sitios de Inter\u00e9s Poblacional", "Nombres": "- (level_crossing)", "POINT_X": -72.0701279, "POINT_Y": -36.5261720991}}, {"type": "Feature", "geometry": {"type": "Point", "coordinates": [-72.0701635, -36.5261458991]}, "properties": {"CUT_REG": "16", "CUT_PROV": "163", "CUT_COM": "16305", "REGION": "\u00d1uble", "PROVINCIA": "Punilla", "COMUNA": "San Nicol\u00e1s", "variable": "Sitios de Inter\u00e9s Poblacional", "Nombres": "- (level_crossing)", "POINT_X": -72.0701635, "POINT_Y": -36.5261458991}}, {"type": "Feature", "geometry": {"type": "Point", "coordinates": [-72.06806500000002, -36.52440239909998]}, "properties": {"CUT_REG": "16", "CUT_PROV": "163", "CUT_COM": "16301", "REGION": "\u00d1uble", "PROVINCIA": "Punilla", "COMUNA": "San Carlos", "variable": "Sitios de Inter\u00e9s Poblacional", "Nombres": "Cocharcas - (station)", "POINT_X": -72.068065, "POINT_Y": -36.5244023991}}, {"type": "Feature", "geometry": {"type": "Point", "coordinates": [-72.22269519999998, -36.49951089909996]}, "properties": {"CUT_REG": "16", "CUT_PROV": "163", "CUT_COM": "16305", "REGION": "\u00d1uble", "PROVINCIA": "Punilla", "COMUNA": "San Nicol\u00e1s", "variable": "Sitios de Inter\u00e9s Poblacional", "Nombres": "Surenergy - (fuel)", "POINT_X": -72.2226952, "POINT_Y": -36.4995108991}}, {"type": "Feature", "geometry": {"type": "Point", "coordinates": [-72.0274272, -36.49229629909997]}, "properties": {"CUT_REG": "16", "CUT_PROV": "163", "CUT_COM": "16301", "REGION": "\u00d1uble", "PROVINCIA": "Punilla", "COMUNA": "San Carlos", "variable": "Sitios de Inter\u00e9s Poblacional", "Nombres": "Santa Isabel - (motorway_junctio)", "POINT_X": -72.0274272, "POINT_Y": -36.4922962991}}, {"type": "Feature", "geometry": {"type": "Point", "coordinates": [-72.02627299999999, -36.48968379909999]}, "properties": {"CUT_REG": "16", "CUT_PROV": "163", "CUT_COM": "16301", "REGION": "\u00d1uble", "PROVINCIA": "Punilla", "COMUNA": "San Carlos", "variable": "Sitios de Inter\u00e9s Poblacional", "Nombres": "- (fast_food)", "POINT_X": -72.026273, "POINT_Y": -36.4896837991}}, {"type": "Feature", "geometry": {"type": "Point", "coordinates": [-72.0260241, -36.48965139909998]}, "properties": {"CUT_REG": "16", "CUT_PROV": "163", "CUT_COM": "16301", "REGION": "\u00d1uble", "PROVINCIA": "Punilla", "COMUNA": "San Carlos", "variable": "Sitios de Inter\u00e9s Poblacional", "Nombres": "Petrobras - (fuel)", "POINT_X": -72.0260241, "POINT_Y": -36.4896513991}}, {"type": "Feature", "geometry": {"type": "Point", "coordinates": [-72.02044179999997, -36.483925699099984]}, "properties": {"CUT_REG": "16", "CUT_PROV": "163", "CUT_COM": "16301", "REGION": "\u00d1uble", "PROVINCIA": "Punilla", "COMUNA": "San Carlos", "variable": "Sitios de Inter\u00e9s Poblacional", "Nombres": "Monte Bianco - (motorway_junctio)", "POINT_X": -72.0204418, "POINT_Y": -36.4839256991}}, {"type": "Feature", "geometry": {"type": "Point", "coordinates": [-72.02034480000003, -36.48294829910002]}, "properties": {"CUT_REG": "16", "CUT_PROV": "163", "CUT_COM": "16301", "REGION": "\u00d1uble", "PROVINCIA": "Punilla", "COMUNA": "San Carlos", "variable": "Sitios de Inter\u00e9s Poblacional", "Nombres": "- (parking)", "POINT_X": -72.0203448, "POINT_Y": -36.4829482991}}, {"type": "Feature", "geometry": {"type": "Point", "coordinates": [-72.01599510000003, -36.478420499100025]}, "properties": {"CUT_REG": "16", "CUT_PROV": "163", "CUT_COM": "16301", "REGION": "\u00d1uble", "PROVINCIA": "Punilla", "COMUNA": "San Carlos", "variable": "Sitios de Inter\u00e9s Poblacional", "Nombres": "- (level_crossing)", "POINT_X": -72.0159951, "POINT_Y": -36.4784204991}}, {"type": "Feature", "geometry": {"type": "Point", "coordinates": [-72.0121036, -36.47497939909997]}, "properties": {"CUT_REG": "16", "CUT_PROV": "163", "CUT_COM": "16301", "REGION": "\u00d1uble", "PROVINCIA": "Punilla", "COMUNA": "San Carlos", "variable": "Sitios de Inter\u00e9s Poblacional", "Nombres": "- (level_crossing)", "POINT_X": -72.0121036, "POINT_Y": -36.4749793991}}, {"type": "Feature", "geometry": {"type": "Point", "coordinates": [-72.010765, -36.474430199100006]}, "properties": {"CUT_REG": "16", "CUT_PROV": "163", "CUT_COM": "16301", "REGION": "\u00d1uble", "PROVINCIA": "Punilla", "COMUNA": "San Carlos", "variable": "Sitios de Inter\u00e9s Poblacional", "Nombres": "Paradero Ninquihue - (bus_stop)", "POINT_X": -72.010765, "POINT_Y": -36.4744301991}}, {"type": "Feature", "geometry": {"type": "Point", "coordinates": [-72.01094829999998, -36.47414389910003]}, "properties": {"CUT_REG": "16", "CUT_PROV": "163", "CUT_COM": "16301", "REGION": "\u00d1uble", "PROVINCIA": "Punilla", "COMUNA": "San Carlos", "variable": "Sitios de Inter\u00e9s Poblacional", "Nombres": "Paradero Ninquihue - (bus_stop)", "POINT_X": -72.0109483, "POINT_Y": -36.4741438991}}, {"type": "Feature", "geometry": {"type": "Point", "coordinates": [-72.0055898, -36.47075749909997]}, "properties": {"CUT_REG": "16", "CUT_PROV": "163", "CUT_COM": "16301", "REGION": "\u00d1uble", "PROVINCIA": "Punilla", "COMUNA": "San Carlos", "variable": "Sitios de Inter\u00e9s Poblacional", "Nombres": "Pronto Copec - (restaurant)", "POINT_X": -72.0055898, "POINT_Y": -36.4707574991}}, {"type": "Feature", "geometry": {"type": "Point", "coordinates": [-72.00558429999998, -36.4703649991]}, "properties": {"CUT_REG": "16", "CUT_PROV": "163", "CUT_COM": "16301", "REGION": "\u00d1uble", "PROVINCIA": "Punilla", "COMUNA": "San Carlos", "variable": "Sitios de Inter\u00e9s Poblacional", "Nombres": "Copec - (fuel)", "POINT_X": -72.0055843, "POINT_Y": -36.4703649991}}, {"type": "Feature", "geometry": {"type": "Point", "coordinates": [-71.96048040000002, -36.43314969910002]}, "properties": {"CUT_REG": "16", "CUT_PROV": "163", "CUT_COM": "16301", "REGION": "\u00d1uble", "PROVINCIA": "Punilla", "COMUNA": "San Carlos", "variable": "Sitios de Inter\u00e9s Poblacional", "Nombres": "CESFAM Teresa Baldecchi - (hospital)", "POINT_X": -71.9604804, "POINT_Y": -36.4331496991}}, {"type": "Feature", "geometry": {"type": "Point", "coordinates": [-71.95870930000004, -36.432128199099964]}, "properties": {"CUT_REG": "16", "CUT_PROV": "163", "CUT_COM": "16301", "REGION": "\u00d1uble", "PROVINCIA": "Punilla", "COMUNA": "San Carlos", "variable": "Sitios de Inter\u00e9s Poblacional", "Nombres": "La Iglesia de Jesucristo de los Santos de los \u00da -", "POINT_X": -71.9587093, "POINT_Y": -36.4321281991}}, {"type": "Feature", "geometry": {"type": "Point", "coordinates": [-71.96269590000001, -36.43187219910001]}, "properties": {"CUT_REG": "16", "CUT_PROV": "163", "CUT_COM": "16301", "REGION": "\u00d1uble", "PROVINCIA": "Punilla", "COMUNA": "San Carlos", "variable": "Sitios de Inter\u00e9s Poblacional", "Nombres": "Iglesia San Carlos - (place_of_worship)", "POINT_X": -71.9626959, "POINT_Y": -36.4318721991}}, {"type": "Feature", "geometry": {"type": "Point", "coordinates": [-71.96432750000001, -36.43156209910002]}, "properties": {"CUT_REG": "16", "CUT_PROV": "163", "CUT_COM": "16301", "REGION": "\u00d1uble", "PROVINCIA": "Punilla", "COMUNA": "San Carlos", "variable": "Sitios de Inter\u00e9s Poblacional", "Nombres": "La Victoria - (butcher)", "POINT_X": -71.9643275, "POINT_Y": -36.4315620991}}, {"type": "Feature", "geometry": {"type": "Point", "coordinates": [-71.96009249999999, -36.43058729910001]}, "properties": {"CUT_REG": "16", "CUT_PROV": "163", "CUT_COM": "16301", "REGION": "\u00d1uble", "PROVINCIA": "Punilla", "COMUNA": "San Carlos", "variable": "Sitios de Inter\u00e9s Poblacional", "Nombres": "Colegio Ignacio Carrera Pinto - (school)", "POINT_X": -71.9600925, "POINT_Y": -36.4305872991}}, {"type": "Feature", "geometry": {"type": "Point", "coordinates": [-71.95948239999996, -36.42928259909998]}, "properties": {"CUT_REG": "16", "CUT_PROV": "163", "CUT_COM": "16301", "REGION": "\u00d1uble", "PROVINCIA": "Punilla", "COMUNA": "San Carlos", "variable": "Sitios de Inter\u00e9s Poblacional", "Nombres": "Hospital San Carlos - (hospital)", "POINT_X": -71.9594824, "POINT_Y": -36.4292825991}}, {"type": "Feature", "geometry": {"type": "Point", "coordinates": [-71.94827249999997, -36.4291379991]}, "properties": {"CUT_REG": "16", "CUT_PROV": "163", "CUT_COM": "16301", "REGION": "\u00d1uble", "PROVINCIA": "Punilla", "COMUNA": "San Carlos", "variable": "Sitios de Inter\u00e9s Poblacional", "Nombres": "- (water_tower)", "POINT_X": -71.9482725, "POINT_Y": -36.4291379991}}, {"type": "Feature", "geometry": {"type": "Point", "coordinates": [-71.95804370000002, -36.42690229910003]}, "properties": {"CUT_REG": "16", "CUT_PROV": "163", "CUT_COM": "16301", "REGION": "\u00d1uble", "PROVINCIA": "Punilla", "COMUNA": "San Carlos", "variable": "Sitios de Inter\u00e9s Poblacional", "Nombres": "- (supermarket)", "POINT_X": -71.9580437, "POINT_Y": -36.4269022991}}, {"type": "Feature", "geometry": {"type": "Point", "coordinates": [-71.94856730000004, -36.42659629910002]}, "properties": {"CUT_REG": "16", "CUT_PROV": "163", "CUT_COM": "16301", "REGION": "\u00d1uble", "PROVINCIA": "Punilla", "COMUNA": "San Carlos", "variable": "Sitios de Inter\u00e9s Poblacional", "Nombres": "Copec - (fuel)", "POINT_X": -71.9485673, "POINT_Y": -36.4265962991}}, {"type": "Feature", "geometry": {"type": "Point", "coordinates": [-71.96018369999999, -36.426465299100016]}, "properties": {"CUT_REG": "16", "CUT_PROV": "163", "CUT_COM": "16301", "REGION": "\u00d1uble", "PROVINCIA": "Punilla", "COMUNA": "San Carlos", "variable": "Sitios de Inter\u00e9s Poblacional", "Nombres": "Monumento a Violeta Parra - (memorial)", "POINT_X": -71.9601837, "POINT_Y": -36.4264652991}}, {"type": "Feature", "geometry": {"type": "Point", "coordinates": [-71.94919159999999, -36.426218399100016]}, "properties": {"CUT_REG": "16", "CUT_PROV": "163", "CUT_COM": "16301", "REGION": "\u00d1uble", "PROVINCIA": "Punilla", "COMUNA": "San Carlos", "variable": "Sitios de Inter\u00e9s Poblacional", "Nombres": "- (bus_stop)", "POINT_X": -71.9491916, "POINT_Y": -36.4262183991}}, {"type": "Feature", "geometry": {"type": "Point", "coordinates": [-71.9666953, -36.42578069910004]}, "properties": {"CUT_REG": "16", "CUT_PROV": "163", "CUT_COM": "16301", "REGION": "\u00d1uble", "PROVINCIA": "Punilla", "COMUNA": "San Carlos", "variable": "Sitios de Inter\u00e9s Poblacional", "Nombres": "San Carlos - (station)", "POINT_X": -71.9666953, "POINT_Y": -36.4257806991}}, {"type": "Feature", "geometry": {"type": "Point", "coordinates": [-71.95765759999996, -36.42563819909997]}, "properties": {"CUT_REG": "16", "CUT_PROV": "163", "CUT_COM": "16301", "REGION": "\u00d1uble", "PROVINCIA": "Punilla", "COMUNA": "San Carlos", "variable": "Sitios de Inter\u00e9s Poblacional", "Nombres": "Banco de Chile - (bank)", "POINT_X": -71.9576576, "POINT_Y": -36.4256381991}}, {"type": "Feature", "geometry": {"type": "Point", "coordinates": [-71.95866339999996, -36.42545909909999]}, "properties": {"CUT_REG": "16", "CUT_PROV": "163", "CUT_COM": "16301", "REGION": "\u00d1uble", "PROVINCIA": "Punilla", "COMUNA": "San Carlos", "variable": "Sitios de Inter\u00e9s Poblacional", "Nombres": "Banco Santander - (bank)", "POINT_X": -71.9586634, "POINT_Y": -36.4254590991}}, {"type": "Feature", "geometry": {"type": "Point", "coordinates": [-71.95993469999999, -36.42524899910001]}, "properties": {"CUT_REG": "16", "CUT_PROV": "163", "CUT_COM": "16301", "REGION": "\u00d1uble", "PROVINCIA": "Punilla", "COMUNA": "San Carlos", "variable": "Sitios de Inter\u00e9s Poblacional", "Nombres": "- (fuel)", "POINT_X": -71.9599347, "POINT_Y": -36.4252489991}}, {"type": "Feature", "geometry": {"type": "Point", "coordinates": [-71.95725509999997, -36.425159099100036]}, "properties": {"CUT_REG": "16", "CUT_PROV": "163", "CUT_COM": "16301", "REGION": "\u00d1uble", "PROVINCIA": "Punilla", "COMUNA": "San Carlos", "variable": "Sitios de Inter\u00e9s Poblacional", "Nombres": "Servi Estado - (bank)", "POINT_X": -71.9572551, "POINT_Y": -36.4251590991}}, {"type": "Feature", "geometry": {"type": "Point", "coordinates": [-71.95716409999999, -36.424919499100014]}, "properties": {"CUT_REG": "16", "CUT_PROV": "163", "CUT_COM": "16301", "REGION": "\u00d1uble", "PROVINCIA": "Punilla", "COMUNA": "San Carlos", "variable": "Sitios de Inter\u00e9s Poblacional", "Nombres": "Banco Estado - (bank)", "POINT_X": -71.9571641, "POINT_Y": -36.4249194991}}, {"type": "Feature", "geometry": {"type": "Point", "coordinates": [-71.94794480000004, -36.4246487991]}, "properties": {"CUT_REG": "16", "CUT_PROV": "163", "CUT_COM": "16301", "REGION": "\u00d1uble", "PROVINCIA": "Punilla", "COMUNA": "San Carlos", "variable": "Sitios de Inter\u00e9s Poblacional", "Nombres": "Terminal Buses San Carlos - (bus_station)", "POINT_X": -71.9479448, "POINT_Y": -36.4246487991}}, {"type": "Feature", "geometry": {"type": "Point", "coordinates": [-71.95879429999997, -36.424226299100035]}, "properties": {"CUT_REG": "16", "CUT_PROV": "163", "CUT_COM": "16301", "REGION": "\u00d1uble", "PROVINCIA": "Punilla", "COMUNA": "San Carlos", "variable": "Sitios de Inter\u00e9s Poblacional", "Nombres": "Correos de Chile - (post_office)", "POINT_X": -71.9587943, "POINT_Y": -36.4242262991}}, {"type": "Feature", "geometry": {"type": "Point", "coordinates": [-71.95774339999996, -36.424177099099964]}, "properties": {"CUT_REG": "16", "CUT_PROV": "163", "CUT_COM": "16301", "REGION": "\u00d1uble", "PROVINCIA": "Punilla", "COMUNA": "San Carlos", "variable": "Sitios de Inter\u00e9s Poblacional", "Nombres": "Bomberos - (fire_station)", "POINT_X": -71.9577434, "POINT_Y": -36.4241770991}}, {"type": "Feature", "geometry": {"type": "Point", "coordinates": [-71.95830670000002, -36.4236526991]}, "properties": {"CUT_REG": "16", "CUT_PROV": "163", "CUT_COM": "16301", "REGION": "\u00d1uble", "PROVINCIA": "Punilla", "COMUNA": "San Carlos", "variable": "Sitios de Inter\u00e9s Poblacional", "Nombres": "Biblioteca Municipal - (library)", "POINT_X": -71.9583067, "POINT_Y": -36.4236526991}}, {"type": "Feature", "geometry": {"type": "Point", "coordinates": [-71.96258210000002, -36.42346269910001]}, "properties": {"CUT_REG": "16", "CUT_PROV": "163", "CUT_COM": "16301", "REGION": "\u00d1uble", "PROVINCIA": "Punilla", "COMUNA": "San Carlos", "variable": "Sitios de Inter\u00e9s Poblacional", "Nombres": "Carabineros San Carlos - (police)", "POINT_X": -71.9625821, "POINT_Y": -36.4234626991}}, {"type": "Feature", "geometry": {"type": "Point", "coordinates": [-71.95812269999999, -36.42320269909999]}, "properties": {"CUT_REG": "16", "CUT_PROV": "163", "CUT_COM": "16301", "REGION": "\u00d1uble", "PROVINCIA": "Punilla", "COMUNA": "San Carlos", "variable": "Sitios de Inter\u00e9s Poblacional", "Nombres": "Club Social - (restaurant)", "POINT_X": -71.9581227, "POINT_Y": -36.4232026991}}, {"type": "Feature", "geometry": {"type": "Point", "coordinates": [-71.95636470000002, -36.423108199099985]}, "properties": {"CUT_REG": "16", "CUT_PROV": "163", "CUT_COM": "16301", "REGION": "\u00d1uble", "PROVINCIA": "Punilla", "COMUNA": "San Carlos", "variable": "Sitios de Inter\u00e9s Poblacional", "Nombres": "- (bakery)", "POINT_X": -71.9563647, "POINT_Y": -36.4231081991}}, {"type": "Feature", "geometry": {"type": "Point", "coordinates": [-71.96406849999998, -36.422863099099956]}, "properties": {"CUT_REG": "16", "CUT_PROV": "163", "CUT_COM": "16301", "REGION": "\u00d1uble", "PROVINCIA": "Punilla", "COMUNA": "San Carlos", "variable": "Sitios de Inter\u00e9s Poblacional", "Nombres": "Terminal de Buses la palmera - (bus_station)", "POINT_X": -71.9640685, "POINT_Y": -36.4228630991}}, {"type": "Feature", "geometry": {"type": "Point", "coordinates": [-71.95120389999995, -36.42248299910003]}, "properties": {"CUT_REG": "16", "CUT_PROV": "163", "CUT_COM": "16301", "REGION": "\u00d1uble", "PROVINCIA": "Punilla", "COMUNA": "San Carlos", "variable": "Sitios de Inter\u00e9s Poblacional", "Nombres": "Consultorio Valle Hondo - (hospital)", "POINT_X": -71.9512039, "POINT_Y": -36.4224829991}}, {"type": "Feature", "geometry": {"type": "Point", "coordinates": [-71.95504719999998, -36.42143769909997]}, "properties": {"CUT_REG": "16", "CUT_PROV": "163", "CUT_COM": "16301", "REGION": "\u00d1uble", "PROVINCIA": "Punilla", "COMUNA": "San Carlos", "variable": "Sitios de Inter\u00e9s Poblacional", "Nombres": "Terminal de Buses Independencia - (bus_station)", "POINT_X": -71.9550472, "POINT_Y": -36.4214376991}}, {"type": "Feature", "geometry": {"type": "Point", "coordinates": [-71.96966209999997, -36.418103999100005]}, "properties": {"CUT_REG": "16", "CUT_PROV": "163", "CUT_COM": "16301", "REGION": "\u00d1uble", "PROVINCIA": "Punilla", "COMUNA": "San Carlos", "variable": "Sitios de Inter\u00e9s Poblacional", "Nombres": "- (hospital)", "POINT_X": -71.9696621, "POINT_Y": -36.4181039991}}, {"type": "Feature", "geometry": {"type": "Point", "coordinates": [-71.96531989999997, -36.416364399099955]}, "properties": {"CUT_REG": "16", "CUT_PROV": "163", "CUT_COM": "16301", "REGION": "\u00d1uble", "PROVINCIA": "Punilla", "COMUNA": "San Carlos", "variable": "Sitios de Inter\u00e9s Poblacional", "Nombres": "- (parking)", "POINT_X": -71.9653199, "POINT_Y": -36.4163643991}}, {"type": "Feature", "geometry": {"type": "Point", "coordinates": [-71.93455149999997, -36.358170099100015]}, "properties": {"CUT_REG": "16", "CUT_PROV": "163", "CUT_COM": "16301", "REGION": "\u00d1uble", "PROVINCIA": "Punilla", "COMUNA": "San Carlos", "variable": "Sitios de Inter\u00e9s Poblacional", "Nombres": "Buli - (station)", "POINT_X": -71.9345515, "POINT_Y": -36.3581700991}}, {"type": "Feature", "geometry": {"type": "Point", "coordinates": [-71.86987629999999, -36.35678309910001]}, "properties": {"CUT_REG": "16", "CUT_PROV": "163", "CUT_COM": "16303", "REGION": "\u00d1uble", "PROVINCIA": "Punilla", "COMUNA": "\u00d1iqu\u00e9n", "variable": "Sitios de Inter\u00e9s Poblacional", "Nombres": "Terpel - (fuel)", "POINT_X": -71.8698763, "POINT_Y": -36.3567830991}}, {"type": "Feature", "geometry": {"type": "Point", "coordinates": [-71.90158530000001, -36.293816499100004]}, "properties": {"CUT_REG": "16", "CUT_PROV": "163", "CUT_COM": "16303", "REGION": "\u00d1uble", "PROVINCIA": "Punilla", "COMUNA": "\u00d1iqu\u00e9n", "variable": "Sitios de Inter\u00e9s Poblacional", "Nombres": "\u00d1iqu\u00e9n - (station)", "POINT_X": -71.9015853, "POINT_Y": -36.2938164991}}]}