{"type": "FeatureCollection", "features": [{"type": "Feature", "geometry": {"type": "Point", "coordinates": [-70.6809979, -32.927688699099974]}, "properties": {"CUT_REG": "05", "CUT_PROV": "053", "CUT_COM": "05303", "REGION": "Valpara\u00edso", "PROVINCIA": "Los Andes", "COMUNA": "Rinconada", "variable": "Sitios de Inter\u00e9s Poblacional", "Nombres": "Estacionamiento Casino Enjoy Santiago - (parking)", "POINT_X": -70.6809979, "POINT_Y": -32.9276886991}}, {"type": "Feature", "geometry": {"type": "Point", "coordinates": [-70.68001229999999, -32.926961499100024]}, "properties": {"CUT_REG": "05", "CUT_PROV": "053", "CUT_COM": "05303", "REGION": "Valpara\u00edso", "PROVINCIA": "Los Andes", "COMUNA": "Rinconada", "variable": "Sitios de Inter\u00e9s Poblacional", "Nombres": "Cafeter\u00eda Dynamo - (cafe)", "POINT_X": -70.6800123, "POINT_Y": -32.9269614991}}, {"type": "Feature", "geometry": {"type": "Point", "coordinates": [-70.68020549999997, -32.92664629909997]}, "properties": {"CUT_REG": "05", "CUT_PROV": "053", "CUT_COM": "05303", "REGION": "Valpara\u00edso", "PROVINCIA": "Los Andes", "COMUNA": "Rinconada", "variable": "Sitios de Inter\u00e9s Poblacional", "Nombres": "Bar 360 - (bar)", "POINT_X": -70.6802055, "POINT_Y": -32.9266462991}}, {"type": "Feature", "geometry": {"type": "Point", "coordinates": [-70.67982989999999, -32.92659179909999]}, "properties": {"CUT_REG": "05", "CUT_PROV": "053", "CUT_COM": "05303", "REGION": "Valpara\u00edso", "PROVINCIA": "Los Andes", "COMUNA": "Rinconada", "variable": "Sitios de Inter\u00e9s Poblacional", "Nombres": "Santerra - (restaurant)", "POINT_X": -70.6798299, "POINT_Y": -32.9265917991}}, {"type": "Feature", "geometry": {"type": "Point", "coordinates": [-70.67937940000002, -32.92624059909998]}, "properties": {"CUT_REG": "05", "CUT_PROV": "053", "CUT_COM": "05303", "REGION": "Valpara\u00edso", "PROVINCIA": "Los Andes", "COMUNA": "Rinconada", "variable": "Sitios de Inter\u00e9s Poblacional", "Nombres": "Hotel Casino Enjoy - (hotel)", "POINT_X": -70.6793794, "POINT_Y": -32.9262405991}}, {"type": "Feature", "geometry": {"type": "Point", "coordinates": [-70.0930939, -32.9156899991]}, "properties": {"CUT_REG": "05", "CUT_PROV": "053", "CUT_COM": "05301", "REGION": "Valpara\u00edso", "PROVINCIA": "Los Andes", "COMUNA": "Los Andes", "variable": "Sitios de Inter\u00e9s Poblacional", "Nombres": "Parque Andino Juncal - (viewpoint)", "POINT_X": -70.0930939, "POINT_Y": -32.9156899991}}, {"type": "Feature", "geometry": {"type": "Point", "coordinates": [-70.09351129999999, -32.915375699100025]}, "properties": {"CUT_REG": "05", "CUT_PROV": "053", "CUT_COM": "05301", "REGION": "Valpara\u00edso", "PROVINCIA": "Los Andes", "COMUNA": "Los Andes", "variable": "Sitios de Inter\u00e9s Poblacional", "Nombres": "Refugio Los Hornitos - (alpine_hut)", "POINT_X": -70.0935113, "POINT_Y": -32.9153756991}}, {"type": "Feature", "geometry": {"type": "Point", "coordinates": [-70.67631079999995, -32.91387379910001]}, "properties": {"CUT_REG": "05", "CUT_PROV": "053", "CUT_COM": "05303", "REGION": "Valpara\u00edso", "PROVINCIA": "Los Andes", "COMUNA": "Rinconada", "variable": "Sitios de Inter\u00e9s Poblacional", "Nombres": "Fruteria - (convenience)", "POINT_X": -70.6763108, "POINT_Y": -32.9138737991}}, {"type": "Feature", "geometry": {"type": "Point", "coordinates": [-70.67632259999996, -32.913710099099966]}, "properties": {"CUT_REG": "05", "CUT_PROV": "053", "CUT_COM": "05303", "REGION": "Valpara\u00edso", "PROVINCIA": "Los Andes", "COMUNA": "Rinconada", "variable": "Sitios de Inter\u00e9s Poblacional", "Nombres": "Estero Verde - (restaurant)", "POINT_X": -70.6763226, "POINT_Y": -32.9137100991}}, {"type": "Feature", "geometry": {"type": "Point", "coordinates": [-70.31186910000002, -32.9135719991]}, "properties": {"CUT_REG": "05", "CUT_PROV": "053", "CUT_COM": "05301", "REGION": "Valpara\u00edso", "PROVINCIA": "Los Andes", "COMUNA": "Los Andes", "variable": "Sitios de Inter\u00e9s Poblacional", "Nombres": "- (switch)", "POINT_X": -70.3118691, "POINT_Y": -32.9135719991}}, {"type": "Feature", "geometry": {"type": "Point", "coordinates": [-70.30545410000002, -32.909630099099985]}, "properties": {"CUT_REG": "05", "CUT_PROV": "053", "CUT_COM": "05301", "REGION": "Valpara\u00edso", "PROVINCIA": "Los Andes", "COMUNA": "Los Andes", "variable": "Sitios de Inter\u00e9s Poblacional", "Nombres": "- (switch)", "POINT_X": -70.3054541, "POINT_Y": -32.9096300991}}, {"type": "Feature", "geometry": {"type": "Point", "coordinates": [-70.30484100000001, -32.90911159909998]}, "properties": {"CUT_REG": "05", "CUT_PROV": "053", "CUT_COM": "05301", "REGION": "Valpara\u00edso", "PROVINCIA": "Los Andes", "COMUNA": "Los Andes", "variable": "Sitios de Inter\u00e9s Poblacional", "Nombres": "R\u00edo Blanco - (station)", "POINT_X": -70.304841, "POINT_Y": -32.9091115991}}, {"type": "Feature", "geometry": {"type": "Point", "coordinates": [-70.2937179, -32.90760549909998]}, "properties": {"CUT_REG": "05", "CUT_PROV": "053", "CUT_COM": "05301", "REGION": "Valpara\u00edso", "PROVINCIA": "Los Andes", "COMUNA": "Los Andes", "variable": "Sitios de Inter\u00e9s Poblacional", "Nombres": "COPEC - (fuel)", "POINT_X": -70.2937179, "POINT_Y": -32.9076054991}}, {"type": "Feature", "geometry": {"type": "Point", "coordinates": [-70.36409150000003, -32.902744299100014]}, "properties": {"CUT_REG": "05", "CUT_PROV": "053", "CUT_COM": "05304", "REGION": "Valpara\u00edso", "PROVINCIA": "Los Andes", "COMUNA": "San Esteban", "variable": "Sitios de Inter\u00e9s Poblacional", "Nombres": "Salto del Soldado - (viewpoint)", "POINT_X": -70.3640915, "POINT_Y": -32.9027442991}}, {"type": "Feature", "geometry": {"type": "Point", "coordinates": [-70.67588650000002, -32.8949293991]}, "properties": {"CUT_REG": "05", "CUT_PROV": "053", "CUT_COM": "05302", "REGION": "Valpara\u00edso", "PROVINCIA": "Los Andes", "COMUNA": "Calle Larga", "variable": "Sitios de Inter\u00e9s Poblacional", "Nombres": "Los Pimientos de Auco - (restaurant)", "POINT_X": -70.6758865, "POINT_Y": -32.8949293991}}, {"type": "Feature", "geometry": {"type": "Point", "coordinates": [-70.67682980000001, -32.89437079909997]}, "properties": {"CUT_REG": "05", "CUT_PROV": "053", "CUT_COM": "05303", "REGION": "Valpara\u00edso", "PROVINCIA": "Los Andes", "COMUNA": "Rinconada", "variable": "Sitios de Inter\u00e9s Poblacional", "Nombres": "Santuario de Auco - (parking)", "POINT_X": -70.6768298, "POINT_Y": -32.8943707991}}, {"type": "Feature", "geometry": {"type": "Point", "coordinates": [-70.6780514, -32.89360109909997]}, "properties": {"CUT_REG": "05", "CUT_PROV": "053", "CUT_COM": "05303", "REGION": "Valpara\u00edso", "PROVINCIA": "Los Andes", "COMUNA": "Rinconada", "variable": "Sitios de Inter\u00e9s Poblacional", "Nombres": "Casino Santuario de Auco - (fast_food)", "POINT_X": -70.6780514, "POINT_Y": -32.8936010991}}, {"type": "Feature", "geometry": {"type": "Point", "coordinates": [-70.6769414, -32.89346269909997]}, "properties": {"CUT_REG": "05", "CUT_PROV": "053", "CUT_COM": "05303", "REGION": "Valpara\u00edso", "PROVINCIA": "Los Andes", "COMUNA": "Rinconada", "variable": "Sitios de Inter\u00e9s Poblacional", "Nombres": "Santuario de Auco - (parking)", "POINT_X": -70.6769414, "POINT_Y": -32.8934626991}}, {"type": "Feature", "geometry": {"type": "Point", "coordinates": [-70.67588860000002, -32.89345729909997]}, "properties": {"CUT_REG": "05", "CUT_PROV": "053", "CUT_COM": "05302", "REGION": "Valpara\u00edso", "PROVINCIA": "Los Andes", "COMUNA": "Calle Larga", "variable": "Sitios de Inter\u00e9s Poblacional", "Nombres": "La Pica de Auco - (restaurant)", "POINT_X": -70.6758886, "POINT_Y": -32.8934572991}}, {"type": "Feature", "geometry": {"type": "Point", "coordinates": [-70.67570009999997, -32.89303219909997]}, "properties": {"CUT_REG": "05", "CUT_PROV": "053", "CUT_COM": "05302", "REGION": "Valpara\u00edso", "PROVINCIA": "Los Andes", "COMUNA": "Calle Larga", "variable": "Sitios de Inter\u00e9s Poblacional", "Nombres": "Campanario de Auco - (restaurant)", "POINT_X": -70.6757001, "POINT_Y": -32.8930321991}}, {"type": "Feature", "geometry": {"type": "Point", "coordinates": [-70.67557479999999, -32.892817799099994]}, "properties": {"CUT_REG": "05", "CUT_PROV": "053", "CUT_COM": "05302", "REGION": "Valpara\u00edso", "PROVINCIA": "Los Andes", "COMUNA": "Calle Larga", "variable": "Sitios de Inter\u00e9s Poblacional", "Nombres": "Campanaerio de Auco - (parking)", "POINT_X": -70.6755748, "POINT_Y": -32.8928177991}}, {"type": "Feature", "geometry": {"type": "Point", "coordinates": [-70.67722879999997, -32.89133849909999]}, "properties": {"CUT_REG": "05", "CUT_PROV": "053", "CUT_COM": "05303", "REGION": "Valpara\u00edso", "PROVINCIA": "Los Andes", "COMUNA": "Rinconada", "variable": "Sitios de Inter\u00e9s Poblacional", "Nombres": "Terminal de Buses Santa Teresa de los Andes - (bu*", "POINT_X": -70.6772288, "POINT_Y": -32.8913384991}}, {"type": "Feature", "geometry": {"type": "Point", "coordinates": [-70.65985760000001, -32.88341709910004]}, "properties": {"CUT_REG": "05", "CUT_PROV": "053", "CUT_COM": "05302", "REGION": "Valpara\u00edso", "PROVINCIA": "Los Andes", "COMUNA": "Calle Larga", "variable": "Sitios de Inter\u00e9s Poblacional", "Nombres": "Entre Parras - (restaurant)", "POINT_X": -70.6598576, "POINT_Y": -32.8834170991}}, {"type": "Feature", "geometry": {"type": "Point", "coordinates": [-70.14839550000005, -32.87104869910004]}, "properties": {"CUT_REG": "05", "CUT_PROV": "053", "CUT_COM": "05301", "REGION": "Valpara\u00edso", "PROVINCIA": "Los Andes", "COMUNA": "Los Andes", "variable": "Sitios de Inter\u00e9s Poblacional", "Nombres": "Hermanos Clark - (station)", "POINT_X": -70.1483955, "POINT_Y": -32.8710486991}}, {"type": "Feature", "geometry": {"type": "Point", "coordinates": [-70.6805065, -32.870198499100034]}, "properties": {"CUT_REG": "05", "CUT_PROV": "053", "CUT_COM": "05303", "REGION": "Valpara\u00edso", "PROVINCIA": "Los Andes", "COMUNA": "Rinconada", "variable": "Sitios de Inter\u00e9s Poblacional", "Nombres": "Marcela - (convenience)", "POINT_X": -70.6805065, "POINT_Y": -32.8701984991}}, {"type": "Feature", "geometry": {"type": "Point", "coordinates": [-70.62655459999999, -32.85552689909997]}, "properties": {"CUT_REG": "05", "CUT_PROV": "053", "CUT_COM": "05302", "REGION": "Valpara\u00edso", "PROVINCIA": "Los Andes", "COMUNA": "Calle Larga", "variable": "Sitios de Inter\u00e9s Poblacional", "Nombres": "Comisaria Calle Larga - (police)", "POINT_X": -70.6265546, "POINT_Y": -32.8555268991}}, {"type": "Feature", "geometry": {"type": "Point", "coordinates": [-70.68354269999996, -32.85451089910002]}, "properties": {"CUT_REG": "05", "CUT_PROV": "053", "CUT_COM": "05303", "REGION": "Valpara\u00edso", "PROVINCIA": "Los Andes", "COMUNA": "Rinconada", "variable": "Sitios de Inter\u00e9s Poblacional", "Nombres": "Gui Gui - (convenience)", "POINT_X": -70.6835427, "POINT_Y": -32.8545108991}}, {"type": "Feature", "geometry": {"type": "Point", "coordinates": [-70.62411800000001, -32.85302919909999]}, "properties": {"CUT_REG": "05", "CUT_PROV": "053", "CUT_COM": "05302", "REGION": "Valpara\u00edso", "PROVINCIA": "Los Andes", "COMUNA": "Calle Larga", "variable": "Sitios de Inter\u00e9s Poblacional", "Nombres": "Copec - (fuel)", "POINT_X": -70.624118, "POINT_Y": -32.8530291991}}, {"type": "Feature", "geometry": {"type": "Point", "coordinates": [-70.68463099999994, -32.851918799099955]}, "properties": {"CUT_REG": "05", "CUT_PROV": "053", "CUT_COM": "05303", "REGION": "Valpara\u00edso", "PROVINCIA": "Los Andes", "COMUNA": "Rinconada", "variable": "Sitios de Inter\u00e9s Poblacional", "Nombres": "Copec - (fuel)", "POINT_X": -70.684631, "POINT_Y": -32.8519187991}}, {"type": "Feature", "geometry": {"type": "Point", "coordinates": [-70.62673799999999, -32.85149689910004]}, "properties": {"CUT_REG": "05", "CUT_PROV": "053", "CUT_COM": "05302", "REGION": "Valpara\u00edso", "PROVINCIA": "Los Andes", "COMUNA": "Calle Larga", "variable": "Sitios de Inter\u00e9s Poblacional", "Nombres": "Krizaos - (motel)", "POINT_X": -70.626738, "POINT_Y": -32.8514968991}}, {"type": "Feature", "geometry": {"type": "Point", "coordinates": [-70.68437420000001, -32.851347399100014]}, "properties": {"CUT_REG": "05", "CUT_PROV": "053", "CUT_COM": "05303", "REGION": "Valpara\u00edso", "PROVINCIA": "Los Andes", "COMUNA": "Rinconada", "variable": "Sitios de Inter\u00e9s Poblacional", "Nombres": "Bomberos Rinconada de Los Andes - (fire_station)", "POINT_X": -70.6843742, "POINT_Y": -32.8513473991}}, {"type": "Feature", "geometry": {"type": "Point", "coordinates": [-70.68537199999997, -32.84852629910001]}, "properties": {"CUT_REG": "05", "CUT_PROV": "053", "CUT_COM": "05303", "REGION": "Valpara\u00edso", "PROVINCIA": "Los Andes", "COMUNA": "Rinconada", "variable": "Sitios de Inter\u00e9s Poblacional", "Nombres": "El Esquinazo - (restaurant)", "POINT_X": -70.685372, "POINT_Y": -32.8485262991}}, {"type": "Feature", "geometry": {"type": "Point", "coordinates": [-70.59877749999995, -32.846873699099966]}, "properties": {"CUT_REG": "05", "CUT_PROV": "053", "CUT_COM": "05301", "REGION": "Valpara\u00edso", "PROVINCIA": "Los Andes", "COMUNA": "Los Andes", "variable": "Sitios de Inter\u00e9s Poblacional", "Nombres": "Planta de Revision Tecnica - (car_repair)", "POINT_X": -70.5987775, "POINT_Y": -32.8468736991}}, {"type": "Feature", "geometry": {"type": "Point", "coordinates": [-70.11840459999998, -32.84665759910003]}, "properties": {"CUT_REG": "05", "CUT_PROV": "053", "CUT_COM": "05301", "REGION": "Valpara\u00edso", "PROVINCIA": "Los Andes", "COMUNA": "Los Andes", "variable": "Sitios de Inter\u00e9s Poblacional", "Nombres": "- (border_control)", "POINT_X": -70.1184046, "POINT_Y": -32.8466575991}}, {"type": "Feature", "geometry": {"type": "Point", "coordinates": [-70.5860845, -32.845984199099995]}, "properties": {"CUT_REG": "05", "CUT_PROV": "053", "CUT_COM": "05301", "REGION": "Valpara\u00edso", "PROVINCIA": "Los Andes", "COMUNA": "Los Andes", "variable": "Sitios de Inter\u00e9s Poblacional", "Nombres": "Cl\u00ednica R\u00edo Blanco - (hospital)", "POINT_X": -70.5860845, "POINT_Y": -32.8459841991}}, {"type": "Feature", "geometry": {"type": "Point", "coordinates": [-70.12893849999999, -32.84587699910001]}, "properties": {"CUT_REG": "05", "CUT_PROV": "053", "CUT_COM": "05301", "REGION": "Valpara\u00edso", "PROVINCIA": "Los Andes", "COMUNA": "Los Andes", "variable": "Sitios de Inter\u00e9s Poblacional", "Nombres": "Refugio Escuela de Alta Monta\u00f1a - Ejercito de C -", "POINT_X": -70.1289385, "POINT_Y": -32.8458769991}}, {"type": "Feature", "geometry": {"type": "Point", "coordinates": [-70.59072469999998, -32.84582869910001]}, "properties": {"CUT_REG": "05", "CUT_PROV": "053", "CUT_COM": "05301", "REGION": "Valpara\u00edso", "PROVINCIA": "Los Andes", "COMUNA": "Los Andes", "variable": "Sitios de Inter\u00e9s Poblacional", "Nombres": "Capilla San Lorenzo - (place_of_worship)", "POINT_X": -70.5907247, "POINT_Y": -32.8458286991}}, {"type": "Feature", "geometry": {"type": "Point", "coordinates": [-70.11816340000001, -32.84578829910004]}, "properties": {"CUT_REG": "05", "CUT_PROV": "053", "CUT_COM": "05301", "REGION": "Valpara\u00edso", "PROVINCIA": "Los Andes", "COMUNA": "Los Andes", "variable": "Sitios de Inter\u00e9s Poblacional", "Nombres": "- (border_control)", "POINT_X": -70.1181634, "POINT_Y": -32.8457882991}}, {"type": "Feature", "geometry": {"type": "Point", "coordinates": [-70.12935049999997, -32.84542269909999]}, "properties": {"CUT_REG": "05", "CUT_PROV": "053", "CUT_COM": "05301", "REGION": "Valpara\u00edso", "PROVINCIA": "Los Andes", "COMUNA": "Los Andes", "variable": "Sitios de Inter\u00e9s Poblacional", "Nombres": "Refugio Escuela de Alta Monta\u00f1a - Ejercito de C -", "POINT_X": -70.1293505, "POINT_Y": -32.8454226991}}, {"type": "Feature", "geometry": {"type": "Point", "coordinates": [-70.68722809999998, -32.84520479909999]}, "properties": {"CUT_REG": "05", "CUT_PROV": "053", "CUT_COM": "05303", "REGION": "Valpara\u00edso", "PROVINCIA": "Los Andes", "COMUNA": "Rinconada", "variable": "Sitios de Inter\u00e9s Poblacional", "Nombres": "Consultorio Rinconada de los Andes - (hospital)", "POINT_X": -70.6872281, "POINT_Y": -32.8452047991}}, {"type": "Feature", "geometry": {"type": "Point", "coordinates": [-70.68604259999995, -32.84401489910004]}, "properties": {"CUT_REG": "05", "CUT_PROV": "053", "CUT_COM": "05303", "REGION": "Valpara\u00edso", "PROVINCIA": "Los Andes", "COMUNA": "Rinconada", "variable": "Sitios de Inter\u00e9s Poblacional", "Nombres": "Minimarket Apex - (convenience)", "POINT_X": -70.6860426, "POINT_Y": -32.8440148991}}, {"type": "Feature", "geometry": {"type": "Point", "coordinates": [-70.68661120000002, -32.843262299100026]}, "properties": {"CUT_REG": "05", "CUT_PROV": "053", "CUT_COM": "05303", "REGION": "Valpara\u00edso", "PROVINCIA": "Los Andes", "COMUNA": "Rinconada", "variable": "Sitios de Inter\u00e9s Poblacional", "Nombres": "El Barrilito - (restaurant)", "POINT_X": -70.6866112, "POINT_Y": -32.8432622991}}, {"type": "Feature", "geometry": {"type": "Point", "coordinates": [-70.59354200000003, -32.84195289909996]}, "properties": {"CUT_REG": "05", "CUT_PROV": "053", "CUT_COM": "05301", "REGION": "Valpara\u00edso", "PROVINCIA": "Los Andes", "COMUNA": "Los Andes", "variable": "Sitios de Inter\u00e9s Poblacional", "Nombres": "Apex - (fuel)", "POINT_X": -70.593542, "POINT_Y": -32.8419528991}}, {"type": "Feature", "geometry": {"type": "Point", "coordinates": [-70.54043300000004, -32.84178979909996]}, "properties": {"CUT_REG": "05", "CUT_PROV": "053", "CUT_COM": "05301", "REGION": "Valpara\u00edso", "PROVINCIA": "Los Andes", "COMUNA": "Los Andes", "variable": "Sitios de Inter\u00e9s Poblacional", "Nombres": "Puerto Terrestre Los Andes - (parking)", "POINT_X": -70.540433, "POINT_Y": -32.8417897991}}, {"type": "Feature", "geometry": {"type": "Point", "coordinates": [-70.54011059999999, -32.83996889910002]}, "properties": {"CUT_REG": "05", "CUT_PROV": "053", "CUT_COM": "05301", "REGION": "Valpara\u00edso", "PROVINCIA": "Los Andes", "COMUNA": "Los Andes", "variable": "Sitios de Inter\u00e9s Poblacional", "Nombres": "Puerto Terrestre Los Andes - (parking)", "POINT_X": -70.5401106, "POINT_Y": -32.8399688991}}, {"type": "Feature", "geometry": {"type": "Point", "coordinates": [-70.59536519999997, -32.838641799099996]}, "properties": {"CUT_REG": "05", "CUT_PROV": "053", "CUT_COM": "05301", "REGION": "Valpara\u00edso", "PROVINCIA": "Los Andes", "COMUNA": "Los Andes", "variable": "Sitios de Inter\u00e9s Poblacional", "Nombres": "- (traffic_signals)", "POINT_X": -70.5953652, "POINT_Y": -32.8386417991}}, {"type": "Feature", "geometry": {"type": "Point", "coordinates": [-70.59645110000002, -32.83854819909998]}, "properties": {"CUT_REG": "05", "CUT_PROV": "053", "CUT_COM": "05301", "REGION": "Valpara\u00edso", "PROVINCIA": "Los Andes", "COMUNA": "Los Andes", "variable": "Sitios de Inter\u00e9s Poblacional", "Nombres": "Iglesia Los Pasionistas - (place_of_worship)", "POINT_X": -70.5964511, "POINT_Y": -32.8385481991}}, {"type": "Feature", "geometry": {"type": "Point", "coordinates": [-70.60003229999995, -32.83830809910001]}, "properties": {"CUT_REG": "05", "CUT_PROV": "053", "CUT_COM": "05301", "REGION": "Valpara\u00edso", "PROVINCIA": "Los Andes", "COMUNA": "Los Andes", "variable": "Sitios de Inter\u00e9s Poblacional", "Nombres": "Motel Caba\u00f1as - (motel)", "POINT_X": -70.6000323, "POINT_Y": -32.8383080991}}, {"type": "Feature", "geometry": {"type": "Point", "coordinates": [-70.59663499999996, -32.83827889909999]}, "properties": {"CUT_REG": "05", "CUT_PROV": "053", "CUT_COM": "05301", "REGION": "Valpara\u00edso", "PROVINCIA": "Los Andes", "COMUNA": "Los Andes", "variable": "Sitios de Inter\u00e9s Poblacional", "Nombres": "- (traffic_signals)", "POINT_X": -70.596635, "POINT_Y": -32.8382788991}}, {"type": "Feature", "geometry": {"type": "Point", "coordinates": [-70.59814060000002, -32.83804399910001]}, "properties": {"CUT_REG": "05", "CUT_PROV": "053", "CUT_COM": "05301", "REGION": "Valpara\u00edso", "PROVINCIA": "Los Andes", "COMUNA": "Los Andes", "variable": "Sitios de Inter\u00e9s Poblacional", "Nombres": "- (fuel)", "POINT_X": -70.5981406, "POINT_Y": -32.8380439991}}, {"type": "Feature", "geometry": {"type": "Point", "coordinates": [-70.59784660000003, -32.8379064991]}, "properties": {"CUT_REG": "05", "CUT_PROV": "053", "CUT_COM": "05301", "REGION": "Valpara\u00edso", "PROVINCIA": "Los Andes", "COMUNA": "Los Andes", "variable": "Sitios de Inter\u00e9s Poblacional", "Nombres": "- (traffic_signals)", "POINT_X": -70.5978466, "POINT_Y": -32.8379064991}}, {"type": "Feature", "geometry": {"type": "Point", "coordinates": [-70.5990784, -32.83755189909997]}, "properties": {"CUT_REG": "05", "CUT_PROV": "053", "CUT_COM": "05301", "REGION": "Valpara\u00edso", "PROVINCIA": "Los Andes", "COMUNA": "Los Andes", "variable": "Sitios de Inter\u00e9s Poblacional", "Nombres": "- (traffic_signals)", "POINT_X": -70.5990784, "POINT_Y": -32.8375518991}}, {"type": "Feature", "geometry": {"type": "Point", "coordinates": [-70.6005439, -32.83730479910004]}, "properties": {"CUT_REG": "05", "CUT_PROV": "053", "CUT_COM": "05301", "REGION": "Valpara\u00edso", "PROVINCIA": "Los Andes", "COMUNA": "Los Andes", "variable": "Sitios de Inter\u00e9s Poblacional", "Nombres": "Santa Isabel - (supermarket)", "POINT_X": -70.6005439, "POINT_Y": -32.8373047991}}, {"type": "Feature", "geometry": {"type": "Point", "coordinates": [-70.60031540000003, -32.837209699099986]}, "properties": {"CUT_REG": "05", "CUT_PROV": "053", "CUT_COM": "05301", "REGION": "Valpara\u00edso", "PROVINCIA": "Los Andes", "COMUNA": "Los Andes", "variable": "Sitios de Inter\u00e9s Poblacional", "Nombres": "- (traffic_signals)", "POINT_X": -70.6003154, "POINT_Y": -32.8372096991}}, {"type": "Feature", "geometry": {"type": "Point", "coordinates": [-70.60398980000002, -32.83714659910001]}, "properties": {"CUT_REG": "05", "CUT_PROV": "053", "CUT_COM": "05301", "REGION": "Valpara\u00edso", "PROVINCIA": "Los Andes", "COMUNA": "Los Andes", "variable": "Sitios de Inter\u00e9s Poblacional", "Nombres": "Anfiteatro Parque Urbano Ambrosio O\u00b4Higgins - (th", "POINT_X": -70.6039898, "POINT_Y": -32.8371465991}}, {"type": "Feature", "geometry": {"type": "Point", "coordinates": [-70.60020050000001, -32.83643039909999]}, "properties": {"CUT_REG": "05", "CUT_PROV": "053", "CUT_COM": "05301", "REGION": "Valpara\u00edso", "PROVINCIA": "Los Andes", "COMUNA": "Los Andes", "variable": "Sitios de Inter\u00e9s Poblacional", "Nombres": "Telepizza - (fast_food)", "POINT_X": -70.6002005, "POINT_Y": -32.8364303991}}, {"type": "Feature", "geometry": {"type": "Point", "coordinates": [-70.60414909999997, -32.83607159909997]}, "properties": {"CUT_REG": "05", "CUT_PROV": "053", "CUT_COM": "05301", "REGION": "Valpara\u00edso", "PROVINCIA": "Los Andes", "COMUNA": "Los Andes", "variable": "Sitios de Inter\u00e9s Poblacional", "Nombres": "- (traffic_signals)", "POINT_X": -70.6041491, "POINT_Y": -32.8360715991}}, {"type": "Feature", "geometry": {"type": "Point", "coordinates": [-70.12934260000003, -32.836050099099964]}, "properties": {"CUT_REG": "05", "CUT_PROV": "053", "CUT_COM": "05301", "REGION": "Valpara\u00edso", "PROVINCIA": "Los Andes", "COMUNA": "Los Andes", "variable": "Sitios de Inter\u00e9s Poblacional", "Nombres": "Hotel Portillo - (parking)", "POINT_X": -70.1293426, "POINT_Y": -32.8360500991}}, {"type": "Feature", "geometry": {"type": "Point", "coordinates": [-70.54691000000001, -32.83599099909996]}, "properties": {"CUT_REG": "05", "CUT_PROV": "053", "CUT_COM": "05301", "REGION": "Valpara\u00edso", "PROVINCIA": "Los Andes", "COMUNA": "Los Andes", "variable": "Sitios de Inter\u00e9s Poblacional", "Nombres": "Camping La Sauce - (camp_site)", "POINT_X": -70.54691, "POINT_Y": -32.8359909991}}, {"type": "Feature", "geometry": {"type": "Point", "coordinates": [-70.60502189999997, -32.835241199100004]}, "properties": {"CUT_REG": "05", "CUT_PROV": "053", "CUT_COM": "05301", "REGION": "Valpara\u00edso", "PROVINCIA": "Los Andes", "COMUNA": "Los Andes", "variable": "Sitios de Inter\u00e9s Poblacional", "Nombres": "Mamut - (restaurant)", "POINT_X": -70.6050219, "POINT_Y": -32.8352411991}}, {"type": "Feature", "geometry": {"type": "Point", "coordinates": [-70.60517180000002, -32.835209799099985]}, "properties": {"CUT_REG": "05", "CUT_PROV": "053", "CUT_COM": "05301", "REGION": "Valpara\u00edso", "PROVINCIA": "Los Andes", "COMUNA": "Los Andes", "variable": "Sitios de Inter\u00e9s Poblacional", "Nombres": "Doggis - (fast_food)", "POINT_X": -70.6051718, "POINT_Y": -32.8352097991}}, {"type": "Feature", "geometry": {"type": "Point", "coordinates": [-70.12976130000004, -32.83519669909997]}, "properties": {"CUT_REG": "05", "CUT_PROV": "053", "CUT_COM": "05301", "REGION": "Valpara\u00edso", "PROVINCIA": "Los Andes", "COMUNA": "Los Andes", "variable": "Sitios de Inter\u00e9s Poblacional", "Nombres": "Hotel Portillo - (hotel)", "POINT_X": -70.1297613, "POINT_Y": -32.8351966991}}, {"type": "Feature", "geometry": {"type": "Point", "coordinates": [-70.60530619999996, -32.8351466991]}, "properties": {"CUT_REG": "05", "CUT_PROV": "053", "CUT_COM": "05301", "REGION": "Valpara\u00edso", "PROVINCIA": "Los Andes", "COMUNA": "Los Andes", "variable": "Sitios de Inter\u00e9s Poblacional", "Nombres": "Burger King - (fast_food)", "POINT_X": -70.6053062, "POINT_Y": -32.8351466991}}, {"type": "Feature", "geometry": {"type": "Point", "coordinates": [-70.60563340000003, -32.835083599100024]}, "properties": {"CUT_REG": "05", "CUT_PROV": "053", "CUT_COM": "05301", "REGION": "Valpara\u00edso", "PROVINCIA": "Los Andes", "COMUNA": "Los Andes", "variable": "Sitios de Inter\u00e9s Poblacional", "Nombres": "Trendy - (fast_food)", "POINT_X": -70.6056334, "POINT_Y": -32.8350835991}}, {"type": "Feature", "geometry": {"type": "Point", "coordinates": [-70.13009579999999, -32.83503809909999]}, "properties": {"CUT_REG": "05", "CUT_PROV": "053", "CUT_COM": "05301", "REGION": "Valpara\u00edso", "PROVINCIA": "Los Andes", "COMUNA": "Los Andes", "variable": "Sitios de Inter\u00e9s Poblacional", "Nombres": "Laguna del inca - Portillo - (viewpoint)", "POINT_X": -70.1300958, "POINT_Y": -32.8350380991}}, {"type": "Feature", "geometry": {"type": "Point", "coordinates": [-70.6036891, -32.83500699909999]}, "properties": {"CUT_REG": "05", "CUT_PROV": "053", "CUT_COM": "05301", "REGION": "Valpara\u00edso", "PROVINCIA": "Los Andes", "COMUNA": "Los Andes", "variable": "Sitios de Inter\u00e9s Poblacional", "Nombres": "- (traffic_signals)", "POINT_X": -70.6036891, "POINT_Y": -32.8350069991}}, {"type": "Feature", "geometry": {"type": "Point", "coordinates": [-70.60584800000002, -32.83493489909998]}, "properties": {"CUT_REG": "05", "CUT_PROV": "053", "CUT_COM": "05301", "REGION": "Valpara\u00edso", "PROVINCIA": "Los Andes", "COMUNA": "Los Andes", "variable": "Sitios de Inter\u00e9s Poblacional", "Nombres": "Hiper Lider - (supermarket)", "POINT_X": -70.605848, "POINT_Y": -32.8349348991}}, {"type": "Feature", "geometry": {"type": "Point", "coordinates": [-70.60579919999998, -32.83484049909998]}, "properties": {"CUT_REG": "05", "CUT_PROV": "053", "CUT_COM": "05301", "REGION": "Valpara\u00edso", "PROVINCIA": "Los Andes", "COMUNA": "Los Andes", "variable": "Sitios de Inter\u00e9s Poblacional", "Nombres": "Mall Espacio Urbano Los Andes - (mall)", "POINT_X": -70.6057992, "POINT_Y": -32.8348404991}}, {"type": "Feature", "geometry": {"type": "Point", "coordinates": [-70.59202520000002, -32.834698399100034]}, "properties": {"CUT_REG": "05", "CUT_PROV": "053", "CUT_COM": "05301", "REGION": "Valpara\u00edso", "PROVINCIA": "Los Andes", "COMUNA": "Los Andes", "variable": "Sitios de Inter\u00e9s Poblacional", "Nombres": "Hosteria Rucahuel - (hotel)", "POINT_X": -70.5920252, "POINT_Y": -32.8346983991}}, {"type": "Feature", "geometry": {"type": "Point", "coordinates": [-70.60620149999997, -32.83461059909997]}, "properties": {"CUT_REG": "05", "CUT_PROV": "053", "CUT_COM": "05301", "REGION": "Valpara\u00edso", "PROVINCIA": "Los Andes", "COMUNA": "Los Andes", "variable": "Sitios de Inter\u00e9s Poblacional", "Nombres": "Sparta - (clothes)", "POINT_X": -70.6062015, "POINT_Y": -32.8346105991}}, {"type": "Feature", "geometry": {"type": "Point", "coordinates": [-70.60567049999999, -32.83460589910002]}, "properties": {"CUT_REG": "05", "CUT_PROV": "053", "CUT_COM": "05301", "REGION": "Valpara\u00edso", "PROVINCIA": "Los Andes", "COMUNA": "Los Andes", "variable": "Sitios de Inter\u00e9s Poblacional", "Nombres": "Bata - (clothes)", "POINT_X": -70.6056705, "POINT_Y": -32.8346058991}}, {"type": "Feature", "geometry": {"type": "Point", "coordinates": [-70.60253809999998, -32.83458079909999]}, "properties": {"CUT_REG": "05", "CUT_PROV": "053", "CUT_COM": "05301", "REGION": "Valpara\u00edso", "PROVINCIA": "Los Andes", "COMUNA": "Los Andes", "variable": "Sitios de Inter\u00e9s Poblacional", "Nombres": "Centro Clinico Aconcagua - (hospital)", "POINT_X": -70.6025381, "POINT_Y": -32.8345807991}}, {"type": "Feature", "geometry": {"type": "Point", "coordinates": [-70.59796890000003, -32.83442909909996]}, "properties": {"CUT_REG": "05", "CUT_PROV": "053", "CUT_COM": "05301", "REGION": "Valpara\u00edso", "PROVINCIA": "Los Andes", "COMUNA": "Los Andes", "variable": "Sitios de Inter\u00e9s Poblacional", "Nombres": "- (bank)", "POINT_X": -70.5979689, "POINT_Y": -32.8344290991}}, {"type": "Feature", "geometry": {"type": "Point", "coordinates": [-70.60542369999999, -32.83442579910004]}, "properties": {"CUT_REG": "05", "CUT_PROV": "053", "CUT_COM": "05301", "REGION": "Valpara\u00edso", "PROVINCIA": "Los Andes", "COMUNA": "Los Andes", "variable": "Sitios de Inter\u00e9s Poblacional", "Nombres": "La Polar - (department_store)", "POINT_X": -70.6054237, "POINT_Y": -32.8344257991}}, {"type": "Feature", "geometry": {"type": "Point", "coordinates": [-70.60585819999997, -32.83441229909999]}, "properties": {"CUT_REG": "05", "CUT_PROV": "053", "CUT_COM": "05301", "REGION": "Valpara\u00edso", "PROVINCIA": "Los Andes", "COMUNA": "Los Andes", "variable": "Sitios de Inter\u00e9s Poblacional", "Nombres": "Ripley - (department_store)", "POINT_X": -70.6058582, "POINT_Y": -32.8344122991}}, {"type": "Feature", "geometry": {"type": "Point", "coordinates": [-70.59778850000002, -32.834405299100034]}, "properties": {"CUT_REG": "05", "CUT_PROV": "053", "CUT_COM": "05301", "REGION": "Valpara\u00edso", "PROVINCIA": "Los Andes", "COMUNA": "Los Andes", "variable": "Sitios de Inter\u00e9s Poblacional", "Nombres": "- (traffic_signals)", "POINT_X": -70.5977885, "POINT_Y": -32.8344052991}}, {"type": "Feature", "geometry": {"type": "Point", "coordinates": [-70.59828010000001, -32.8343479991]}, "properties": {"CUT_REG": "05", "CUT_PROV": "053", "CUT_COM": "05301", "REGION": "Valpara\u00edso", "PROVINCIA": "Los Andes", "COMUNA": "Los Andes", "variable": "Sitios de Inter\u00e9s Poblacional", "Nombres": "- (bank)", "POINT_X": -70.5982801, "POINT_Y": -32.8343479991}}, {"type": "Feature", "geometry": {"type": "Point", "coordinates": [-70.59756909999999, -32.83420709909998]}, "properties": {"CUT_REG": "05", "CUT_PROV": "053", "CUT_COM": "05301", "REGION": "Valpara\u00edso", "PROVINCIA": "Los Andes", "COMUNA": "Los Andes", "variable": "Sitios de Inter\u00e9s Poblacional", "Nombres": "Farmacias SalcoBrand - (pharmacy)", "POINT_X": -70.5975691, "POINT_Y": -32.8342070991}}, {"type": "Feature", "geometry": {"type": "Point", "coordinates": [-70.59517360000002, -32.83415669909998]}, "properties": {"CUT_REG": "05", "CUT_PROV": "053", "CUT_COM": "05301", "REGION": "Valpara\u00edso", "PROVINCIA": "Los Andes", "COMUNA": "Los Andes", "variable": "Sitios de Inter\u00e9s Poblacional", "Nombres": "Segunda Compa\u00f1ia Bomberos Los Andes - (fire_stati", "POINT_X": -70.5951736, "POINT_Y": -32.8341566991}}, {"type": "Feature", "geometry": {"type": "Point", "coordinates": [-70.59836199999995, -32.83415039909999]}, "properties": {"CUT_REG": "05", "CUT_PROV": "053", "CUT_COM": "05301", "REGION": "Valpara\u00edso", "PROVINCIA": "Los Andes", "COMUNA": "Los Andes", "variable": "Sitios de Inter\u00e9s Poblacional", "Nombres": "- (parking)", "POINT_X": -70.598362, "POINT_Y": -32.8341503991}}, {"type": "Feature", "geometry": {"type": "Point", "coordinates": [-70.60137940000004, -32.83411889909996]}, "properties": {"CUT_REG": "05", "CUT_PROV": "053", "CUT_COM": "05301", "REGION": "Valpara\u00edso", "PROVINCIA": "Los Andes", "COMUNA": "Los Andes", "variable": "Sitios de Inter\u00e9s Poblacional", "Nombres": "Unimarc - (supermarket)", "POINT_X": -70.6013794, "POINT_Y": -32.8341188991}}, {"type": "Feature", "geometry": {"type": "Point", "coordinates": [-70.59899940000003, -32.83404369909996]}, "properties": {"CUT_REG": "05", "CUT_PROV": "053", "CUT_COM": "05301", "REGION": "Valpara\u00edso", "PROVINCIA": "Los Andes", "COMUNA": "Los Andes", "variable": "Sitios de Inter\u00e9s Poblacional", "Nombres": "- (traffic_signals)", "POINT_X": -70.5989994, "POINT_Y": -32.8340436991}}, {"type": "Feature", "geometry": {"type": "Point", "coordinates": [-70.60325020000002, -32.83396879909998]}, "properties": {"CUT_REG": "05", "CUT_PROV": "053", "CUT_COM": "05301", "REGION": "Valpara\u00edso", "PROVINCIA": "Los Andes", "COMUNA": "Los Andes", "variable": "Sitios de Inter\u00e9s Poblacional", "Nombres": "- (traffic_signals)", "POINT_X": -70.6032502, "POINT_Y": -32.8339687991}}, {"type": "Feature", "geometry": {"type": "Point", "coordinates": [-70.59742839999998, -32.83390489910002]}, "properties": {"CUT_REG": "05", "CUT_PROV": "053", "CUT_COM": "05301", "REGION": "Valpara\u00edso", "PROVINCIA": "Los Andes", "COMUNA": "Los Andes", "variable": "Sitios de Inter\u00e9s Poblacional", "Nombres": "- (bank)", "POINT_X": -70.5974284, "POINT_Y": -32.8339048991}}, {"type": "Feature", "geometry": {"type": "Point", "coordinates": [-70.5998289, -32.833900299099994]}, "properties": {"CUT_REG": "05", "CUT_PROV": "053", "CUT_COM": "05301", "REGION": "Valpara\u00edso", "PROVINCIA": "Los Andes", "COMUNA": "Los Andes", "variable": "Sitios de Inter\u00e9s Poblacional", "Nombres": "Lunfardo - (restaurant)", "POINT_X": -70.5998289, "POINT_Y": -32.8339002991}}, {"type": "Feature", "geometry": {"type": "Point", "coordinates": [-70.59758689999995, -32.83383479909999]}, "properties": {"CUT_REG": "05", "CUT_PROV": "053", "CUT_COM": "05301", "REGION": "Valpara\u00edso", "PROVINCIA": "Los Andes", "COMUNA": "Los Andes", "variable": "Sitios de Inter\u00e9s Poblacional", "Nombres": "- (parking)", "POINT_X": -70.5975869, "POINT_Y": -32.8338347991}}, {"type": "Feature", "geometry": {"type": "Point", "coordinates": [-70.5972987, -32.83373439910003]}, "properties": {"CUT_REG": "05", "CUT_PROV": "053", "CUT_COM": "05301", "REGION": "Valpara\u00edso", "PROVINCIA": "Los Andes", "COMUNA": "Los Andes", "variable": "Sitios de Inter\u00e9s Poblacional", "Nombres": "Farmacia Ahumada - (pharmacy)", "POINT_X": -70.5972987, "POINT_Y": -32.8337343991}}, {"type": "Feature", "geometry": {"type": "Point", "coordinates": [-70.60022000000004, -32.83367899909998]}, "properties": {"CUT_REG": "05", "CUT_PROV": "053", "CUT_COM": "05301", "REGION": "Valpara\u00edso", "PROVINCIA": "Los Andes", "COMUNA": "Los Andes", "variable": "Sitios de Inter\u00e9s Poblacional", "Nombres": "- (traffic_signals)", "POINT_X": -70.60022, "POINT_Y": -32.8336789991}}, {"type": "Feature", "geometry": {"type": "Point", "coordinates": [-70.59728899999999, -32.83352169910002]}, "properties": {"CUT_REG": "05", "CUT_PROV": "053", "CUT_COM": "05301", "REGION": "Valpara\u00edso", "PROVINCIA": "Los Andes", "COMUNA": "Los Andes", "variable": "Sitios de Inter\u00e9s Poblacional", "Nombres": "- (bank)", "POINT_X": -70.597289, "POINT_Y": -32.8335216991}}, {"type": "Feature", "geometry": {"type": "Point", "coordinates": [-70.59725139999999, -32.8334473991]}, "properties": {"CUT_REG": "05", "CUT_PROV": "053", "CUT_COM": "05301", "REGION": "Valpara\u00edso", "PROVINCIA": "Los Andes", "COMUNA": "Los Andes", "variable": "Sitios de Inter\u00e9s Poblacional", "Nombres": "Farmacias SalcoBrand - (pharmacy)", "POINT_X": -70.5972514, "POINT_Y": -32.8334473991}}, {"type": "Feature", "geometry": {"type": "Point", "coordinates": [-70.5980191, -32.83334869910001]}, "properties": {"CUT_REG": "05", "CUT_PROV": "053", "CUT_COM": "05301", "REGION": "Valpara\u00edso", "PROVINCIA": "Los Andes", "COMUNA": "Los Andes", "variable": "Sitios de Inter\u00e9s Poblacional", "Nombres": "- (toilets)", "POINT_X": -70.5980191, "POINT_Y": -32.8333486991}}, {"type": "Feature", "geometry": {"type": "Point", "coordinates": [-70.59737569999997, -32.8333442991]}, "properties": {"CUT_REG": "05", "CUT_PROV": "053", "CUT_COM": "05301", "REGION": "Valpara\u00edso", "PROVINCIA": "Los Andes", "COMUNA": "Los Andes", "variable": "Sitios de Inter\u00e9s Poblacional", "Nombres": "- (traffic_signals)", "POINT_X": -70.5973757, "POINT_Y": -32.8333442991}}, {"type": "Feature", "geometry": {"type": "Point", "coordinates": [-70.59614429999996, -32.83323859909996]}, "properties": {"CUT_REG": "05", "CUT_PROV": "053", "CUT_COM": "05301", "REGION": "Valpara\u00edso", "PROVINCIA": "Los Andes", "COMUNA": "Los Andes", "variable": "Sitios de Inter\u00e9s Poblacional", "Nombres": "Cine Andes - (cinema)", "POINT_X": -70.5961443, "POINT_Y": -32.8332385991}}, {"type": "Feature", "geometry": {"type": "Point", "coordinates": [-70.59791410000003, -32.83323079910002]}, "properties": {"CUT_REG": "05", "CUT_PROV": "053", "CUT_COM": "05301", "REGION": "Valpara\u00edso", "PROVINCIA": "Los Andes", "COMUNA": "Los Andes", "variable": "Sitios de Inter\u00e9s Poblacional", "Nombres": "- (parking)", "POINT_X": -70.5979141, "POINT_Y": -32.8332307991}}, {"type": "Feature", "geometry": {"type": "Point", "coordinates": [-70.5987962, -32.833124499100016]}, "properties": {"CUT_REG": "05", "CUT_PROV": "053", "CUT_COM": "05301", "REGION": "Valpara\u00edso", "PROVINCIA": "Los Andes", "COMUNA": "Los Andes", "variable": "Sitios de Inter\u00e9s Poblacional", "Nombres": "Iglesia Santa Rosa de los Andes - (place_of_worsh*", "POINT_X": -70.5987962, "POINT_Y": -32.8331244991}}, {"type": "Feature", "geometry": {"type": "Point", "coordinates": [-70.59788559999997, -32.83308089909996]}, "properties": {"CUT_REG": "05", "CUT_PROV": "053", "CUT_COM": "05301", "REGION": "Valpara\u00edso", "PROVINCIA": "Los Andes", "COMUNA": "Los Andes", "variable": "Sitios de Inter\u00e9s Poblacional", "Nombres": "- (bank)", "POINT_X": -70.5978856, "POINT_Y": -32.8330808991}}, {"type": "Feature", "geometry": {"type": "Point", "coordinates": [-70.59702740000002, -32.83303469909996]}, "properties": {"CUT_REG": "05", "CUT_PROV": "053", "CUT_COM": "05301", "REGION": "Valpara\u00edso", "PROVINCIA": "Los Andes", "COMUNA": "Los Andes", "variable": "Sitios de Inter\u00e9s Poblacional", "Nombres": "Farmacias SalcoBrand - (pharmacy)", "POINT_X": -70.5970274, "POINT_Y": -32.8330346991}}, {"type": "Feature", "geometry": {"type": "Point", "coordinates": [-70.59811409999996, -32.83299729909997]}, "properties": {"CUT_REG": "05", "CUT_PROV": "053", "CUT_COM": "05301", "REGION": "Valpara\u00edso", "PROVINCIA": "Los Andes", "COMUNA": "Los Andes", "variable": "Sitios de Inter\u00e9s Poblacional", "Nombres": "Correos de Chile - (post_box)", "POINT_X": -70.5981141, "POINT_Y": -32.8329972991}}, {"type": "Feature", "geometry": {"type": "Point", "coordinates": [-70.5985472, -32.83299039910003]}, "properties": {"CUT_REG": "05", "CUT_PROV": "053", "CUT_COM": "05301", "REGION": "Valpara\u00edso", "PROVINCIA": "Los Andes", "COMUNA": "Los Andes", "variable": "Sitios de Inter\u00e9s Poblacional", "Nombres": "- (traffic_signals)", "POINT_X": -70.5985472, "POINT_Y": -32.8329903991}}, {"type": "Feature", "geometry": {"type": "Point", "coordinates": [-70.59951309999998, -32.83284499909998]}, "properties": {"CUT_REG": "05", "CUT_PROV": "053", "CUT_COM": "05301", "REGION": "Valpara\u00edso", "PROVINCIA": "Los Andes", "COMUNA": "Los Andes", "variable": "Sitios de Inter\u00e9s Poblacional", "Nombres": "Ferreteria Andina - (doityourself)", "POINT_X": -70.5995131, "POINT_Y": -32.8328449991}}, {"type": "Feature", "geometry": {"type": "Point", "coordinates": [-70.59020580000004, -32.83278069909999]}, "properties": {"CUT_REG": "05", "CUT_PROV": "053", "CUT_COM": "05301", "REGION": "Valpara\u00edso", "PROVINCIA": "Los Andes", "COMUNA": "Los Andes", "variable": "Sitios de Inter\u00e9s Poblacional", "Nombres": "Buses JM - (bus_station)", "POINT_X": -70.5902058, "POINT_Y": -32.8327806991}}, {"type": "Feature", "geometry": {"type": "Point", "coordinates": [-70.59892750000003, -32.83276479910001]}, "properties": {"CUT_REG": "05", "CUT_PROV": "053", "CUT_COM": "05301", "REGION": "Valpara\u00edso", "PROVINCIA": "Los Andes", "COMUNA": "Los Andes", "variable": "Sitios de Inter\u00e9s Poblacional", "Nombres": "Las Casas - Sal\u00f3n de T\u00e9 - (cafe)", "POINT_X": -70.5989275, "POINT_Y": -32.8327647991}}, {"type": "Feature", "geometry": {"type": "Point", "coordinates": [-70.5997677, -32.83261789910002]}, "properties": {"CUT_REG": "05", "CUT_PROV": "053", "CUT_COM": "05301", "REGION": "Valpara\u00edso", "PROVINCIA": "Los Andes", "COMUNA": "Los Andes", "variable": "Sitios de Inter\u00e9s Poblacional", "Nombres": "- (traffic_signals)", "POINT_X": -70.5997677, "POINT_Y": -32.8326178991}}, {"type": "Feature", "geometry": {"type": "Point", "coordinates": [-70.59693630000004, -32.83230559910003]}, "properties": {"CUT_REG": "05", "CUT_PROV": "053", "CUT_COM": "05301", "REGION": "Valpara\u00edso", "PROVINCIA": "Los Andes", "COMUNA": "Los Andes", "variable": "Sitios de Inter\u00e9s Poblacional", "Nombres": "- (traffic_signals)", "POINT_X": -70.5969363, "POINT_Y": -32.8323055991}}, {"type": "Feature", "geometry": {"type": "Point", "coordinates": [-70.59975039999999, -32.83194799910002]}, "properties": {"CUT_REG": "05", "CUT_PROV": "053", "CUT_COM": "05301", "REGION": "Valpara\u00edso", "PROVINCIA": "Los Andes", "COMUNA": "Los Andes", "variable": "Sitios de Inter\u00e9s Poblacional", "Nombres": "Lider - (supermarket)", "POINT_X": -70.5997504, "POINT_Y": -32.8319479991}}, {"type": "Feature", "geometry": {"type": "Point", "coordinates": [-70.59812269999996, -32.83194549909999]}, "properties": {"CUT_REG": "05", "CUT_PROV": "053", "CUT_COM": "05301", "REGION": "Valpara\u00edso", "PROVINCIA": "Los Andes", "COMUNA": "Los Andes", "variable": "Sitios de Inter\u00e9s Poblacional", "Nombres": "- (traffic_signals)", "POINT_X": -70.5981227, "POINT_Y": -32.8319454991}}, {"type": "Feature", "geometry": {"type": "Point", "coordinates": [-70.59660049999997, -32.831907199100016]}, "properties": {"CUT_REG": "05", "CUT_PROV": "053", "CUT_COM": "05301", "REGION": "Valpara\u00edso", "PROVINCIA": "Los Andes", "COMUNA": "Los Andes", "variable": "Sitios de Inter\u00e9s Poblacional", "Nombres": "Jomar - (restaurant)", "POINT_X": -70.5966005, "POINT_Y": -32.8319071991}}, {"type": "Feature", "geometry": {"type": "Point", "coordinates": [-70.59784389999999, -32.83186309910001]}, "properties": {"CUT_REG": "05", "CUT_PROV": "053", "CUT_COM": "05301", "REGION": "Valpara\u00edso", "PROVINCIA": "Los Andes", "COMUNA": "Los Andes", "variable": "Sitios de Inter\u00e9s Poblacional", "Nombres": "Hotel Estacion - (restaurant)", "POINT_X": -70.5978439, "POINT_Y": -32.8318630991}}, {"type": "Feature", "geometry": {"type": "Point", "coordinates": [-70.6023376, -32.831837599100034]}, "properties": {"CUT_REG": "05", "CUT_PROV": "053", "CUT_COM": "05301", "REGION": "Valpara\u00edso", "PROVINCIA": "Los Andes", "COMUNA": "Los Andes", "variable": "Sitios de Inter\u00e9s Poblacional", "Nombres": "- (traffic_signals)", "POINT_X": -70.6023376, "POINT_Y": -32.8318375991}}, {"type": "Feature", "geometry": {"type": "Point", "coordinates": [-70.6020499, -32.83169369910003]}, "properties": {"CUT_REG": "05", "CUT_PROV": "053", "CUT_COM": "05301", "REGION": "Valpara\u00edso", "PROVINCIA": "Los Andes", "COMUNA": "Los Andes", "variable": "Sitios de Inter\u00e9s Poblacional", "Nombres": "Copec - (fuel)", "POINT_X": -70.6020499, "POINT_Y": -32.8316936991}}, {"type": "Feature", "geometry": {"type": "Point", "coordinates": [-70.59083319999999, -32.83164639910002]}, "properties": {"CUT_REG": "05", "CUT_PROV": "053", "CUT_COM": "05301", "REGION": "Valpara\u00edso", "PROVINCIA": "Los Andes", "COMUNA": "Los Andes", "variable": "Sitios de Inter\u00e9s Poblacional", "Nombres": "Inca Hotel - (hotel)", "POINT_X": -70.5908332, "POINT_Y": -32.8316463991}}, {"type": "Feature", "geometry": {"type": "Point", "coordinates": [-70.59933819999999, -32.83157649910001]}, "properties": {"CUT_REG": "05", "CUT_PROV": "053", "CUT_COM": "05301", "REGION": "Valpara\u00edso", "PROVINCIA": "Los Andes", "COMUNA": "Los Andes", "variable": "Sitios de Inter\u00e9s Poblacional", "Nombres": "- (traffic_signals)", "POINT_X": -70.5993382, "POINT_Y": -32.8315764991}}, {"type": "Feature", "geometry": {"type": "Point", "coordinates": [-70.60258289999996, -32.83151449910003]}, "properties": {"CUT_REG": "05", "CUT_PROV": "053", "CUT_COM": "05301", "REGION": "Valpara\u00edso", "PROVINCIA": "Los Andes", "COMUNA": "Los Andes", "variable": "Sitios de Inter\u00e9s Poblacional", "Nombres": "- (fuel)", "POINT_X": -70.6025829, "POINT_Y": -32.8315144991}}, {"type": "Feature", "geometry": {"type": "Point", "coordinates": [-70.59647670000001, -32.8312639991]}, "properties": {"CUT_REG": "05", "CUT_PROV": "053", "CUT_COM": "05301", "REGION": "Valpara\u00edso", "PROVINCIA": "Los Andes", "COMUNA": "Los Andes", "variable": "Sitios de Inter\u00e9s Poblacional", "Nombres": "- (traffic_signals)", "POINT_X": -70.5964767, "POINT_Y": -32.8312639991}}, {"type": "Feature", "geometry": {"type": "Point", "coordinates": [-70.5976594, -32.83090569910002]}, "properties": {"CUT_REG": "05", "CUT_PROV": "053", "CUT_COM": "05301", "REGION": "Valpara\u00edso", "PROVINCIA": "Los Andes", "COMUNA": "Los Andes", "variable": "Sitios de Inter\u00e9s Poblacional", "Nombres": "- (traffic_signals)", "POINT_X": -70.5976594, "POINT_Y": -32.8309056991}}, {"type": "Feature", "geometry": {"type": "Point", "coordinates": [-70.60189110000002, -32.83080159910002]}, "properties": {"CUT_REG": "05", "CUT_PROV": "053", "CUT_COM": "05301", "REGION": "Valpara\u00edso", "PROVINCIA": "Los Andes", "COMUNA": "Los Andes", "variable": "Sitios de Inter\u00e9s Poblacional", "Nombres": "- (traffic_signals)", "POINT_X": -70.6018911, "POINT_Y": -32.8308015991}}, {"type": "Feature", "geometry": {"type": "Point", "coordinates": [-70.60205299999998, -32.83059389909998]}, "properties": {"CUT_REG": "05", "CUT_PROV": "053", "CUT_COM": "05301", "REGION": "Valpara\u00edso", "PROVINCIA": "Los Andes", "COMUNA": "Los Andes", "variable": "Sitios de Inter\u00e9s Poblacional", "Nombres": "Esso - (fuel)", "POINT_X": -70.602053, "POINT_Y": -32.8305938991}}, {"type": "Feature", "geometry": {"type": "Point", "coordinates": [-70.59597169999998, -32.83035519910003]}, "properties": {"CUT_REG": "05", "CUT_PROV": "053", "CUT_COM": "05301", "REGION": "Valpara\u00edso", "PROVINCIA": "Los Andes", "COMUNA": "Los Andes", "variable": "Sitios de Inter\u00e9s Poblacional", "Nombres": "Petrobras - (fuel)", "POINT_X": -70.5959717, "POINT_Y": -32.8303551991}}, {"type": "Feature", "geometry": {"type": "Point", "coordinates": [-70.59633200000003, -32.83026239909999]}, "properties": {"CUT_REG": "05", "CUT_PROV": "053", "CUT_COM": "05301", "REGION": "Valpara\u00edso", "PROVINCIA": "Los Andes", "COMUNA": "Los Andes", "variable": "Sitios de Inter\u00e9s Poblacional", "Nombres": "Ferreteria Andina - (doityourself)", "POINT_X": -70.596332, "POINT_Y": -32.8302623991}}, {"type": "Feature", "geometry": {"type": "Point", "coordinates": [-70.12399279999997, -32.830256099100005]}, "properties": {"CUT_REG": "05", "CUT_PROV": "053", "CUT_COM": "05301", "REGION": "Valpara\u00edso", "PROVINCIA": "Los Andes", "COMUNA": "Los Andes", "variable": "Sitios de Inter\u00e9s Poblacional", "Nombres": "Tio Bob's - (restaurant)", "POINT_X": -70.1239928, "POINT_Y": -32.8302560991}}, {"type": "Feature", "geometry": {"type": "Point", "coordinates": [-70.12416449999995, -32.83024169909997]}, "properties": {"CUT_REG": "05", "CUT_PROV": "053", "CUT_COM": "05301", "REGION": "Valpara\u00edso", "PROVINCIA": "Los Andes", "COMUNA": "Los Andes", "variable": "Sitios de Inter\u00e9s Poblacional", "Nombres": "- (toilets)", "POINT_X": -70.1241645, "POINT_Y": -32.8302416991}}, {"type": "Feature", "geometry": {"type": "Point", "coordinates": [-70.59603819999998, -32.83019289910002]}, "properties": {"CUT_REG": "05", "CUT_PROV": "053", "CUT_COM": "05301", "REGION": "Valpara\u00edso", "PROVINCIA": "Los Andes", "COMUNA": "Los Andes", "variable": "Sitios de Inter\u00e9s Poblacional", "Nombres": "- (traffic_signals)", "POINT_X": -70.5960382, "POINT_Y": -32.8301928991}}, {"type": "Feature", "geometry": {"type": "Point", "coordinates": [-70.60059130000002, -32.830135999100015]}, "properties": {"CUT_REG": "05", "CUT_PROV": "053", "CUT_COM": "05301", "REGION": "Valpara\u00edso", "PROVINCIA": "Los Andes", "COMUNA": "Los Andes", "variable": "Sitios de Inter\u00e9s Poblacional", "Nombres": "Ferreteria Andina - (doityourself)", "POINT_X": -70.6005913, "POINT_Y": -32.8301359991}}, {"type": "Feature", "geometry": {"type": "Point", "coordinates": [-70.59595539999995, -32.829990899100004]}, "properties": {"CUT_REG": "05", "CUT_PROV": "053", "CUT_COM": "05301", "REGION": "Valpara\u00edso", "PROVINCIA": "Los Andes", "COMUNA": "Los Andes", "variable": "Sitios de Inter\u00e9s Poblacional", "Nombres": "- (traffic_signals)", "POINT_X": -70.5959554, "POINT_Y": -32.8299908991}}, {"type": "Feature", "geometry": {"type": "Point", "coordinates": [-70.59872890000003, -32.8295936991]}, "properties": {"CUT_REG": "05", "CUT_PROV": "053", "CUT_COM": "05301", "REGION": "Valpara\u00edso", "PROVINCIA": "Los Andes", "COMUNA": "Los Andes", "variable": "Sitios de Inter\u00e9s Poblacional", "Nombres": "- (fuel)", "POINT_X": -70.5987289, "POINT_Y": -32.8295936991}}, {"type": "Feature", "geometry": {"type": "Point", "coordinates": [-70.59845730000002, -32.82948969910001]}, "properties": {"CUT_REG": "05", "CUT_PROV": "053", "CUT_COM": "05301", "REGION": "Valpara\u00edso", "PROVINCIA": "Los Andes", "COMUNA": "Los Andes", "variable": "Sitios de Inter\u00e9s Poblacional", "Nombres": "- (traffic_signals)", "POINT_X": -70.5984573, "POINT_Y": -32.8294896991}}, {"type": "Feature", "geometry": {"type": "Point", "coordinates": [-70.69047529999997, -32.829348999100006]}, "properties": {"CUT_REG": "05", "CUT_PROV": "053", "CUT_COM": "05303", "REGION": "Valpara\u00edso", "PROVINCIA": "Los Andes", "COMUNA": "Rinconada", "variable": "Sitios de Inter\u00e9s Poblacional", "Nombres": "motel - (motel)", "POINT_X": -70.6904753, "POINT_Y": -32.8293489991}}, {"type": "Feature", "geometry": {"type": "Point", "coordinates": [-70.59836859999996, -32.82927289910001]}, "properties": {"CUT_REG": "05", "CUT_PROV": "053", "CUT_COM": "05301", "REGION": "Valpara\u00edso", "PROVINCIA": "Los Andes", "COMUNA": "Los Andes", "variable": "Sitios de Inter\u00e9s Poblacional", "Nombres": "- (traffic_signals)", "POINT_X": -70.5983686, "POINT_Y": -32.8292728991}}, {"type": "Feature", "geometry": {"type": "Point", "coordinates": [-70.595168, -32.828947399099995]}, "properties": {"CUT_REG": "05", "CUT_PROV": "053", "CUT_COM": "05301", "REGION": "Valpara\u00edso", "PROVINCIA": "Los Andes", "COMUNA": "Los Andes", "variable": "Sitios de Inter\u00e9s Poblacional", "Nombres": "Montserrat - (supermarket)", "POINT_X": -70.595168, "POINT_Y": -32.8289473991}}, {"type": "Feature", "geometry": {"type": "Point", "coordinates": [-70.59570519999995, -32.828738799099966]}, "properties": {"CUT_REG": "05", "CUT_PROV": "053", "CUT_COM": "05301", "REGION": "Valpara\u00edso", "PROVINCIA": "Los Andes", "COMUNA": "Los Andes", "variable": "Sitios de Inter\u00e9s Poblacional", "Nombres": "Urgaencias Hospital San Juan De Dios - (hospital)", "POINT_X": -70.5957052, "POINT_Y": -32.8287387991}}, {"type": "Feature", "geometry": {"type": "Point", "coordinates": [-70.60423790000003, -32.8276936991]}, "properties": {"CUT_REG": "05", "CUT_PROV": "053", "CUT_COM": "05301", "REGION": "Valpara\u00edso", "PROVINCIA": "Los Andes", "COMUNA": "Los Andes", "variable": "Sitios de Inter\u00e9s Poblacional", "Nombres": "- (traffic_signals)", "POINT_X": -70.6042379, "POINT_Y": -32.8276936991}}, {"type": "Feature", "geometry": {"type": "Point", "coordinates": [-70.60261319999998, -32.8275380991]}, "properties": {"CUT_REG": "05", "CUT_PROV": "053", "CUT_COM": "05301", "REGION": "Valpara\u00edso", "PROVINCIA": "Los Andes", "COMUNA": "Los Andes", "variable": "Sitios de Inter\u00e9s Poblacional", "Nombres": "Jumbo - (parking)", "POINT_X": -70.6026132, "POINT_Y": -32.8275380991}}, {"type": "Feature", "geometry": {"type": "Point", "coordinates": [-70.60730609999996, -32.82733739910001]}, "properties": {"CUT_REG": "05", "CUT_PROV": "053", "CUT_COM": "05301", "REGION": "Valpara\u00edso", "PROVINCIA": "Los Andes", "COMUNA": "Los Andes", "variable": "Sitios de Inter\u00e9s Poblacional", "Nombres": "Copec - (fuel)", "POINT_X": -70.6073061, "POINT_Y": -32.8273373991}}, {"type": "Feature", "geometry": {"type": "Point", "coordinates": [-70.60260750000003, -32.827096099100025]}, "properties": {"CUT_REG": "05", "CUT_PROV": "053", "CUT_COM": "05301", "REGION": "Valpara\u00edso", "PROVINCIA": "Los Andes", "COMUNA": "Los Andes", "variable": "Sitios de Inter\u00e9s Poblacional", "Nombres": "Jumbo - (supermarket)", "POINT_X": -70.6026075, "POINT_Y": -32.8270960991}}, {"type": "Feature", "geometry": {"type": "Point", "coordinates": [-70.60767969999996, -32.827051799100005]}, "properties": {"CUT_REG": "05", "CUT_PROV": "053", "CUT_COM": "05301", "REGION": "Valpara\u00edso", "PROVINCIA": "Los Andes", "COMUNA": "Los Andes", "variable": "Sitios de Inter\u00e9s Poblacional", "Nombres": "- (traffic_signals)", "POINT_X": -70.6076797, "POINT_Y": -32.8270517991}}, {"type": "Feature", "geometry": {"type": "Point", "coordinates": [-70.59961980000003, -32.82658449909997]}, "properties": {"CUT_REG": "05", "CUT_PROV": "053", "CUT_COM": "05301", "REGION": "Valpara\u00edso", "PROVINCIA": "Los Andes", "COMUNA": "Los Andes", "variable": "Sitios de Inter\u00e9s Poblacional", "Nombres": "Terminal Ferroviario - (bus_station)", "POINT_X": -70.5996198, "POINT_Y": -32.8265844991}}, {"type": "Feature", "geometry": {"type": "Point", "coordinates": [-70.60006279999999, -32.826255799099954]}, "properties": {"CUT_REG": "05", "CUT_PROV": "053", "CUT_COM": "05301", "REGION": "Valpara\u00edso", "PROVINCIA": "Los Andes", "COMUNA": "Los Andes", "variable": "Sitios de Inter\u00e9s Poblacional", "Nombres": "Los Andes - (station)", "POINT_X": -70.6000628, "POINT_Y": -32.8262557991}}, {"type": "Feature", "geometry": {"type": "Point", "coordinates": [-70.67578, -32.82608689910001]}, "properties": {"CUT_REG": "05", "CUT_PROV": "053", "CUT_COM": "05303", "REGION": "Valpara\u00edso", "PROVINCIA": "Los Andes", "COMUNA": "Rinconada", "variable": "Sitios de Inter\u00e9s Poblacional", "Nombres": "- (turning_circle)", "POINT_X": -70.67578, "POINT_Y": -32.8260868991}}, {"type": "Feature", "geometry": {"type": "Point", "coordinates": [-70.68810469999994, -32.825827599099966]}, "properties": {"CUT_REG": "05", "CUT_PROV": "053", "CUT_COM": "05303", "REGION": "Valpara\u00edso", "PROVINCIA": "Los Andes", "COMUNA": "Rinconada", "variable": "Sitios de Inter\u00e9s Poblacional", "Nombres": "El Monasterio - (hotel)", "POINT_X": -70.6881047, "POINT_Y": -32.8258275991}}, {"type": "Feature", "geometry": {"type": "Point", "coordinates": [-70.6881772, -32.82567139910001]}, "properties": {"CUT_REG": "05", "CUT_PROV": "053", "CUT_COM": "05303", "REGION": "Valpara\u00edso", "PROVINCIA": "Los Andes", "COMUNA": "Rinconada", "variable": "Sitios de Inter\u00e9s Poblacional", "Nombres": "El Monasterio - (restaurant)", "POINT_X": -70.6881772, "POINT_Y": -32.8256713991}}, {"type": "Feature", "geometry": {"type": "Point", "coordinates": [-70.5887712, -32.81532149910004]}, "properties": {"CUT_REG": "05", "CUT_PROV": "053", "CUT_COM": "05304", "REGION": "Valpara\u00edso", "PROVINCIA": "Los Andes", "COMUNA": "San Esteban", "variable": "Sitios de Inter\u00e9s Poblacional", "Nombres": "Terpel - (fuel)", "POINT_X": -70.5887712, "POINT_Y": -32.8153214991}}, {"type": "Feature", "geometry": {"type": "Point", "coordinates": [-70.5625813, -32.81511999909997]}, "properties": {"CUT_REG": "05", "CUT_PROV": "053", "CUT_COM": "05304", "REGION": "Valpara\u00edso", "PROVINCIA": "Los Andes", "COMUNA": "San Esteban", "variable": "Sitios de Inter\u00e9s Poblacional", "Nombres": "Vi\u00f1a San Esteban - (attraction)", "POINT_X": -70.5625813, "POINT_Y": -32.8151199991}}, {"type": "Feature", "geometry": {"type": "Point", "coordinates": [-70.6424567, -32.81092999910003]}, "properties": {"CUT_REG": "05", "CUT_PROV": "053", "CUT_COM": "05301", "REGION": "Valpara\u00edso", "PROVINCIA": "Los Andes", "COMUNA": "Los Andes", "variable": "Sitios de Inter\u00e9s Poblacional", "Nombres": "- (monument)", "POINT_X": -70.6424567, "POINT_Y": -32.8109299991}}, {"type": "Feature", "geometry": {"type": "Point", "coordinates": [-70.58623219999997, -32.808037899100015]}, "properties": {"CUT_REG": "05", "CUT_PROV": "053", "CUT_COM": "05304", "REGION": "Valpara\u00edso", "PROVINCIA": "Los Andes", "COMUNA": "San Esteban", "variable": "Sitios de Inter\u00e9s Poblacional", "Nombres": "Hotel San Esteban - (hotel)", "POINT_X": -70.5862322, "POINT_Y": -32.8080378991}}, {"type": "Feature", "geometry": {"type": "Point", "coordinates": [-70.58987129999997, -32.806205599100025]}, "properties": {"CUT_REG": "05", "CUT_PROV": "053", "CUT_COM": "05304", "REGION": "Valpara\u00edso", "PROVINCIA": "Los Andes", "COMUNA": "San Esteban", "variable": "Sitios de Inter\u00e9s Poblacional", "Nombres": "El Silo - (silo)", "POINT_X": -70.5898713, "POINT_Y": -32.8062055991}}, {"type": "Feature", "geometry": {"type": "Point", "coordinates": [-70.59224019999996, -32.800558099100016]}, "properties": {"CUT_REG": "05", "CUT_PROV": "053", "CUT_COM": "05304", "REGION": "Valpara\u00edso", "PROVINCIA": "Los Andes", "COMUNA": "San Esteban", "variable": "Sitios de Inter\u00e9s Poblacional", "Nombres": "piscina - (picnic_site)", "POINT_X": -70.5922402, "POINT_Y": -32.8005580991}}, {"type": "Feature", "geometry": {"type": "Point", "coordinates": [-70.5792852, -32.79999089909998]}, "properties": {"CUT_REG": "05", "CUT_PROV": "053", "CUT_COM": "05304", "REGION": "Valpara\u00edso", "PROVINCIA": "Los Andes", "COMUNA": "San Esteban", "variable": "Sitios de Inter\u00e9s Poblacional", "Nombres": "Municipalidad San Esteban - (townhall)", "POINT_X": -70.5792852, "POINT_Y": -32.7999908991}}, {"type": "Feature", "geometry": {"type": "Point", "coordinates": [-70.57887750000002, -32.79951289909996]}, "properties": {"CUT_REG": "05", "CUT_PROV": "053", "CUT_COM": "05304", "REGION": "Valpara\u00edso", "PROVINCIA": "Los Andes", "COMUNA": "San Esteban", "variable": "Sitios de Inter\u00e9s Poblacional", "Nombres": "Iglesia San Esteban - (place_of_worship)", "POINT_X": -70.5788775, "POINT_Y": -32.7995128991}}, {"type": "Feature", "geometry": {"type": "Point", "coordinates": [-70.54809649999996, -32.7969606991]}, "properties": {"CUT_REG": "05", "CUT_PROV": "053", "CUT_COM": "05304", "REGION": "Valpara\u00edso", "PROVINCIA": "Los Andes", "COMUNA": "San Esteban", "variable": "Sitios de Inter\u00e9s Poblacional", "Nombres": "Termas del Corazon - (swimming_pool)", "POINT_X": -70.5480965, "POINT_Y": -32.7969606991}}, {"type": "Feature", "geometry": {"type": "Point", "coordinates": [-70.54840300000001, -32.79669969909998]}, "properties": {"CUT_REG": "05", "CUT_PROV": "053", "CUT_COM": "05304", "REGION": "Valpara\u00edso", "PROVINCIA": "Los Andes", "COMUNA": "San Esteban", "variable": "Sitios de Inter\u00e9s Poblacional", "Nombres": "Termas del Corazon - (hotel)", "POINT_X": -70.548403, "POINT_Y": -32.7966996991}}, {"type": "Feature", "geometry": {"type": "Point", "coordinates": [-70.58309869999997, -32.790012799099955]}, "properties": {"CUT_REG": "05", "CUT_PROV": "053", "CUT_COM": "05304", "REGION": "Valpara\u00edso", "PROVINCIA": "Los Andes", "COMUNA": "San Esteban", "variable": "Sitios de Inter\u00e9s Poblacional", "Nombres": "Tata Enrique - (restaurant)", "POINT_X": -70.5830987, "POINT_Y": -32.7900127991}}, {"type": "Feature", "geometry": {"type": "Point", "coordinates": [-70.59092009999998, -32.78628769910002]}, "properties": {"CUT_REG": "05", "CUT_PROV": "053", "CUT_COM": "05304", "REGION": "Valpara\u00edso", "PROVINCIA": "Los Andes", "COMUNA": "San Esteban", "variable": "Sitios de Inter\u00e9s Poblacional", "Nombres": "Donde Mu\u00f1oz - (restaurant)", "POINT_X": -70.5909201, "POINT_Y": -32.7862876991}}, {"type": "Feature", "geometry": {"type": "Point", "coordinates": [-70.48313899999998, -32.75736929909997]}, "properties": {"CUT_REG": "05", "CUT_PROV": "053", "CUT_COM": "05304", "REGION": "Valpara\u00edso", "PROVINCIA": "Los Andes", "COMUNA": "San Esteban", "variable": "Sitios de Inter\u00e9s Poblacional", "Nombres": "San Francisco Lodge - (restaurant)", "POINT_X": -70.483139, "POINT_Y": -32.7573692991}}, {"type": "Feature", "geometry": {"type": "Point", "coordinates": [-70.48317950000003, -32.75714399909998]}, "properties": {"CUT_REG": "05", "CUT_PROV": "053", "CUT_COM": "05304", "REGION": "Valpara\u00edso", "PROVINCIA": "Los Andes", "COMUNA": "San Esteban", "variable": "Sitios de Inter\u00e9s Poblacional", "Nombres": "San Francisco Lodge - (hotel)", "POINT_X": -70.4831795, "POINT_Y": -32.7571439991}}, {"type": "Feature", "geometry": {"type": "Point", "coordinates": [-70.60633699999998, -32.753956499100035]}, "properties": {"CUT_REG": "05", "CUT_PROV": "053", "CUT_COM": "05304", "REGION": "Valpara\u00edso", "PROVINCIA": "Los Andes", "COMUNA": "San Esteban", "variable": "Sitios de Inter\u00e9s Poblacional", "Nombres": "- (kiosk)", "POINT_X": -70.606337, "POINT_Y": -32.7539564991}}, {"type": "Feature", "geometry": {"type": "Point", "coordinates": [-70.47682550000002, -32.65437479909997]}, "properties": {"CUT_REG": "05", "CUT_PROV": "053", "CUT_COM": "05304", "REGION": "Valpara\u00edso", "PROVINCIA": "Los Andes", "COMUNA": "San Esteban", "variable": "Sitios de Inter\u00e9s Poblacional", "Nombres": "- (parking)", "POINT_X": -70.4768255, "POINT_Y": -32.6543747991}}, {"type": "Feature", "geometry": {"type": "Point", "coordinates": [-70.47620749999996, -32.65431699909998]}, "properties": {"CUT_REG": "05", "CUT_PROV": "053", "CUT_COM": "05304", "REGION": "Valpara\u00edso", "PROVINCIA": "Los Andes", "COMUNA": "San Esteban", "variable": "Sitios de Inter\u00e9s Poblacional", "Nombres": "- (toilets)", "POINT_X": -70.4762075, "POINT_Y": -32.6543169991}}]}