{"type": "FeatureCollection", "features": [{"type": "Feature", "geometry": {"type": "Point", "coordinates": [-71.42446529999997, -32.63052069909998]}, "properties": {"CUT_REG": "05", "CUT_PROV": "054", "CUT_COM": "05405", "REGION": "Valpara\u00edso", "PROVINCIA": "Petorca", "COMUNA": "Zapallar", "variable": "Sitios de Inter\u00e9s Poblacional", "Nombres": "Centro C\u00edvico - (community_centre)", "POINT_X": -71.4244653, "POINT_Y": -32.6305206991}}, {"type": "Feature", "geometry": {"type": "Point", "coordinates": [-71.42258339999995, -32.62967999909997]}, "properties": {"CUT_REG": "05", "CUT_PROV": "054", "CUT_COM": "05405", "REGION": "Valpara\u00edso", "PROVINCIA": "Petorca", "COMUNA": "Zapallar", "variable": "Sitios de Inter\u00e9s Poblacional", "Nombres": "- (newsagent)", "POINT_X": -71.4225834, "POINT_Y": -32.6296799991}}, {"type": "Feature", "geometry": {"type": "Point", "coordinates": [-71.42303329999996, -32.62965289910004]}, "properties": {"CUT_REG": "05", "CUT_PROV": "054", "CUT_COM": "05405", "REGION": "Valpara\u00edso", "PROVINCIA": "Petorca", "COMUNA": "Zapallar", "variable": "Sitios de Inter\u00e9s Poblacional", "Nombres": "Amigo - (convenience)", "POINT_X": -71.4230333, "POINT_Y": -32.6296528991}}, {"type": "Feature", "geometry": {"type": "Point", "coordinates": [-71.42399680000003, -32.62964899909998]}, "properties": {"CUT_REG": "05", "CUT_PROV": "054", "CUT_COM": "05405", "REGION": "Valpara\u00edso", "PROVINCIA": "Petorca", "COMUNA": "Zapallar", "variable": "Sitios de Inter\u00e9s Poblacional", "Nombres": "Fruteria - (greengrocer)", "POINT_X": -71.4239968, "POINT_Y": -32.6296489991}}, {"type": "Feature", "geometry": {"type": "Point", "coordinates": [-71.42282919999995, -32.62964829910001]}, "properties": {"CUT_REG": "05", "CUT_PROV": "054", "CUT_COM": "05405", "REGION": "Valpara\u00edso", "PROVINCIA": "Petorca", "COMUNA": "Zapallar", "variable": "Sitios de Inter\u00e9s Poblacional", "Nombres": "Denisse - (greengrocer)", "POINT_X": -71.4228292, "POINT_Y": -32.6296482991}}, {"type": "Feature", "geometry": {"type": "Point", "coordinates": [-71.42535519999997, -32.62963249910003]}, "properties": {"CUT_REG": "05", "CUT_PROV": "054", "CUT_COM": "05405", "REGION": "Valpara\u00edso", "PROVINCIA": "Petorca", "COMUNA": "Zapallar", "variable": "Sitios de Inter\u00e9s Poblacional", "Nombres": "- (convenience)", "POINT_X": -71.4253552, "POINT_Y": -32.6296324991}}, {"type": "Feature", "geometry": {"type": "Point", "coordinates": [-71.42212529999998, -32.62955849910004]}, "properties": {"CUT_REG": "05", "CUT_PROV": "054", "CUT_COM": "05405", "REGION": "Valpara\u00edso", "PROVINCIA": "Petorca", "COMUNA": "Zapallar", "variable": "Sitios de Inter\u00e9s Poblacional", "Nombres": "La Pic\u00e1 de la Flora - (restaurant)", "POINT_X": -71.4221253, "POINT_Y": -32.6295584991}}, {"type": "Feature", "geometry": {"type": "Point", "coordinates": [-71.4228286, -32.629547799100045]}, "properties": {"CUT_REG": "05", "CUT_PROV": "054", "CUT_COM": "05405", "REGION": "Valpara\u00edso", "PROVINCIA": "Petorca", "COMUNA": "Zapallar", "variable": "Sitios de Inter\u00e9s Poblacional", "Nombres": "Amigo - (restaurant)", "POINT_X": -71.4228286, "POINT_Y": -32.6295477991}}, {"type": "Feature", "geometry": {"type": "Point", "coordinates": [-71.42320729999997, -32.62954599909998]}, "properties": {"CUT_REG": "05", "CUT_PROV": "054", "CUT_COM": "05405", "REGION": "Valpara\u00edso", "PROVINCIA": "Petorca", "COMUNA": "Zapallar", "variable": "Sitios de Inter\u00e9s Poblacional", "Nombres": "Fruteria - (greengrocer)", "POINT_X": -71.4232073, "POINT_Y": -32.6295459991}}, {"type": "Feature", "geometry": {"type": "Point", "coordinates": [-71.42407510000001, -32.6295182991]}, "properties": {"CUT_REG": "05", "CUT_PROV": "054", "CUT_COM": "05405", "REGION": "Valpara\u00edso", "PROVINCIA": "Petorca", "COMUNA": "Zapallar", "variable": "Sitios de Inter\u00e9s Poblacional", "Nombres": "El Vigua - (convenience)", "POINT_X": -71.4240751, "POINT_Y": -32.6295182991}}, {"type": "Feature", "geometry": {"type": "Point", "coordinates": [-71.42376859999996, -32.62951469909997]}, "properties": {"CUT_REG": "05", "CUT_PROV": "054", "CUT_COM": "05405", "REGION": "Valpara\u00edso", "PROVINCIA": "Petorca", "COMUNA": "Zapallar", "variable": "Sitios de Inter\u00e9s Poblacional", "Nombres": "Santa Beatriz - (bakery)", "POINT_X": -71.4237686, "POINT_Y": -32.6295146991}}, {"type": "Feature", "geometry": {"type": "Point", "coordinates": [-71.42565200000001, -32.62948789909997]}, "properties": {"CUT_REG": "05", "CUT_PROV": "054", "CUT_COM": "05405", "REGION": "Valpara\u00edso", "PROVINCIA": "Petorca", "COMUNA": "Zapallar", "variable": "Sitios de Inter\u00e9s Poblacional", "Nombres": "Botilleria - (alcohol)", "POINT_X": -71.425652, "POINT_Y": -32.6294878991}}, {"type": "Feature", "geometry": {"type": "Point", "coordinates": [-71.41951180000001, -32.62925559910003]}, "properties": {"CUT_REG": "05", "CUT_PROV": "054", "CUT_COM": "05405", "REGION": "Valpara\u00edso", "PROVINCIA": "Petorca", "COMUNA": "Zapallar", "variable": "Sitios de Inter\u00e9s Poblacional", "Nombres": "tienda de le\u00f1a - (firewood)", "POINT_X": -71.4195118, "POINT_Y": -32.6292555991}}, {"type": "Feature", "geometry": {"type": "Point", "coordinates": [-71.42113740000005, -32.6286187991]}, "properties": {"CUT_REG": "05", "CUT_PROV": "054", "CUT_COM": "05405", "REGION": "Valpara\u00edso", "PROVINCIA": "Petorca", "COMUNA": "Zapallar", "variable": "Sitios de Inter\u00e9s Poblacional", "Nombres": "Carabineros La Laguna - (police)", "POINT_X": -71.4211374, "POINT_Y": -32.6286187991}}, {"type": "Feature", "geometry": {"type": "Point", "coordinates": [-71.43034589999999, -32.626521299100006]}, "properties": {"CUT_REG": "05", "CUT_PROV": "054", "CUT_COM": "05405", "REGION": "Valpara\u00edso", "PROVINCIA": "Petorca", "COMUNA": "Zapallar", "variable": "Sitios de Inter\u00e9s Poblacional", "Nombres": "Escuela de Surf - (attraction)", "POINT_X": -71.4303459, "POINT_Y": -32.6265212991}}, {"type": "Feature", "geometry": {"type": "Point", "coordinates": [-71.4301658, -32.62575249909999]}, "properties": {"CUT_REG": "05", "CUT_PROV": "054", "CUT_COM": "05405", "REGION": "Valpara\u00edso", "PROVINCIA": "Petorca", "COMUNA": "Zapallar", "variable": "Sitios de Inter\u00e9s Poblacional", "Nombres": "Iglesia Laguna de Zapallar - (place_of_worship)", "POINT_X": -71.4301658, "POINT_Y": -32.6257524991}}, {"type": "Feature", "geometry": {"type": "Point", "coordinates": [-71.42860210000003, -32.62535029910002]}, "properties": {"CUT_REG": "05", "CUT_PROV": "054", "CUT_COM": "05405", "REGION": "Valpara\u00edso", "PROVINCIA": "Petorca", "COMUNA": "Zapallar", "variable": "Sitios de Inter\u00e9s Poblacional", "Nombres": "- (turning_circle)", "POINT_X": -71.4286021, "POINT_Y": -32.6253502991}}, {"type": "Feature", "geometry": {"type": "Point", "coordinates": [-71.42833900000002, -32.62518679909999]}, "properties": {"CUT_REG": "05", "CUT_PROV": "054", "CUT_COM": "05405", "REGION": "Valpara\u00edso", "PROVINCIA": "Petorca", "COMUNA": "Zapallar", "variable": "Sitios de Inter\u00e9s Poblacional", "Nombres": "- (turning_circle)", "POINT_X": -71.428339, "POINT_Y": -32.6251867991}}, {"type": "Feature", "geometry": {"type": "Point", "coordinates": [-71.42459429999998, -32.62470359909998]}, "properties": {"CUT_REG": "05", "CUT_PROV": "054", "CUT_COM": "05405", "REGION": "Valpara\u00edso", "PROVINCIA": "Petorca", "COMUNA": "Zapallar", "variable": "Sitios de Inter\u00e9s Poblacional", "Nombres": "Club House Costa Cachagua - (restaurant)", "POINT_X": -71.4245943, "POINT_Y": -32.6247035991}}, {"type": "Feature", "geometry": {"type": "Point", "coordinates": [-71.43265359999997, -32.606412499100024]}, "properties": {"CUT_REG": "05", "CUT_PROV": "054", "CUT_COM": "05405", "REGION": "Valpara\u00edso", "PROVINCIA": "Petorca", "COMUNA": "Zapallar", "variable": "Sitios de Inter\u00e9s Poblacional", "Nombres": "Mirador Oceano - (viewpoint)", "POINT_X": -71.4326536, "POINT_Y": -32.6064124991}}, {"type": "Feature", "geometry": {"type": "Point", "coordinates": [-71.45055410000003, -32.583202199100015]}, "properties": {"CUT_REG": "05", "CUT_PROV": "054", "CUT_COM": "05405", "REGION": "Valpara\u00edso", "PROVINCIA": "Petorca", "COMUNA": "Zapallar", "variable": "Sitios de Inter\u00e9s Poblacional", "Nombres": "Playa Cachagua - (parking)", "POINT_X": -71.4505541, "POINT_Y": -32.5832021991}}, {"type": "Feature", "geometry": {"type": "Point", "coordinates": [-71.44919999999999, -32.57870599909997]}, "properties": {"CUT_REG": "05", "CUT_PROV": "054", "CUT_COM": "05405", "REGION": "Valpara\u00edso", "PROVINCIA": "Petorca", "COMUNA": "Zapallar", "variable": "Sitios de Inter\u00e9s Poblacional", "Nombres": "Lo vasquez - (supermarket)", "POINT_X": -71.4492, "POINT_Y": -32.5787059991}}, {"type": "Feature", "geometry": {"type": "Point", "coordinates": [-71.44922600000001, -32.578391999100006]}, "properties": {"CUT_REG": "05", "CUT_PROV": "054", "CUT_COM": "05405", "REGION": "Valpara\u00edso", "PROVINCIA": "Petorca", "COMUNA": "Zapallar", "variable": "Sitios de Inter\u00e9s Poblacional", "Nombres": "Emporio don Mat\u00edas - (restaurant)", "POINT_X": -71.449226, "POINT_Y": -32.5783919991}}, {"type": "Feature", "geometry": {"type": "Point", "coordinates": [-71.45795819999998, -32.57815289910003]}, "properties": {"CUT_REG": "05", "CUT_PROV": "054", "CUT_COM": "05405", "REGION": "Valpara\u00edso", "PROVINCIA": "Petorca", "COMUNA": "Zapallar", "variable": "Sitios de Inter\u00e9s Poblacional", "Nombres": "Mirador Cachagua - (viewpoint)", "POINT_X": -71.4579582, "POINT_Y": -32.5781528991}}, {"type": "Feature", "geometry": {"type": "Point", "coordinates": [-71.4486645, -32.578125299099966]}, "properties": {"CUT_REG": "05", "CUT_PROV": "054", "CUT_COM": "05405", "REGION": "Valpara\u00edso", "PROVINCIA": "Petorca", "COMUNA": "Zapallar", "variable": "Sitios de Inter\u00e9s Poblacional", "Nombres": "Tio Tomate - (restaurant)", "POINT_X": -71.4486645, "POINT_Y": -32.5781252991}}, {"type": "Feature", "geometry": {"type": "Point", "coordinates": [-71.45113659999998, -32.57764219909996]}, "properties": {"CUT_REG": "05", "CUT_PROV": "054", "CUT_COM": "05405", "REGION": "Valpara\u00edso", "PROVINCIA": "Petorca", "COMUNA": "Zapallar", "variable": "Sitios de Inter\u00e9s Poblacional", "Nombres": "Nicanor - (restaurant)", "POINT_X": -71.4511366, "POINT_Y": -32.5776421991}}, {"type": "Feature", "geometry": {"type": "Point", "coordinates": [-71.44739979999999, -32.5767397991]}, "properties": {"CUT_REG": "05", "CUT_PROV": "054", "CUT_COM": "05405", "REGION": "Valpara\u00edso", "PROVINCIA": "Petorca", "COMUNA": "Zapallar", "variable": "Sitios de Inter\u00e9s Poblacional", "Nombres": "Iglesia de la Santa Cruz - (place_of_worship)", "POINT_X": -71.4473998, "POINT_Y": -32.5767397991}}, {"type": "Feature", "geometry": {"type": "Point", "coordinates": [-71.44509799999996, -32.576538599099955]}, "properties": {"CUT_REG": "05", "CUT_PROV": "054", "CUT_COM": "05405", "REGION": "Valpara\u00edso", "PROVINCIA": "Petorca", "COMUNA": "Zapallar", "variable": "Sitios de Inter\u00e9s Poblacional", "Nombres": "OK Market - (supermarket)", "POINT_X": -71.445098, "POINT_Y": -32.5765385991}}, {"type": "Feature", "geometry": {"type": "Point", "coordinates": [-71.44474399999999, -32.57645729909998]}, "properties": {"CUT_REG": "05", "CUT_PROV": "054", "CUT_COM": "05405", "REGION": "Valpara\u00edso", "PROVINCIA": "Petorca", "COMUNA": "Zapallar", "variable": "Sitios de Inter\u00e9s Poblacional", "Nombres": "Cruz Verde - (hospital)", "POINT_X": -71.444744, "POINT_Y": -32.5764572991}}, {"type": "Feature", "geometry": {"type": "Point", "coordinates": [-71.44636989999995, -32.57554639910002]}, "properties": {"CUT_REG": "05", "CUT_PROV": "054", "CUT_COM": "05405", "REGION": "Valpara\u00edso", "PROVINCIA": "Petorca", "COMUNA": "Zapallar", "variable": "Sitios de Inter\u00e9s Poblacional", "Nombres": "L\u00b4Hermitage - (restaurant)", "POINT_X": -71.4463699, "POINT_Y": -32.5755463991}}, {"type": "Feature", "geometry": {"type": "Point", "coordinates": [-71.27525789999999, -32.567874299100005]}, "properties": {"CUT_REG": "05", "CUT_PROV": "054", "CUT_COM": "05405", "REGION": "Valpara\u00edso", "PROVINCIA": "Petorca", "COMUNA": "Zapallar", "variable": "Sitios de Inter\u00e9s Poblacional", "Nombres": "Escuela Catapilco - (school)", "POINT_X": -71.2752579, "POINT_Y": -32.5678742991}}, {"type": "Feature", "geometry": {"type": "Point", "coordinates": [-71.27579170000001, -32.56757819910002]}, "properties": {"CUT_REG": "05", "CUT_PROV": "054", "CUT_COM": "05405", "REGION": "Valpara\u00edso", "PROVINCIA": "Petorca", "COMUNA": "Zapallar", "variable": "Sitios de Inter\u00e9s Poblacional", "Nombres": "Comisaria Catapilco - (police)", "POINT_X": -71.2757917, "POINT_Y": -32.5675781991}}, {"type": "Feature", "geometry": {"type": "Point", "coordinates": [-71.27664190000002, -32.56744709910001]}, "properties": {"CUT_REG": "05", "CUT_PROV": "054", "CUT_COM": "05405", "REGION": "Valpara\u00edso", "PROVINCIA": "Petorca", "COMUNA": "Zapallar", "variable": "Sitios de Inter\u00e9s Poblacional", "Nombres": "- (atm)", "POINT_X": -71.2766419, "POINT_Y": -32.5674470991}}, {"type": "Feature", "geometry": {"type": "Point", "coordinates": [-71.2765235, -32.56742629909998]}, "properties": {"CUT_REG": "05", "CUT_PROV": "054", "CUT_COM": "05405", "REGION": "Valpara\u00edso", "PROVINCIA": "Petorca", "COMUNA": "Zapallar", "variable": "Sitios de Inter\u00e9s Poblacional", "Nombres": "- (supermarket)", "POINT_X": -71.2765235, "POINT_Y": -32.5674262991}}, {"type": "Feature", "geometry": {"type": "Point", "coordinates": [-71.2781037, -32.566976899100005]}, "properties": {"CUT_REG": "05", "CUT_PROV": "054", "CUT_COM": "05405", "REGION": "Valpara\u00edso", "PROVINCIA": "Petorca", "COMUNA": "Zapallar", "variable": "Sitios de Inter\u00e9s Poblacional", "Nombres": "Municipalidad Catapilco - (townhall)", "POINT_X": -71.2781037, "POINT_Y": -32.5669768991}}, {"type": "Feature", "geometry": {"type": "Point", "coordinates": [-71.27703499999996, -32.566199099099954]}, "properties": {"CUT_REG": "05", "CUT_PROV": "054", "CUT_COM": "05405", "REGION": "Valpara\u00edso", "PROVINCIA": "Petorca", "COMUNA": "Zapallar", "variable": "Sitios de Inter\u00e9s Poblacional", "Nombres": "Panaderia - (bakery)", "POINT_X": -71.277035, "POINT_Y": -32.5661990991}}, {"type": "Feature", "geometry": {"type": "Point", "coordinates": [-71.2741233, -32.565959699099956]}, "properties": {"CUT_REG": "05", "CUT_PROV": "054", "CUT_COM": "05405", "REGION": "Valpara\u00edso", "PROVINCIA": "Petorca", "COMUNA": "Zapallar", "variable": "Sitios de Inter\u00e9s Poblacional", "Nombres": "Iglesia Catapilco - (place_of_worship)", "POINT_X": -71.2741233, "POINT_Y": -32.5659596991}}, {"type": "Feature", "geometry": {"type": "Point", "coordinates": [-71.27536250000003, -32.56490849910002]}, "properties": {"CUT_REG": "05", "CUT_PROV": "054", "CUT_COM": "05405", "REGION": "Valpara\u00edso", "PROVINCIA": "Petorca", "COMUNA": "Zapallar", "variable": "Sitios de Inter\u00e9s Poblacional", "Nombres": "Piscina Municipal Catapilco - (swimming_pool)", "POINT_X": -71.2753625, "POINT_Y": -32.5649084991}}, {"type": "Feature", "geometry": {"type": "Point", "coordinates": [-71.45600099999996, -32.564749799100035]}, "properties": {"CUT_REG": "05", "CUT_PROV": "054", "CUT_COM": "05405", "REGION": "Valpara\u00edso", "PROVINCIA": "Petorca", "COMUNA": "Zapallar", "variable": "Sitios de Inter\u00e9s Poblacional", "Nombres": "- (turning_circle)", "POINT_X": -71.456001, "POINT_Y": -32.5647497991}}, {"type": "Feature", "geometry": {"type": "Point", "coordinates": [-71.45536789999997, -32.55613459909997]}, "properties": {"CUT_REG": "05", "CUT_PROV": "054", "CUT_COM": "05405", "REGION": "Valpara\u00edso", "PROVINCIA": "Petorca", "COMUNA": "Zapallar", "variable": "Sitios de Inter\u00e9s Poblacional", "Nombres": "Zapallar - (fast_food)", "POINT_X": -71.4553679, "POINT_Y": -32.5561345991}}, {"type": "Feature", "geometry": {"type": "Point", "coordinates": [-71.45552879999997, -32.556102699099995]}, "properties": {"CUT_REG": "05", "CUT_PROV": "054", "CUT_COM": "05405", "REGION": "Valpara\u00edso", "PROVINCIA": "Petorca", "COMUNA": "Zapallar", "variable": "Sitios de Inter\u00e9s Poblacional", "Nombres": "Punto Rico - (fast_food)", "POINT_X": -71.4555288, "POINT_Y": -32.5561026991}}, {"type": "Feature", "geometry": {"type": "Point", "coordinates": [-71.45459550000001, -32.5560984991]}, "properties": {"CUT_REG": "05", "CUT_PROV": "054", "CUT_COM": "05405", "REGION": "Valpara\u00edso", "PROVINCIA": "Petorca", "COMUNA": "Zapallar", "variable": "Sitios de Inter\u00e9s Poblacional", "Nombres": "Bomberos Zapallar - (fire_station)", "POINT_X": -71.4545955, "POINT_Y": -32.5560984991}}, {"type": "Feature", "geometry": {"type": "Point", "coordinates": [-71.45531460000001, -32.55589259910002]}, "properties": {"CUT_REG": "05", "CUT_PROV": "054", "CUT_COM": "05405", "REGION": "Valpara\u00edso", "PROVINCIA": "Petorca", "COMUNA": "Zapallar", "variable": "Sitios de Inter\u00e9s Poblacional", "Nombres": "Copec - (fuel)", "POINT_X": -71.4553146, "POINT_Y": -32.5558925991}}, {"type": "Feature", "geometry": {"type": "Point", "coordinates": [-71.45551269999996, -32.55586789910002]}, "properties": {"CUT_REG": "05", "CUT_PROV": "054", "CUT_COM": "05405", "REGION": "Valpara\u00edso", "PROVINCIA": "Petorca", "COMUNA": "Zapallar", "variable": "Sitios de Inter\u00e9s Poblacional", "Nombres": "Culebra - (fast_food)", "POINT_X": -71.4555127, "POINT_Y": -32.5558678991}}, {"type": "Feature", "geometry": {"type": "Point", "coordinates": [-71.45581380000002, -32.555683799099974]}, "properties": {"CUT_REG": "05", "CUT_PROV": "054", "CUT_COM": "05405", "REGION": "Valpara\u00edso", "PROVINCIA": "Petorca", "COMUNA": "Zapallar", "variable": "Sitios de Inter\u00e9s Poblacional", "Nombres": "cruz verde - (pharmacy)", "POINT_X": -71.4558138, "POINT_Y": -32.5556837991}}, {"type": "Feature", "geometry": {"type": "Point", "coordinates": [-71.45449089999997, -32.555671299100005]}, "properties": {"CUT_REG": "05", "CUT_PROV": "054", "CUT_COM": "05405", "REGION": "Valpara\u00edso", "PROVINCIA": "Petorca", "COMUNA": "Zapallar", "variable": "Sitios de Inter\u00e9s Poblacional", "Nombres": "Reten de Carabineros de Zapallar - (police)", "POINT_X": -71.4544909, "POINT_Y": -32.5556712991}}, {"type": "Feature", "geometry": {"type": "Point", "coordinates": [-71.46702229999997, -32.55537089910002]}, "properties": {"CUT_REG": "05", "CUT_PROV": "054", "CUT_COM": "05405", "REGION": "Valpara\u00edso", "PROVINCIA": "Petorca", "COMUNA": "Zapallar", "variable": "Sitios de Inter\u00e9s Poblacional", "Nombres": "Mirador Mar Bravo - (viewpoint)", "POINT_X": -71.4670223, "POINT_Y": -32.5553708991}}, {"type": "Feature", "geometry": {"type": "Point", "coordinates": [-71.45698789999999, -32.55533879910003]}, "properties": {"CUT_REG": "05", "CUT_PROV": "054", "CUT_COM": "05405", "REGION": "Valpara\u00edso", "PROVINCIA": "Petorca", "COMUNA": "Zapallar", "variable": "Sitios de Inter\u00e9s Poblacional", "Nombres": "La Esquina - (fast_food)", "POINT_X": -71.4569879, "POINT_Y": -32.5553387991}}, {"type": "Feature", "geometry": {"type": "Point", "coordinates": [-71.4559962, -32.55521359909997]}, "properties": {"CUT_REG": "05", "CUT_PROV": "054", "CUT_COM": "05405", "REGION": "Valpara\u00edso", "PROVINCIA": "Petorca", "COMUNA": "Zapallar", "variable": "Sitios de Inter\u00e9s Poblacional", "Nombres": "Pull - (pub)", "POINT_X": -71.4559962, "POINT_Y": -32.5552135991}}, {"type": "Feature", "geometry": {"type": "Point", "coordinates": [-71.45573870000001, -32.55489709909999]}, "properties": {"CUT_REG": "05", "CUT_PROV": "054", "CUT_COM": "05405", "REGION": "Valpara\u00edso", "PROVINCIA": "Petorca", "COMUNA": "Zapallar", "variable": "Sitios de Inter\u00e9s Poblacional", "Nombres": "- (atm)", "POINT_X": -71.4557387, "POINT_Y": -32.5548970991}}, {"type": "Feature", "geometry": {"type": "Point", "coordinates": [-71.45355440000003, -32.55471509910003]}, "properties": {"CUT_REG": "05", "CUT_PROV": "054", "CUT_COM": "05405", "REGION": "Valpara\u00edso", "PROVINCIA": "Petorca", "COMUNA": "Zapallar", "variable": "Sitios de Inter\u00e9s Poblacional", "Nombres": "Hotel Casa Zapallar - (hotel)", "POINT_X": -71.4535544, "POINT_Y": -32.5547150991}}, {"type": "Feature", "geometry": {"type": "Point", "coordinates": [-71.45872569999997, -32.55469699910004]}, "properties": {"CUT_REG": "05", "CUT_PROV": "054", "CUT_COM": "05405", "REGION": "Valpara\u00edso", "PROVINCIA": "Petorca", "COMUNA": "Zapallar", "variable": "Sitios de Inter\u00e9s Poblacional", "Nombres": "Fresia - (fast_food)", "POINT_X": -71.4587257, "POINT_Y": -32.5546969991}}, {"type": "Feature", "geometry": {"type": "Point", "coordinates": [-71.4559103, -32.55440869909999]}, "properties": {"CUT_REG": "05", "CUT_PROV": "054", "CUT_COM": "05405", "REGION": "Valpara\u00edso", "PROVINCIA": "Petorca", "COMUNA": "Zapallar", "variable": "Sitios de Inter\u00e9s Poblacional", "Nombres": "El Bony - (supermarket)", "POINT_X": -71.4559103, "POINT_Y": -32.5544086991}}, {"type": "Feature", "geometry": {"type": "Point", "coordinates": [-71.45534669999999, -32.5543980991]}, "properties": {"CUT_REG": "05", "CUT_PROV": "054", "CUT_COM": "05405", "REGION": "Valpara\u00edso", "PROVINCIA": "Petorca", "COMUNA": "Zapallar", "variable": "Sitios de Inter\u00e9s Poblacional", "Nombres": "Posta Zapallar - (hospital)", "POINT_X": -71.4553467, "POINT_Y": -32.5543980991}}, {"type": "Feature", "geometry": {"type": "Point", "coordinates": [-71.45556920000001, -32.55409089909998]}, "properties": {"CUT_REG": "05", "CUT_PROV": "054", "CUT_COM": "05405", "REGION": "Valpara\u00edso", "PROVINCIA": "Petorca", "COMUNA": "Zapallar", "variable": "Sitios de Inter\u00e9s Poblacional", "Nombres": "Julia Rosa - (supermarket)", "POINT_X": -71.4555692, "POINT_Y": -32.5540908991}}, {"type": "Feature", "geometry": {"type": "Point", "coordinates": [-71.45604979999999, -32.55403799909996]}, "properties": {"CUT_REG": "05", "CUT_PROV": "054", "CUT_COM": "05405", "REGION": "Valpara\u00edso", "PROVINCIA": "Petorca", "COMUNA": "Zapallar", "variable": "Sitios de Inter\u00e9s Poblacional", "Nombres": "- (bus_stop)", "POINT_X": -71.4560498, "POINT_Y": -32.5540379991}}, {"type": "Feature", "geometry": {"type": "Point", "coordinates": [-71.4558889, -32.554028899100004]}, "properties": {"CUT_REG": "05", "CUT_PROV": "054", "CUT_COM": "05405", "REGION": "Valpara\u00edso", "PROVINCIA": "Petorca", "COMUNA": "Zapallar", "variable": "Sitios de Inter\u00e9s Poblacional", "Nombres": "Mar Bravo - (supermarket)", "POINT_X": -71.4558889, "POINT_Y": -32.5540288991}}, {"type": "Feature", "geometry": {"type": "Point", "coordinates": [-71.45873299999997, -32.55340779910004]}, "properties": {"CUT_REG": "05", "CUT_PROV": "054", "CUT_COM": "05405", "REGION": "Valpara\u00edso", "PROVINCIA": "Petorca", "COMUNA": "Zapallar", "variable": "Sitios de Inter\u00e9s Poblacional", "Nombres": "Parroquia de Zapallar - (place_of_worship)", "POINT_X": -71.458733, "POINT_Y": -32.5534077991}}, {"type": "Feature", "geometry": {"type": "Point", "coordinates": [-71.46209409999997, -32.55325959910004]}, "properties": {"CUT_REG": "05", "CUT_PROV": "054", "CUT_COM": "05405", "REGION": "Valpara\u00edso", "PROVINCIA": "Petorca", "COMUNA": "Zapallar", "variable": "Sitios de Inter\u00e9s Poblacional", "Nombres": "La Jaiba Loca - (restaurant)", "POINT_X": -71.4620941, "POINT_Y": -32.5532595991}}, {"type": "Feature", "geometry": {"type": "Point", "coordinates": [-71.46692049999999, -32.5529542991]}, "properties": {"CUT_REG": "05", "CUT_PROV": "054", "CUT_COM": "05405", "REGION": "Valpara\u00edso", "PROVINCIA": "Petorca", "COMUNA": "Zapallar", "variable": "Sitios de Inter\u00e9s Poblacional", "Nombres": "Estacionamiento 4 o 5 automoviles Cerro de la Cr *", "POINT_X": -71.4669205, "POINT_Y": -32.5529542991}}, {"type": "Feature", "geometry": {"type": "Point", "coordinates": [-71.46567109999998, -32.55282799910003]}, "properties": {"CUT_REG": "05", "CUT_PROV": "054", "CUT_COM": "05405", "REGION": "Valpara\u00edso", "PROVINCIA": "Petorca", "COMUNA": "Zapallar", "variable": "Sitios de Inter\u00e9s Poblacional", "Nombres": "Caleta de Zapallar - (convenience)", "POINT_X": -71.4656711, "POINT_Y": -32.5528279991}}, {"type": "Feature", "geometry": {"type": "Point", "coordinates": [-71.46865539999999, -32.55263719909996]}, "properties": {"CUT_REG": "05", "CUT_PROV": "054", "CUT_COM": "05405", "REGION": "Valpara\u00edso", "PROVINCIA": "Petorca", "COMUNA": "Zapallar", "variable": "Sitios de Inter\u00e9s Poblacional", "Nombres": "Cerro de la cruz - (viewpoint)", "POINT_X": -71.4686554, "POINT_Y": -32.5526371991}}, {"type": "Feature", "geometry": {"type": "Point", "coordinates": [-71.46587569999996, -32.55255769909996]}, "properties": {"CUT_REG": "05", "CUT_PROV": "054", "CUT_COM": "05405", "REGION": "Valpara\u00edso", "PROVINCIA": "Petorca", "COMUNA": "Zapallar", "variable": "Sitios de Inter\u00e9s Poblacional", "Nombres": "Chiringuito - (restaurant)", "POINT_X": -71.4658757, "POINT_Y": -32.5525576991}}, {"type": "Feature", "geometry": {"type": "Point", "coordinates": [-71.46613320000003, -32.552485299100006]}, "properties": {"CUT_REG": "05", "CUT_PROV": "054", "CUT_COM": "05405", "REGION": "Valpara\u00edso", "PROVINCIA": "Petorca", "COMUNA": "Zapallar", "variable": "Sitios de Inter\u00e9s Poblacional", "Nombres": "Estacionamiento Chiringuito - (parking)", "POINT_X": -71.4661332, "POINT_Y": -32.5524852991}}, {"type": "Feature", "geometry": {"type": "Point", "coordinates": [-71.46113270000001, -32.5524797991]}, "properties": {"CUT_REG": "05", "CUT_PROV": "054", "CUT_COM": "05405", "REGION": "Valpara\u00edso", "PROVINCIA": "Petorca", "COMUNA": "Zapallar", "variable": "Sitios de Inter\u00e9s Poblacional", "Nombres": "Cesar - (restaurant)", "POINT_X": -71.4611327, "POINT_Y": -32.5524797991}}, {"type": "Feature", "geometry": {"type": "Point", "coordinates": [-71.4578352, -32.55135099910004]}, "properties": {"CUT_REG": "05", "CUT_PROV": "054", "CUT_COM": "05405", "REGION": "Valpara\u00edso", "PROVINCIA": "Petorca", "COMUNA": "Zapallar", "variable": "Sitios de Inter\u00e9s Poblacional", "Nombres": "Municipalidad Zapallar - (townhall)", "POINT_X": -71.4578352, "POINT_Y": -32.5513509991}}, {"type": "Feature", "geometry": {"type": "Point", "coordinates": [-71.27012759999997, -32.549922899100004]}, "properties": {"CUT_REG": "05", "CUT_PROV": "054", "CUT_COM": "05405", "REGION": "Valpara\u00edso", "PROVINCIA": "Petorca", "COMUNA": "Zapallar", "variable": "Sitios de Inter\u00e9s Poblacional", "Nombres": "- (mini_roundabout)", "POINT_X": -71.2701276, "POINT_Y": -32.5499228991}}, {"type": "Feature", "geometry": {"type": "Point", "coordinates": [-71.46207289999998, -32.548486499099994]}, "properties": {"CUT_REG": "05", "CUT_PROV": "054", "CUT_COM": "05405", "REGION": "Valpara\u00edso", "PROVINCIA": "Petorca", "COMUNA": "Zapallar", "variable": "Sitios de Inter\u00e9s Poblacional", "Nombres": "- (viewpoint)", "POINT_X": -71.4620729, "POINT_Y": -32.5484864991}}, {"type": "Feature", "geometry": {"type": "Point", "coordinates": [-71.462572, -32.54558559909996]}, "properties": {"CUT_REG": "05", "CUT_PROV": "054", "CUT_COM": "05405", "REGION": "Valpara\u00edso", "PROVINCIA": "Petorca", "COMUNA": "Zapallar", "variable": "Sitios de Inter\u00e9s Poblacional", "Nombres": "Hotel Isla Seca - (hotel)", "POINT_X": -71.462572, "POINT_Y": -32.5455855991}}, {"type": "Feature", "geometry": {"type": "Point", "coordinates": [-71.46641579999996, -32.54486869909997]}, "properties": {"CUT_REG": "05", "CUT_PROV": "054", "CUT_COM": "05405", "REGION": "Valpara\u00edso", "PROVINCIA": "Petorca", "COMUNA": "Zapallar", "variable": "Sitios de Inter\u00e9s Poblacional", "Nombres": "Isla seca - (viewpoint)", "POINT_X": -71.4664158, "POINT_Y": -32.5448686991}}, {"type": "Feature", "geometry": {"type": "Point", "coordinates": [-71.46319649999997, -32.54481799910004]}, "properties": {"CUT_REG": "05", "CUT_PROV": "054", "CUT_COM": "05405", "REGION": "Valpara\u00edso", "PROVINCIA": "Petorca", "COMUNA": "Zapallar", "variable": "Sitios de Inter\u00e9s Poblacional", "Nombres": "Hotel Isla Seca - (hotel)", "POINT_X": -71.4631965, "POINT_Y": -32.5448179991}}, {"type": "Feature", "geometry": {"type": "Point", "coordinates": [-71.2688086, -32.53333469909999]}, "properties": {"CUT_REG": "05", "CUT_PROV": "054", "CUT_COM": "05405", "REGION": "Valpara\u00edso", "PROVINCIA": "Petorca", "COMUNA": "Zapallar", "variable": "Sitios de Inter\u00e9s Poblacional", "Nombres": "La Foresta de Zapallar - (restaurant)", "POINT_X": -71.2688086, "POINT_Y": -32.5333346991}}, {"type": "Feature", "geometry": {"type": "Point", "coordinates": [-71.29623550000001, -32.53189439910001]}, "properties": {"CUT_REG": "05", "CUT_PROV": "054", "CUT_COM": "05405", "REGION": "Valpara\u00edso", "PROVINCIA": "Petorca", "COMUNA": "Zapallar", "variable": "Sitios de Inter\u00e9s Poblacional", "Nombres": "- (mini_roundabout)", "POINT_X": -71.2962355, "POINT_Y": -32.5318943991}}, {"type": "Feature", "geometry": {"type": "Point", "coordinates": [-71.28700869999997, -32.53089029909998]}, "properties": {"CUT_REG": "05", "CUT_PROV": "054", "CUT_COM": "05405", "REGION": "Valpara\u00edso", "PROVINCIA": "Petorca", "COMUNA": "Zapallar", "variable": "Sitios de Inter\u00e9s Poblacional", "Nombres": "- (mini_roundabout)", "POINT_X": -71.2870087, "POINT_Y": -32.5308902991}}, {"type": "Feature", "geometry": {"type": "Point", "coordinates": [-71.2999484, -32.53000219910004]}, "properties": {"CUT_REG": "05", "CUT_PROV": "054", "CUT_COM": "05405", "REGION": "Valpara\u00edso", "PROVINCIA": "Petorca", "COMUNA": "Zapallar", "variable": "Sitios de Inter\u00e9s Poblacional", "Nombres": "- (mini_roundabout)", "POINT_X": -71.2999484, "POINT_Y": -32.5300021991}}, {"type": "Feature", "geometry": {"type": "Point", "coordinates": [-71.446347, -32.5088192991]}, "properties": {"CUT_REG": "05", "CUT_PROV": "054", "CUT_COM": "05403", "REGION": "Valpara\u00edso", "PROVINCIA": "Petorca", "COMUNA": "Papudo", "variable": "Sitios de Inter\u00e9s Poblacional", "Nombres": "La Casa de Cesar - (restaurant)", "POINT_X": -71.446347, "POINT_Y": -32.5088192991}}, {"type": "Feature", "geometry": {"type": "Point", "coordinates": [-71.44647720000003, -32.50812019909998]}, "properties": {"CUT_REG": "05", "CUT_PROV": "054", "CUT_COM": "05403", "REGION": "Valpara\u00edso", "PROVINCIA": "Petorca", "COMUNA": "Papudo", "variable": "Sitios de Inter\u00e9s Poblacional", "Nombres": "Il Gabiano - (restaurant)", "POINT_X": -71.4464772, "POINT_Y": -32.5081201991}}, {"type": "Feature", "geometry": {"type": "Point", "coordinates": [-71.44487709999999, -32.50776969910002]}, "properties": {"CUT_REG": "05", "CUT_PROV": "054", "CUT_COM": "05403", "REGION": "Valpara\u00edso", "PROVINCIA": "Petorca", "COMUNA": "Papudo", "variable": "Sitios de Inter\u00e9s Poblacional", "Nombres": "Pollos Asados - (fast_food)", "POINT_X": -71.4448771, "POINT_Y": -32.5077696991}}, {"type": "Feature", "geometry": {"type": "Point", "coordinates": [-71.44705480000005, -32.507372799099954]}, "properties": {"CUT_REG": "05", "CUT_PROV": "054", "CUT_COM": "05403", "REGION": "Valpara\u00edso", "PROVINCIA": "Petorca", "COMUNA": "Papudo", "variable": "Sitios de Inter\u00e9s Poblacional", "Nombres": "Provipan - (convenience)", "POINT_X": -71.4470548, "POINT_Y": -32.5073727991}}, {"type": "Feature", "geometry": {"type": "Point", "coordinates": [-71.43913729999997, -32.50726079910001]}, "properties": {"CUT_REG": "05", "CUT_PROV": "054", "CUT_COM": "05403", "REGION": "Valpara\u00edso", "PROVINCIA": "Petorca", "COMUNA": "Papudo", "variable": "Sitios de Inter\u00e9s Poblacional", "Nombres": "Escuela Basica Papudo - (school)", "POINT_X": -71.4391373, "POINT_Y": -32.5072607991}}, {"type": "Feature", "geometry": {"type": "Point", "coordinates": [-71.44675410000002, -32.507209899099976]}, "properties": {"CUT_REG": "05", "CUT_PROV": "054", "CUT_COM": "05403", "REGION": "Valpara\u00edso", "PROVINCIA": "Petorca", "COMUNA": "Papudo", "variable": "Sitios de Inter\u00e9s Poblacional", "Nombres": "Minimarket Miraflores - (convenience)", "POINT_X": -71.4467541, "POINT_Y": -32.5072098991}}, {"type": "Feature", "geometry": {"type": "Point", "coordinates": [-71.44280050000002, -32.507163499100045]}, "properties": {"CUT_REG": "05", "CUT_PROV": "054", "CUT_COM": "05403", "REGION": "Valpara\u00edso", "PROVINCIA": "Petorca", "COMUNA": "Papudo", "variable": "Sitios de Inter\u00e9s Poblacional", "Nombres": "Ferreteria Gatonni - (doityourself)", "POINT_X": -71.4428005, "POINT_Y": -32.5071634991}}, {"type": "Feature", "geometry": {"type": "Point", "coordinates": [-71.44721939999998, -32.507143199099964]}, "properties": {"CUT_REG": "05", "CUT_PROV": "054", "CUT_COM": "05403", "REGION": "Valpara\u00edso", "PROVINCIA": "Petorca", "COMUNA": "Papudo", "variable": "Sitios de Inter\u00e9s Poblacional", "Nombres": "Carande - (restaurant)", "POINT_X": -71.4472194, "POINT_Y": -32.5071431991}}, {"type": "Feature", "geometry": {"type": "Point", "coordinates": [-71.4433155, -32.50710019909996]}, "properties": {"CUT_REG": "05", "CUT_PROV": "054", "CUT_COM": "05403", "REGION": "Valpara\u00edso", "PROVINCIA": "Petorca", "COMUNA": "Papudo", "variable": "Sitios de Inter\u00e9s Poblacional", "Nombres": "Almacen El Liguano - (convenience)", "POINT_X": -71.4433155, "POINT_Y": -32.5071001991}}, {"type": "Feature", "geometry": {"type": "Point", "coordinates": [-71.44259609999997, -32.5070910991]}, "properties": {"CUT_REG": "05", "CUT_PROV": "054", "CUT_COM": "05403", "REGION": "Valpara\u00edso", "PROVINCIA": "Petorca", "COMUNA": "Papudo", "variable": "Sitios de Inter\u00e9s Poblacional", "Nombres": "Residencial Papudo - (motel)", "POINT_X": -71.4425961, "POINT_Y": -32.5070910991}}, {"type": "Feature", "geometry": {"type": "Point", "coordinates": [-71.44241429999995, -32.50699159910003]}, "properties": {"CUT_REG": "05", "CUT_PROV": "054", "CUT_COM": "05403", "REGION": "Valpara\u00edso", "PROVINCIA": "Petorca", "COMUNA": "Papudo", "variable": "Sitios de Inter\u00e9s Poblacional", "Nombres": "Amasanderia El Trigal - (bakery)", "POINT_X": -71.4424143, "POINT_Y": -32.5069915991}}, {"type": "Feature", "geometry": {"type": "Point", "coordinates": [-71.44732889999997, -32.5069739991]}, "properties": {"CUT_REG": "05", "CUT_PROV": "054", "CUT_COM": "05403", "REGION": "Valpara\u00edso", "PROVINCIA": "Petorca", "COMUNA": "Papudo", "variable": "Sitios de Inter\u00e9s Poblacional", "Nombres": "Hotel Carande - (hotel)", "POINT_X": -71.4473289, "POINT_Y": -32.5069739991}}, {"type": "Feature", "geometry": {"type": "Point", "coordinates": [-71.44292930000002, -32.506901099100006]}, "properties": {"CUT_REG": "05", "CUT_PROV": "054", "CUT_COM": "05403", "REGION": "Valpara\u00edso", "PROVINCIA": "Petorca", "COMUNA": "Papudo", "variable": "Sitios de Inter\u00e9s Poblacional", "Nombres": "Burzalino Pizzeria - (fast_food)", "POINT_X": -71.4429293, "POINT_Y": -32.5069010991}}, {"type": "Feature", "geometry": {"type": "Point", "coordinates": [-71.4470029, -32.506898699099985]}, "properties": {"CUT_REG": "05", "CUT_PROV": "054", "CUT_COM": "05403", "REGION": "Valpara\u00edso", "PROVINCIA": "Petorca", "COMUNA": "Papudo", "variable": "Sitios de Inter\u00e9s Poblacional", "Nombres": "La Abeja - (restaurant)", "POINT_X": -71.4470029, "POINT_Y": -32.5068986991}}, {"type": "Feature", "geometry": {"type": "Point", "coordinates": [-71.44219969999996, -32.50686519909996]}, "properties": {"CUT_REG": "05", "CUT_PROV": "054", "CUT_COM": "05403", "REGION": "Valpara\u00edso", "PROVINCIA": "Petorca", "COMUNA": "Papudo", "variable": "Sitios de Inter\u00e9s Poblacional", "Nombres": "Don Rola - (restaurant)", "POINT_X": -71.4421997, "POINT_Y": -32.5068651991}}, {"type": "Feature", "geometry": {"type": "Point", "coordinates": [-71.44735029999998, -32.50685369909999]}, "properties": {"CUT_REG": "05", "CUT_PROV": "054", "CUT_COM": "05403", "REGION": "Valpara\u00edso", "PROVINCIA": "Petorca", "COMUNA": "Papudo", "variable": "Sitios de Inter\u00e9s Poblacional", "Nombres": "Florencia Limitada - (cafe)", "POINT_X": -71.4473503, "POINT_Y": -32.5068536991}}, {"type": "Feature", "geometry": {"type": "Point", "coordinates": [-71.44705509999997, -32.50675869910003]}, "properties": {"CUT_REG": "05", "CUT_PROV": "054", "CUT_COM": "05403", "REGION": "Valpara\u00edso", "PROVINCIA": "Petorca", "COMUNA": "Papudo", "variable": "Sitios de Inter\u00e9s Poblacional", "Nombres": "La Abeja - (hotel)", "POINT_X": -71.4470551, "POINT_Y": -32.5067586991}}, {"type": "Feature", "geometry": {"type": "Point", "coordinates": [-71.44261810000003, -32.50672919909999]}, "properties": {"CUT_REG": "05", "CUT_PROV": "054", "CUT_COM": "05403", "REGION": "Valpara\u00edso", "PROVINCIA": "Petorca", "COMUNA": "Papudo", "variable": "Sitios de Inter\u00e9s Poblacional", "Nombres": "Verduleria El Crucero - (greengrocer)", "POINT_X": -71.4426181, "POINT_Y": -32.5067291991}}, {"type": "Feature", "geometry": {"type": "Point", "coordinates": [-71.44957649999996, -32.50662749910001]}, "properties": {"CUT_REG": "05", "CUT_PROV": "054", "CUT_COM": "05403", "REGION": "Valpara\u00edso", "PROVINCIA": "Petorca", "COMUNA": "Papudo", "variable": "Sitios de Inter\u00e9s Poblacional", "Nombres": "Parroquia de Papudo - (place_of_worship)", "POINT_X": -71.4495765, "POINT_Y": -32.5066274991}}, {"type": "Feature", "geometry": {"type": "Point", "coordinates": [-71.44151299999999, -32.50662069909998]}, "properties": {"CUT_REG": "05", "CUT_PROV": "054", "CUT_COM": "05403", "REGION": "Valpara\u00edso", "PROVINCIA": "Petorca", "COMUNA": "Papudo", "variable": "Sitios de Inter\u00e9s Poblacional", "Nombres": "D\u00b4Peppino - (hotel)", "POINT_X": -71.441513, "POINT_Y": -32.5066206991}}, {"type": "Feature", "geometry": {"type": "Point", "coordinates": [-71.44165889999998, -32.506313099100026]}, "properties": {"CUT_REG": "05", "CUT_PROV": "054", "CUT_COM": "05403", "REGION": "Valpara\u00edso", "PROVINCIA": "Petorca", "COMUNA": "Papudo", "variable": "Sitios de Inter\u00e9s Poblacional", "Nombres": "Carabineros de Papudo - (police)", "POINT_X": -71.4416589, "POINT_Y": -32.5063130991}}, {"type": "Feature", "geometry": {"type": "Point", "coordinates": [-71.4445714, -32.50615129909996]}, "properties": {"CUT_REG": "05", "CUT_PROV": "054", "CUT_COM": "05403", "REGION": "Valpara\u00edso", "PROVINCIA": "Petorca", "COMUNA": "Papudo", "variable": "Sitios de Inter\u00e9s Poblacional", "Nombres": "Copec - (fuel)", "POINT_X": -71.4445714, "POINT_Y": -32.5061512991}}, {"type": "Feature", "geometry": {"type": "Point", "coordinates": [-71.44029639999995, -32.50599639910002]}, "properties": {"CUT_REG": "05", "CUT_PROV": "054", "CUT_COM": "05403", "REGION": "Valpara\u00edso", "PROVINCIA": "Petorca", "COMUNA": "Papudo", "variable": "Sitios de Inter\u00e9s Poblacional", "Nombres": "Bomberos de Papudo - (fire_station)", "POINT_X": -71.4402964, "POINT_Y": -32.5059963991}}, {"type": "Feature", "geometry": {"type": "Point", "coordinates": [-71.44966769999996, -32.50582669910001]}, "properties": {"CUT_REG": "05", "CUT_PROV": "054", "CUT_COM": "05403", "REGION": "Valpara\u00edso", "PROVINCIA": "Petorca", "COMUNA": "Papudo", "variable": "Sitios de Inter\u00e9s Poblacional", "Nombres": "Gran Azul - (restaurant)", "POINT_X": -71.4496677, "POINT_Y": -32.5058266991}}, {"type": "Feature", "geometry": {"type": "Point", "coordinates": [-71.44990910000004, -32.50570909909997]}, "properties": {"CUT_REG": "05", "CUT_PROV": "054", "CUT_COM": "05403", "REGION": "Valpara\u00edso", "PROVINCIA": "Petorca", "COMUNA": "Papudo", "variable": "Sitios de Inter\u00e9s Poblacional", "Nombres": "Caleta Papudo - (convenience)", "POINT_X": -71.4499091, "POINT_Y": -32.5057090991}}, {"type": "Feature", "geometry": {"type": "Point", "coordinates": [-71.4419372, -32.50568539909996]}, "properties": {"CUT_REG": "05", "CUT_PROV": "054", "CUT_COM": "05403", "REGION": "Valpara\u00edso", "PROVINCIA": "Petorca", "COMUNA": "Papudo", "variable": "Sitios de Inter\u00e9s Poblacional", "Nombres": "Caba\u00f1as Papudo - (motel)", "POINT_X": -71.4419372, "POINT_Y": -32.5056853991}}, {"type": "Feature", "geometry": {"type": "Point", "coordinates": [-71.44547939999998, -32.505179499100024]}, "properties": {"CUT_REG": "05", "CUT_PROV": "054", "CUT_COM": "05403", "REGION": "Valpara\u00edso", "PROVINCIA": "Petorca", "COMUNA": "Papudo", "variable": "Sitios de Inter\u00e9s Poblacional", "Nombres": "Barco Rojo - (restaurant)", "POINT_X": -71.4454794, "POINT_Y": -32.5051794991}}, {"type": "Feature", "geometry": {"type": "Point", "coordinates": [-71.44384869999998, -32.50491989910004]}, "properties": {"CUT_REG": "05", "CUT_PROV": "054", "CUT_COM": "05403", "REGION": "Valpara\u00edso", "PROVINCIA": "Petorca", "COMUNA": "Papudo", "variable": "Sitios de Inter\u00e9s Poblacional", "Nombres": "Donde Pablo Restoran - (restaurant)", "POINT_X": -71.4438487, "POINT_Y": -32.5049198991}}, {"type": "Feature", "geometry": {"type": "Point", "coordinates": [-71.24992849999998, -32.453114199099964]}, "properties": {"CUT_REG": "05", "CUT_PROV": "054", "CUT_COM": "05401", "REGION": "Valpara\u00edso", "PROVINCIA": "Petorca", "COMUNA": "La Ligua", "variable": "Sitios de Inter\u00e9s Poblacional", "Nombres": "Shell - (fuel)", "POINT_X": -71.2499285, "POINT_Y": -32.4531141991}}, {"type": "Feature", "geometry": {"type": "Point", "coordinates": [-71.24149500000003, -32.45277879910001]}, "properties": {"CUT_REG": "05", "CUT_PROV": "054", "CUT_COM": "05401", "REGION": "Valpara\u00edso", "PROVINCIA": "Petorca", "COMUNA": "La Ligua", "variable": "Sitios de Inter\u00e9s Poblacional", "Nombres": "Ferreteria Ferroexperto El Alto - (doityourself)", "POINT_X": -71.241495, "POINT_Y": -32.4527787991}}, {"type": "Feature", "geometry": {"type": "Point", "coordinates": [-71.24107659999996, -32.45267919910003]}, "properties": {"CUT_REG": "05", "CUT_PROV": "054", "CUT_COM": "05401", "REGION": "Valpara\u00edso", "PROVINCIA": "Petorca", "COMUNA": "La Ligua", "variable": "Sitios de Inter\u00e9s Poblacional", "Nombres": "Masisa - (doityourself)", "POINT_X": -71.2410766, "POINT_Y": -32.4526791991}}, {"type": "Feature", "geometry": {"type": "Point", "coordinates": [-71.2390494, -32.45221799909997]}, "properties": {"CUT_REG": "05", "CUT_PROV": "054", "CUT_COM": "05401", "REGION": "Valpara\u00edso", "PROVINCIA": "Petorca", "COMUNA": "La Ligua", "variable": "Sitios de Inter\u00e9s Poblacional", "Nombres": "Copec - (fuel)", "POINT_X": -71.2390494, "POINT_Y": -32.4522179991}}, {"type": "Feature", "geometry": {"type": "Point", "coordinates": [-71.23937129999999, -32.45179199909999]}, "properties": {"CUT_REG": "05", "CUT_PROV": "054", "CUT_COM": "05401", "REGION": "Valpara\u00edso", "PROVINCIA": "Petorca", "COMUNA": "La Ligua", "variable": "Sitios de Inter\u00e9s Poblacional", "Nombres": "Petrobras - (fuel)", "POINT_X": -71.2393713, "POINT_Y": -32.4517919991}}, {"type": "Feature", "geometry": {"type": "Point", "coordinates": [-71.23073909999994, -32.45091789909996]}, "properties": {"CUT_REG": "05", "CUT_PROV": "054", "CUT_COM": "05401", "REGION": "Valpara\u00edso", "PROVINCIA": "Petorca", "COMUNA": "La Ligua", "variable": "Sitios de Inter\u00e9s Poblacional", "Nombres": "Terminal de Buses La Ligua - (bus_station)", "POINT_X": -71.2307391, "POINT_Y": -32.4509178991}}, {"type": "Feature", "geometry": {"type": "Point", "coordinates": [-71.23136700000003, -32.449981099099986]}, "properties": {"CUT_REG": "05", "CUT_PROV": "054", "CUT_COM": "05401", "REGION": "Valpara\u00edso", "PROVINCIA": "Petorca", "COMUNA": "La Ligua", "variable": "Sitios de Inter\u00e9s Poblacional", "Nombres": "Minicipalidad de La Ligua - (townhall)", "POINT_X": -71.231367, "POINT_Y": -32.4499810991}}, {"type": "Feature", "geometry": {"type": "Point", "coordinates": [-71.23463719999998, -32.44997259909999]}, "properties": {"CUT_REG": "05", "CUT_PROV": "054", "CUT_COM": "05401", "REGION": "Valpara\u00edso", "PROVINCIA": "Petorca", "COMUNA": "La Ligua", "variable": "Sitios de Inter\u00e9s Poblacional", "Nombres": "La Buena China - (restaurant)", "POINT_X": -71.2346372, "POINT_Y": -32.4499725991}}, {"type": "Feature", "geometry": {"type": "Point", "coordinates": [-71.22408949999999, -32.449965799099964]}, "properties": {"CUT_REG": "05", "CUT_PROV": "054", "CUT_COM": "05401", "REGION": "Valpara\u00edso", "PROVINCIA": "Petorca", "COMUNA": "La Ligua", "variable": "Sitios de Inter\u00e9s Poblacional", "Nombres": "Maestro Pancho - (car_repair)", "POINT_X": -71.2240895, "POINT_Y": -32.4499657991}}, {"type": "Feature", "geometry": {"type": "Point", "coordinates": [-71.22895779999999, -32.44993709909999]}, "properties": {"CUT_REG": "05", "CUT_PROV": "054", "CUT_COM": "05401", "REGION": "Valpara\u00edso", "PROVINCIA": "Petorca", "COMUNA": "La Ligua", "variable": "Sitios de Inter\u00e9s Poblacional", "Nombres": "Bomberos de La Ligua - (fire_station)", "POINT_X": -71.2289578, "POINT_Y": -32.4499370991}}, {"type": "Feature", "geometry": {"type": "Point", "coordinates": [-71.22955119999997, -32.44987339909996]}, "properties": {"CUT_REG": "05", "CUT_PROV": "054", "CUT_COM": "05401", "REGION": "Valpara\u00edso", "PROVINCIA": "Petorca", "COMUNA": "La Ligua", "variable": "Sitios de Inter\u00e9s Poblacional", "Nombres": "Carabineros de la Ligua - (police)", "POINT_X": -71.2295512, "POINT_Y": -32.4498733991}}, {"type": "Feature", "geometry": {"type": "Point", "coordinates": [-71.23060260000003, -32.449574699100026]}, "properties": {"CUT_REG": "05", "CUT_PROV": "054", "CUT_COM": "05401", "REGION": "Valpara\u00edso", "PROVINCIA": "Petorca", "COMUNA": "La Ligua", "variable": "Sitios de Inter\u00e9s Poblacional", "Nombres": "Supermercado Maravilla - (supermarket)", "POINT_X": -71.2306026, "POINT_Y": -32.4495746991}}, {"type": "Feature", "geometry": {"type": "Point", "coordinates": [-71.23230529999995, -32.449084299100036]}, "properties": {"CUT_REG": "05", "CUT_PROV": "054", "CUT_COM": "05401", "REGION": "Valpara\u00edso", "PROVINCIA": "Petorca", "COMUNA": "La Ligua", "variable": "Sitios de Inter\u00e9s Poblacional", "Nombres": "Macalu - (restaurant)", "POINT_X": -71.2323053, "POINT_Y": -32.4490842991}}, {"type": "Feature", "geometry": {"type": "Point", "coordinates": [-71.23213919999998, -32.44905279910001]}, "properties": {"CUT_REG": "05", "CUT_PROV": "054", "CUT_COM": "05401", "REGION": "Valpara\u00edso", "PROVINCIA": "Petorca", "COMUNA": "La Ligua", "variable": "Sitios de Inter\u00e9s Poblacional", "Nombres": "Fuente de Soda Mana - (fast_food)", "POINT_X": -71.2321392, "POINT_Y": -32.4490527991}}, {"type": "Feature", "geometry": {"type": "Point", "coordinates": [-71.23262639999996, -32.4490451991]}, "properties": {"CUT_REG": "05", "CUT_PROV": "054", "CUT_COM": "05401", "REGION": "Valpara\u00edso", "PROVINCIA": "Petorca", "COMUNA": "La Ligua", "variable": "Sitios de Inter\u00e9s Poblacional", "Nombres": "Estacionamiento Plaza La Ligua - (parking)", "POINT_X": -71.2326264, "POINT_Y": -32.4490451991}}, {"type": "Feature", "geometry": {"type": "Point", "coordinates": [-71.23062109999995, -32.449043799099975]}, "properties": {"CUT_REG": "05", "CUT_PROV": "054", "CUT_COM": "05401", "REGION": "Valpara\u00edso", "PROVINCIA": "Petorca", "COMUNA": "La Ligua", "variable": "Sitios de Inter\u00e9s Poblacional", "Nombres": "ScotiaBank La Ligua - (bank)", "POINT_X": -71.2306211, "POINT_Y": -32.4490437991}}, {"type": "Feature", "geometry": {"type": "Point", "coordinates": [-71.23273919999997, -32.44880879909998]}, "properties": {"CUT_REG": "05", "CUT_PROV": "054", "CUT_COM": "05401", "REGION": "Valpara\u00edso", "PROVINCIA": "Petorca", "COMUNA": "La Ligua", "variable": "Sitios de Inter\u00e9s Poblacional", "Nombres": "Hotel Anchimallen - (hotel)", "POINT_X": -71.2327392, "POINT_Y": -32.4488087991}}, {"type": "Feature", "geometry": {"type": "Point", "coordinates": [-71.23209089999997, -32.44879029909996]}, "properties": {"CUT_REG": "05", "CUT_PROV": "054", "CUT_COM": "05401", "REGION": "Valpara\u00edso", "PROVINCIA": "Petorca", "COMUNA": "La Ligua", "variable": "Sitios de Inter\u00e9s Poblacional", "Nombres": "Farmacia del Dr. Sim - (pharmacy)", "POINT_X": -71.2320909, "POINT_Y": -32.4487902991}}, {"type": "Feature", "geometry": {"type": "Point", "coordinates": [-71.2308998, -32.448781199100004]}, "properties": {"CUT_REG": "05", "CUT_PROV": "054", "CUT_COM": "05401", "REGION": "Valpara\u00edso", "PROVINCIA": "Petorca", "COMUNA": "La Ligua", "variable": "Sitios de Inter\u00e9s Poblacional", "Nombres": "- (atm)", "POINT_X": -71.2308998, "POINT_Y": -32.4487811991}}, {"type": "Feature", "geometry": {"type": "Point", "coordinates": [-71.23161270000003, -32.4487725991]}, "properties": {"CUT_REG": "05", "CUT_PROV": "054", "CUT_COM": "05401", "REGION": "Valpara\u00edso", "PROVINCIA": "Petorca", "COMUNA": "La Ligua", "variable": "Sitios de Inter\u00e9s Poblacional", "Nombres": "Banco Estado - (atm)", "POINT_X": -71.2316127, "POINT_Y": -32.4487725991}}, {"type": "Feature", "geometry": {"type": "Point", "coordinates": [-71.23152690000003, -32.448768099099986]}, "properties": {"CUT_REG": "05", "CUT_PROV": "054", "CUT_COM": "05401", "REGION": "Valpara\u00edso", "PROVINCIA": "Petorca", "COMUNA": "La Ligua", "variable": "Sitios de Inter\u00e9s Poblacional", "Nombres": "Banco Estado La Ligua - (bank)", "POINT_X": -71.2315269, "POINT_Y": -32.4487680991}}, {"type": "Feature", "geometry": {"type": "Point", "coordinates": [-71.23089470000002, -32.44850959910001]}, "properties": {"CUT_REG": "05", "CUT_PROV": "054", "CUT_COM": "05401", "REGION": "Valpara\u00edso", "PROVINCIA": "Petorca", "COMUNA": "La Ligua", "variable": "Sitios de Inter\u00e9s Poblacional", "Nombres": "Ferreteria Tres Esquinas - (doityourself)", "POINT_X": -71.2308947, "POINT_Y": -32.4485095991}}, {"type": "Feature", "geometry": {"type": "Point", "coordinates": [-71.23112450000004, -32.448469299099955]}, "properties": {"CUT_REG": "05", "CUT_PROV": "054", "CUT_COM": "05401", "REGION": "Valpara\u00edso", "PROVINCIA": "Petorca", "COMUNA": "La Ligua", "variable": "Sitios de Inter\u00e9s Poblacional", "Nombres": "Farmacia Cruz Verde - (pharmacy)", "POINT_X": -71.2311245, "POINT_Y": -32.4484692991}}, {"type": "Feature", "geometry": {"type": "Point", "coordinates": [-71.23113070000002, -32.448337599099986]}, "properties": {"CUT_REG": "05", "CUT_PROV": "054", "CUT_COM": "05401", "REGION": "Valpara\u00edso", "PROVINCIA": "Petorca", "COMUNA": "La Ligua", "variable": "Sitios de Inter\u00e9s Poblacional", "Nombres": "Supermercado Illalolen - (supermarket)", "POINT_X": -71.2311307, "POINT_Y": -32.4483375991}}, {"type": "Feature", "geometry": {"type": "Point", "coordinates": [-71.23120580000001, -32.447934699100045]}, "properties": {"CUT_REG": "05", "CUT_PROV": "054", "CUT_COM": "05401", "REGION": "Valpara\u00edso", "PROVINCIA": "Petorca", "COMUNA": "La Ligua", "variable": "Sitios de Inter\u00e9s Poblacional", "Nombres": "Banco de Chile - (atm)", "POINT_X": -71.2312058, "POINT_Y": -32.4479346991}}, {"type": "Feature", "geometry": {"type": "Point", "coordinates": [-71.23109850000002, -32.44793019910003]}, "properties": {"CUT_REG": "05", "CUT_PROV": "054", "CUT_COM": "05401", "REGION": "Valpara\u00edso", "PROVINCIA": "Petorca", "COMUNA": "La Ligua", "variable": "Sitios de Inter\u00e9s Poblacional", "Nombres": "Banco de Chile - (bank)", "POINT_X": -71.2310985, "POINT_Y": -32.4479301991}}, {"type": "Feature", "geometry": {"type": "Point", "coordinates": [-71.23365399999999, -32.44692219910002]}, "properties": {"CUT_REG": "05", "CUT_PROV": "054", "CUT_COM": "05401", "REGION": "Valpara\u00edso", "PROVINCIA": "Petorca", "COMUNA": "La Ligua", "variable": "Sitios de Inter\u00e9s Poblacional", "Nombres": "Lider Express - (supermarket)", "POINT_X": -71.233654, "POINT_Y": -32.4469221991}}, {"type": "Feature", "geometry": {"type": "Point", "coordinates": [-71.2334223, -32.446900399099995]}, "properties": {"CUT_REG": "05", "CUT_PROV": "054", "CUT_COM": "05401", "REGION": "Valpara\u00edso", "PROVINCIA": "Petorca", "COMUNA": "La Ligua", "variable": "Sitios de Inter\u00e9s Poblacional", "Nombres": "Lider Express - (parking)", "POINT_X": -71.2334223, "POINT_Y": -32.4469003991}}, {"type": "Feature", "geometry": {"type": "Point", "coordinates": [-71.08484239999999, -32.438071099099986]}, "properties": {"CUT_REG": "05", "CUT_PROV": "054", "CUT_COM": "05402", "REGION": "Valpara\u00edso", "PROVINCIA": "Petorca", "COMUNA": "Cabildo", "variable": "Sitios de Inter\u00e9s Poblacional", "Nombres": "Copec - (fuel)", "POINT_X": -71.0848424, "POINT_Y": -32.4380710991}}, {"type": "Feature", "geometry": {"type": "Point", "coordinates": [-71.32448819999996, -32.43599409909999]}, "properties": {"CUT_REG": "05", "CUT_PROV": "054", "CUT_COM": "05403", "REGION": "Valpara\u00edso", "PROVINCIA": "Petorca", "COMUNA": "Papudo", "variable": "Sitios de Inter\u00e9s Poblacional", "Nombres": "Carabineros de Chile - (police)", "POINT_X": -71.3244882, "POINT_Y": -32.4359940991}}, {"type": "Feature", "geometry": {"type": "Point", "coordinates": [-71.06958449999999, -32.43355759910001]}, "properties": {"CUT_REG": "05", "CUT_PROV": "054", "CUT_COM": "05402", "REGION": "Valpara\u00edso", "PROVINCIA": "Petorca", "COMUNA": "Cabildo", "variable": "Sitios de Inter\u00e9s Poblacional", "Nombres": "Escuela Basica F-35 - (school)", "POINT_X": -71.0695845, "POINT_Y": -32.4335575991}}, {"type": "Feature", "geometry": {"type": "Point", "coordinates": [-71.0694772, -32.43310029910001]}, "properties": {"CUT_REG": "05", "CUT_PROV": "054", "CUT_COM": "05402", "REGION": "Valpara\u00edso", "PROVINCIA": "Petorca", "COMUNA": "Cabildo", "variable": "Sitios de Inter\u00e9s Poblacional", "Nombres": "Jardin Infantil Cari\u00f1ositos - (kindergarten)", "POINT_X": -71.0694772, "POINT_Y": -32.4331002991}}, {"type": "Feature", "geometry": {"type": "Point", "coordinates": [-71.0694397, -32.43271999909999]}, "properties": {"CUT_REG": "05", "CUT_PROV": "054", "CUT_COM": "05402", "REGION": "Valpara\u00edso", "PROVINCIA": "Petorca", "COMUNA": "Cabildo", "variable": "Sitios de Inter\u00e9s Poblacional", "Nombres": "Del Mar - (supermarket)", "POINT_X": -71.0694397, "POINT_Y": -32.4327199991}}, {"type": "Feature", "geometry": {"type": "Point", "coordinates": [-71.07458859999997, -32.43051019910003]}, "properties": {"CUT_REG": "05", "CUT_PROV": "054", "CUT_COM": "05402", "REGION": "Valpara\u00edso", "PROVINCIA": "Petorca", "COMUNA": "Cabildo", "variable": "Sitios de Inter\u00e9s Poblacional", "Nombres": "Copec - (fuel)", "POINT_X": -71.0745886, "POINT_Y": -32.4305101991}}, {"type": "Feature", "geometry": {"type": "Point", "coordinates": [-71.0689662, -32.42712759910001]}, "properties": {"CUT_REG": "05", "CUT_PROV": "054", "CUT_COM": "05402", "REGION": "Valpara\u00edso", "PROVINCIA": "Petorca", "COMUNA": "Cabildo", "variable": "Sitios de Inter\u00e9s Poblacional", "Nombres": "Bomberos Cabildo - (fire_station)", "POINT_X": -71.0689662, "POINT_Y": -32.4271275991}}, {"type": "Feature", "geometry": {"type": "Point", "coordinates": [-71.06723679999999, -32.42670349910001]}, "properties": {"CUT_REG": "05", "CUT_PROV": "054", "CUT_COM": "05402", "REGION": "Valpara\u00edso", "PROVINCIA": "Petorca", "COMUNA": "Cabildo", "variable": "Sitios de Inter\u00e9s Poblacional", "Nombres": "- (atm)", "POINT_X": -71.0672368, "POINT_Y": -32.4267034991}}, {"type": "Feature", "geometry": {"type": "Point", "coordinates": [-71.06562979999998, -32.42660439909998]}, "properties": {"CUT_REG": "05", "CUT_PROV": "054", "CUT_COM": "05402", "REGION": "Valpara\u00edso", "PROVINCIA": "Petorca", "COMUNA": "Cabildo", "variable": "Sitios de Inter\u00e9s Poblacional", "Nombres": "Pub Locatys - (bar)", "POINT_X": -71.0656298, "POINT_Y": -32.4266043991}}, {"type": "Feature", "geometry": {"type": "Point", "coordinates": [-71.06694710000001, -32.42656769909996]}, "properties": {"CUT_REG": "05", "CUT_PROV": "054", "CUT_COM": "05402", "REGION": "Valpara\u00edso", "PROVINCIA": "Petorca", "COMUNA": "Cabildo", "variable": "Sitios de Inter\u00e9s Poblacional", "Nombres": "Iglesia Cabildo - (place_of_worship)", "POINT_X": -71.0669471, "POINT_Y": -32.4265676991}}, {"type": "Feature", "geometry": {"type": "Point", "coordinates": [-71.06694620000002, -32.42622969909997]}, "properties": {"CUT_REG": "05", "CUT_PROV": "054", "CUT_COM": "05402", "REGION": "Valpara\u00edso", "PROVINCIA": "Petorca", "COMUNA": "Cabildo", "variable": "Sitios de Inter\u00e9s Poblacional", "Nombres": "- (atm)", "POINT_X": -71.0669462, "POINT_Y": -32.4262296991}}, {"type": "Feature", "geometry": {"type": "Point", "coordinates": [-71.06586359999997, -32.42612399910002]}, "properties": {"CUT_REG": "05", "CUT_PROV": "054", "CUT_COM": "05402", "REGION": "Valpara\u00edso", "PROVINCIA": "Petorca", "COMUNA": "Cabildo", "variable": "Sitios de Inter\u00e9s Poblacional", "Nombres": "- (supermarket)", "POINT_X": -71.0658636, "POINT_Y": -32.4261239991}}, {"type": "Feature", "geometry": {"type": "Point", "coordinates": [-71.06538079999999, -32.425820599099964]}, "properties": {"CUT_REG": "05", "CUT_PROV": "054", "CUT_COM": "05402", "REGION": "Valpara\u00edso", "PROVINCIA": "Petorca", "COMUNA": "Cabildo", "variable": "Sitios de Inter\u00e9s Poblacional", "Nombres": "Correos de Chiles - (post_office)", "POINT_X": -71.0653808, "POINT_Y": -32.4258205991}}, {"type": "Feature", "geometry": {"type": "Point", "coordinates": [-71.06497559999995, -32.42556089909997]}, "properties": {"CUT_REG": "05", "CUT_PROV": "054", "CUT_COM": "05402", "REGION": "Valpara\u00edso", "PROVINCIA": "Petorca", "COMUNA": "Cabildo", "variable": "Sitios de Inter\u00e9s Poblacional", "Nombres": "Municipalidad de Cabildo - (townhall)", "POINT_X": -71.0649756, "POINT_Y": -32.4255608991}}, {"type": "Feature", "geometry": {"type": "Point", "coordinates": [-71.06483050000003, -32.42547489909996]}, "properties": {"CUT_REG": "05", "CUT_PROV": "054", "CUT_COM": "05402", "REGION": "Valpara\u00edso", "PROVINCIA": "Petorca", "COMUNA": "Cabildo", "variable": "Sitios de Inter\u00e9s Poblacional", "Nombres": "Carabineros de Cabildo - (police)", "POINT_X": -71.0648305, "POINT_Y": -32.4254748991}}, {"type": "Feature", "geometry": {"type": "Point", "coordinates": [-71.06582509999998, -32.42458779910001]}, "properties": {"CUT_REG": "05", "CUT_PROV": "054", "CUT_COM": "05402", "REGION": "Valpara\u00edso", "PROVINCIA": "Petorca", "COMUNA": "Cabildo", "variable": "Sitios de Inter\u00e9s Poblacional", "Nombres": "Comisaria Cabildo - (police)", "POINT_X": -71.0658251, "POINT_Y": -32.4245877991}}, {"type": "Feature", "geometry": {"type": "Point", "coordinates": [-70.78574749999999, -32.34905249910004]}, "properties": {"CUT_REG": "05", "CUT_PROV": "054", "CUT_COM": "05402", "REGION": "Valpara\u00edso", "PROVINCIA": "Petorca", "COMUNA": "Cabildo", "variable": "Sitios de Inter\u00e9s Poblacional", "Nombres": "Carabineros Alicahue - (police)", "POINT_X": -70.7857475, "POINT_Y": -32.3490524991}}, {"type": "Feature", "geometry": {"type": "Point", "coordinates": [-71.46138950000002, -32.34477409909998]}, "properties": {"CUT_REG": "05", "CUT_PROV": "054", "CUT_COM": "05401", "REGION": "Valpara\u00edso", "PROVINCIA": "Petorca", "COMUNA": "La Ligua", "variable": "Sitios de Inter\u00e9s Poblacional", "Nombres": "Posta de Salud Rural Pichicuy - (hospital)", "POINT_X": -71.4613895, "POINT_Y": -32.3447740991}}, {"type": "Feature", "geometry": {"type": "Point", "coordinates": [-71.46533770000002, -32.298872999099956]}, "properties": {"CUT_REG": "05", "CUT_PROV": "054", "CUT_COM": "05401", "REGION": "Valpara\u00edso", "PROVINCIA": "Petorca", "COMUNA": "La Ligua", "variable": "Sitios de Inter\u00e9s Poblacional", "Nombres": "ALmacen - (convenience)", "POINT_X": -71.4653377, "POINT_Y": -32.2988729991}}, {"type": "Feature", "geometry": {"type": "Point", "coordinates": [-70.94523910000001, -32.25564509909996]}, "properties": {"CUT_REG": "05", "CUT_PROV": "054", "CUT_COM": "05404", "REGION": "Valpara\u00edso", "PROVINCIA": "Petorca", "COMUNA": "Petorca", "variable": "Sitios de Inter\u00e9s Poblacional", "Nombres": "- (hotel)", "POINT_X": -70.9452391, "POINT_Y": -32.2556450991}}, {"type": "Feature", "geometry": {"type": "Point", "coordinates": [-70.94494940000001, -32.25437489910002]}, "properties": {"CUT_REG": "05", "CUT_PROV": "054", "CUT_COM": "05404", "REGION": "Valpara\u00edso", "PROVINCIA": "Petorca", "COMUNA": "Petorca", "variable": "Sitios de Inter\u00e9s Poblacional", "Nombres": "- (bus_stop)", "POINT_X": -70.9449494, "POINT_Y": -32.2543748991}}, {"type": "Feature", "geometry": {"type": "Point", "coordinates": [-70.93823310000005, -32.252560199099975]}, "properties": {"CUT_REG": "05", "CUT_PROV": "054", "CUT_COM": "05404", "REGION": "Valpara\u00edso", "PROVINCIA": "Petorca", "COMUNA": "Petorca", "variable": "Sitios de Inter\u00e9s Poblacional", "Nombres": "- (convenience)", "POINT_X": -70.9382331, "POINT_Y": -32.2525601991}}, {"type": "Feature", "geometry": {"type": "Point", "coordinates": [-70.93408109999996, -32.25237879909998]}, "properties": {"CUT_REG": "05", "CUT_PROV": "054", "CUT_COM": "05404", "REGION": "Valpara\u00edso", "PROVINCIA": "Petorca", "COMUNA": "Petorca", "variable": "Sitios de Inter\u00e9s Poblacional", "Nombres": "- (pub)", "POINT_X": -70.9340811, "POINT_Y": -32.2523787991}}, {"type": "Feature", "geometry": {"type": "Point", "coordinates": [-70.93479990000002, -32.252342499099996]}, "properties": {"CUT_REG": "05", "CUT_PROV": "054", "CUT_COM": "05404", "REGION": "Valpara\u00edso", "PROVINCIA": "Petorca", "COMUNA": "Petorca", "variable": "Sitios de Inter\u00e9s Poblacional", "Nombres": "- (pharmacy)", "POINT_X": -70.9347999, "POINT_Y": -32.2523424991}}, {"type": "Feature", "geometry": {"type": "Point", "coordinates": [-70.93073370000002, -32.25211559909996]}, "properties": {"CUT_REG": "05", "CUT_PROV": "054", "CUT_COM": "05404", "REGION": "Valpara\u00edso", "PROVINCIA": "Petorca", "COMUNA": "Petorca", "variable": "Sitios de Inter\u00e9s Poblacional", "Nombres": "- (school)", "POINT_X": -70.9307337, "POINT_Y": -32.2521155991}}, {"type": "Feature", "geometry": {"type": "Point", "coordinates": [-70.93413469999996, -32.25210659910002]}, "properties": {"CUT_REG": "05", "CUT_PROV": "054", "CUT_COM": "05404", "REGION": "Valpara\u00edso", "PROVINCIA": "Petorca", "COMUNA": "Petorca", "variable": "Sitios de Inter\u00e9s Poblacional", "Nombres": "- (pub)", "POINT_X": -70.9341347, "POINT_Y": -32.2521065991}}, {"type": "Feature", "geometry": {"type": "Point", "coordinates": [-70.93395229999996, -32.252052099100034]}, "properties": {"CUT_REG": "05", "CUT_PROV": "054", "CUT_COM": "05404", "REGION": "Valpara\u00edso", "PROVINCIA": "Petorca", "COMUNA": "Petorca", "variable": "Sitios de Inter\u00e9s Poblacional", "Nombres": "- (restaurant)", "POINT_X": -70.9339523, "POINT_Y": -32.2520520991}}, {"type": "Feature", "geometry": {"type": "Point", "coordinates": [-70.93144179999999, -32.25203399909996]}, "properties": {"CUT_REG": "05", "CUT_PROV": "054", "CUT_COM": "05404", "REGION": "Valpara\u00edso", "PROVINCIA": "Petorca", "COMUNA": "Petorca", "variable": "Sitios de Inter\u00e9s Poblacional", "Nombres": "- (place_of_worship)", "POINT_X": -70.9314418, "POINT_Y": -32.2520339991}}, {"type": "Feature", "geometry": {"type": "Point", "coordinates": [-70.92942479999999, -32.251752699100045]}, "properties": {"CUT_REG": "05", "CUT_PROV": "054", "CUT_COM": "05404", "REGION": "Valpara\u00edso", "PROVINCIA": "Petorca", "COMUNA": "Petorca", "variable": "Sitios de Inter\u00e9s Poblacional", "Nombres": "- (pharmacy)", "POINT_X": -70.9294248, "POINT_Y": -32.2517526991}}, {"type": "Feature", "geometry": {"type": "Point", "coordinates": [-70.93234300000003, -32.2517435991]}, "properties": {"CUT_REG": "05", "CUT_PROV": "054", "CUT_COM": "05404", "REGION": "Valpara\u00edso", "PROVINCIA": "Petorca", "COMUNA": "Petorca", "variable": "Sitios de Inter\u00e9s Poblacional", "Nombres": "- (supermarket)", "POINT_X": -70.932343, "POINT_Y": -32.2517435991}}, {"type": "Feature", "geometry": {"type": "Point", "coordinates": [-70.93166709999997, -32.251698299099985]}, "properties": {"CUT_REG": "05", "CUT_PROV": "054", "CUT_COM": "05404", "REGION": "Valpara\u00edso", "PROVINCIA": "Petorca", "COMUNA": "Petorca", "variable": "Sitios de Inter\u00e9s Poblacional", "Nombres": "- (restaurant)", "POINT_X": -70.9316671, "POINT_Y": -32.2516982991}}, {"type": "Feature", "geometry": {"type": "Point", "coordinates": [-70.928899, -32.251670999100035]}, "properties": {"CUT_REG": "05", "CUT_PROV": "054", "CUT_COM": "05404", "REGION": "Valpara\u00edso", "PROVINCIA": "Petorca", "COMUNA": "Petorca", "variable": "Sitios de Inter\u00e9s Poblacional", "Nombres": "- (hospital)", "POINT_X": -70.928899, "POINT_Y": -32.2516709991}}, {"type": "Feature", "geometry": {"type": "Point", "coordinates": [-70.92952129999998, -32.251516799099974]}, "properties": {"CUT_REG": "05", "CUT_PROV": "054", "CUT_COM": "05404", "REGION": "Valpara\u00edso", "PROVINCIA": "Petorca", "COMUNA": "Petorca", "variable": "Sitios de Inter\u00e9s Poblacional", "Nombres": "- (fire_station)", "POINT_X": -70.9295213, "POINT_Y": -32.2515167991}}, {"type": "Feature", "geometry": {"type": "Point", "coordinates": [-70.92814799999995, -32.25144419910001]}, "properties": {"CUT_REG": "05", "CUT_PROV": "054", "CUT_COM": "05404", "REGION": "Valpara\u00edso", "PROVINCIA": "Petorca", "COMUNA": "Petorca", "variable": "Sitios de Inter\u00e9s Poblacional", "Nombres": "- (bar)", "POINT_X": -70.928148, "POINT_Y": -32.2514441991}}, {"type": "Feature", "geometry": {"type": "Point", "coordinates": [-70.93035820000003, -32.25139879909998]}, "properties": {"CUT_REG": "05", "CUT_PROV": "054", "CUT_COM": "05404", "REGION": "Valpara\u00edso", "PROVINCIA": "Petorca", "COMUNA": "Petorca", "variable": "Sitios de Inter\u00e9s Poblacional", "Nombres": "- (school)", "POINT_X": -70.9303582, "POINT_Y": -32.2513987991}}, {"type": "Feature", "geometry": {"type": "Point", "coordinates": [-70.92898490000002, -32.25139879909998]}, "properties": {"CUT_REG": "05", "CUT_PROV": "054", "CUT_COM": "05404", "REGION": "Valpara\u00edso", "PROVINCIA": "Petorca", "COMUNA": "Petorca", "variable": "Sitios de Inter\u00e9s Poblacional", "Nombres": "- (museum)", "POINT_X": -70.9289849, "POINT_Y": -32.2513987991}}, {"type": "Feature", "geometry": {"type": "Point", "coordinates": [-70.9312916, -32.25138979910004]}, "properties": {"CUT_REG": "05", "CUT_PROV": "054", "CUT_COM": "05404", "REGION": "Valpara\u00edso", "PROVINCIA": "Petorca", "COMUNA": "Petorca", "variable": "Sitios de Inter\u00e9s Poblacional", "Nombres": "- (taxi)", "POINT_X": -70.9312916, "POINT_Y": -32.2513897991}}, {"type": "Feature", "geometry": {"type": "Point", "coordinates": [-70.93204259999996, -32.251371599099954]}, "properties": {"CUT_REG": "05", "CUT_PROV": "054", "CUT_COM": "05404", "REGION": "Valpara\u00edso", "PROVINCIA": "Petorca", "COMUNA": "Petorca", "variable": "Sitios de Inter\u00e9s Poblacional", "Nombres": "- (supermarket)", "POINT_X": -70.9320426, "POINT_Y": -32.2513715991}}, {"type": "Feature", "geometry": {"type": "Point", "coordinates": [-70.93183869999996, -32.25130809910003]}, "properties": {"CUT_REG": "05", "CUT_PROV": "054", "CUT_COM": "05404", "REGION": "Valpara\u00edso", "PROVINCIA": "Petorca", "COMUNA": "Petorca", "variable": "Sitios de Inter\u00e9s Poblacional", "Nombres": "- (supermarket)", "POINT_X": -70.9318387, "POINT_Y": -32.2513080991}}, {"type": "Feature", "geometry": {"type": "Point", "coordinates": [-70.93155979999997, -32.25122639910002]}, "properties": {"CUT_REG": "05", "CUT_PROV": "054", "CUT_COM": "05404", "REGION": "Valpara\u00edso", "PROVINCIA": "Petorca", "COMUNA": "Petorca", "variable": "Sitios de Inter\u00e9s Poblacional", "Nombres": "- (school)", "POINT_X": -70.9315598, "POINT_Y": -32.2512263991}}, {"type": "Feature", "geometry": {"type": "Point", "coordinates": [-70.9312165, -32.251090299100035]}, "properties": {"CUT_REG": "05", "CUT_PROV": "054", "CUT_COM": "05404", "REGION": "Valpara\u00edso", "PROVINCIA": "Petorca", "COMUNA": "Petorca", "variable": "Sitios de Inter\u00e9s Poblacional", "Nombres": "- (bus_stop)", "POINT_X": -70.9312165, "POINT_Y": -32.2510902991}}, {"type": "Feature", "geometry": {"type": "Point", "coordinates": [-70.9308517, -32.250945099100015]}, "properties": {"CUT_REG": "05", "CUT_PROV": "054", "CUT_COM": "05404", "REGION": "Valpara\u00edso", "PROVINCIA": "Petorca", "COMUNA": "Petorca", "variable": "Sitios de Inter\u00e9s Poblacional", "Nombres": "- (police)", "POINT_X": -70.9308517, "POINT_Y": -32.2509450991}}, {"type": "Feature", "geometry": {"type": "Point", "coordinates": [-70.92580909999997, -32.24932999909996]}, "properties": {"CUT_REG": "05", "CUT_PROV": "054", "CUT_COM": "05404", "REGION": "Valpara\u00edso", "PROVINCIA": "Petorca", "COMUNA": "Petorca", "variable": "Sitios de Inter\u00e9s Poblacional", "Nombres": "- (convenience)", "POINT_X": -70.9258091, "POINT_Y": -32.2493299991}}, {"type": "Feature", "geometry": {"type": "Point", "coordinates": [-70.92544439999999, -32.24842269910003]}, "properties": {"CUT_REG": "05", "CUT_PROV": "054", "CUT_COM": "05404", "REGION": "Valpara\u00edso", "PROVINCIA": "Petorca", "COMUNA": "Petorca", "variable": "Sitios de Inter\u00e9s Poblacional", "Nombres": "- (convenience)", "POINT_X": -70.9254444, "POINT_Y": -32.2484226991}}, {"type": "Feature", "geometry": {"type": "Point", "coordinates": [-71.51599659999998, -32.242934399099966]}, "properties": {"CUT_REG": "05", "CUT_PROV": "054", "CUT_COM": "05401", "REGION": "Valpara\u00edso", "PROVINCIA": "Petorca", "COMUNA": "La Ligua", "variable": "Sitios de Inter\u00e9s Poblacional", "Nombres": "Parroquia Los Molles - (place_of_worship)", "POINT_X": -71.5159966, "POINT_Y": -32.2429343991}}, {"type": "Feature", "geometry": {"type": "Point", "coordinates": [-71.51490899999996, -32.24170769909998]}, "properties": {"CUT_REG": "05", "CUT_PROV": "054", "CUT_COM": "05401", "REGION": "Valpara\u00edso", "PROVINCIA": "Petorca", "COMUNA": "La Ligua", "variable": "Sitios de Inter\u00e9s Poblacional", "Nombres": "Mirador del viento - (attraction)", "POINT_X": -71.514909, "POINT_Y": -32.2417076991}}, {"type": "Feature", "geometry": {"type": "Point", "coordinates": [-71.51783219999999, -32.239065799099976]}, "properties": {"CUT_REG": "05", "CUT_PROV": "054", "CUT_COM": "05401", "REGION": "Valpara\u00edso", "PROVINCIA": "Petorca", "COMUNA": "La Ligua", "variable": "Sitios de Inter\u00e9s Poblacional", "Nombres": "Entrada al Puqu\u00e9n - (information)", "POINT_X": -71.5178322, "POINT_Y": -32.2390657991}}, {"type": "Feature", "geometry": {"type": "Point", "coordinates": [-71.51182419999999, -32.23732429910003]}, "properties": {"CUT_REG": "05", "CUT_PROV": "054", "CUT_COM": "05401", "REGION": "Valpara\u00edso", "PROVINCIA": "Petorca", "COMUNA": "La Ligua", "variable": "Sitios de Inter\u00e9s Poblacional", "Nombres": "Playa Los Molles - (viewpoint)", "POINT_X": -71.5118242, "POINT_Y": -32.2373242991}}, {"type": "Feature", "geometry": {"type": "Point", "coordinates": [-71.50135200000003, -32.23677269909996]}, "properties": {"CUT_REG": "05", "CUT_PROV": "054", "CUT_COM": "05401", "REGION": "Valpara\u00edso", "PROVINCIA": "Petorca", "COMUNA": "La Ligua", "variable": "Sitios de Inter\u00e9s Poblacional", "Nombres": "- (camp_site)", "POINT_X": -71.501352, "POINT_Y": -32.2367726991}}, {"type": "Feature", "geometry": {"type": "Point", "coordinates": [-71.52598609999998, -32.23612549909996]}, "properties": {"CUT_REG": "05", "CUT_PROV": "054", "CUT_COM": "05401", "REGION": "Valpara\u00edso", "PROVINCIA": "Petorca", "COMUNA": "La Ligua", "variable": "Sitios de Inter\u00e9s Poblacional", "Nombres": "Mirador - (viewpoint)", "POINT_X": -71.5259861, "POINT_Y": -32.2361254991}}, {"type": "Feature", "geometry": {"type": "Point", "coordinates": [-71.5264791, -32.234982499099985]}, "properties": {"CUT_REG": "05", "CUT_PROV": "054", "CUT_COM": "05401", "REGION": "Valpara\u00edso", "PROVINCIA": "Petorca", "COMUNA": "La Ligua", "variable": "Sitios de Inter\u00e9s Poblacional", "Nombres": "Puqu\u00e9n - (attraction)", "POINT_X": -71.5264791, "POINT_Y": -32.2349824991}}, {"type": "Feature", "geometry": {"type": "Point", "coordinates": [-71.50763290000003, -32.23249469910002]}, "properties": {"CUT_REG": "05", "CUT_PROV": "054", "CUT_COM": "05401", "REGION": "Valpara\u00edso", "PROVINCIA": "Petorca", "COMUNA": "La Ligua", "variable": "Sitios de Inter\u00e9s Poblacional", "Nombres": "Caba\u00f1as La Gloria - (motel)", "POINT_X": -71.5076329, "POINT_Y": -32.2324946991}}, {"type": "Feature", "geometry": {"type": "Point", "coordinates": [-71.50798219999999, -32.23195949909997]}, "properties": {"CUT_REG": "05", "CUT_PROV": "054", "CUT_COM": "05401", "REGION": "Valpara\u00edso", "PROVINCIA": "Petorca", "COMUNA": "La Ligua", "variable": "Sitios de Inter\u00e9s Poblacional", "Nombres": "La Ponderosa - (convenience)", "POINT_X": -71.5079822, "POINT_Y": -32.2319594991}}, {"type": "Feature", "geometry": {"type": "Point", "coordinates": [-71.50688650000001, -32.23167299909998]}, "properties": {"CUT_REG": "05", "CUT_PROV": "054", "CUT_COM": "05401", "REGION": "Valpara\u00edso", "PROVINCIA": "Petorca", "COMUNA": "La Ligua", "variable": "Sitios de Inter\u00e9s Poblacional", "Nombres": "Bomberos de Chile - (fire_station)", "POINT_X": -71.5068865, "POINT_Y": -32.2316729991}}, {"type": "Feature", "geometry": {"type": "Point", "coordinates": [-70.85563620000003, -32.23150019909998]}, "properties": {"CUT_REG": "05", "CUT_PROV": "054", "CUT_COM": "05404", "REGION": "Valpara\u00edso", "PROVINCIA": "Petorca", "COMUNA": "Petorca", "variable": "Sitios de Inter\u00e9s Poblacional", "Nombres": "Guisela Quiroz Gallardo - (place_of_worship)", "POINT_X": -70.8556362, "POINT_Y": -32.2315001991}}, {"type": "Feature", "geometry": {"type": "Point", "coordinates": [-71.50901269999997, -32.23147399910003]}, "properties": {"CUT_REG": "05", "CUT_PROV": "054", "CUT_COM": "05401", "REGION": "Valpara\u00edso", "PROVINCIA": "Petorca", "COMUNA": "La Ligua", "variable": "Sitios de Inter\u00e9s Poblacional", "Nombres": "Posta Los Molles - (hospital)", "POINT_X": -71.5090127, "POINT_Y": -32.2314739991}}, {"type": "Feature", "geometry": {"type": "Point", "coordinates": [-71.50701259999997, -32.2314370991]}, "properties": {"CUT_REG": "05", "CUT_PROV": "054", "CUT_COM": "05401", "REGION": "Valpara\u00edso", "PROVINCIA": "Petorca", "COMUNA": "La Ligua", "variable": "Sitios de Inter\u00e9s Poblacional", "Nombres": "Carabineros de Chile - (police)", "POINT_X": -71.5070126, "POINT_Y": -32.2314370991}}, {"type": "Feature", "geometry": {"type": "Point", "coordinates": [-70.80363800000002, -32.187586299099976]}, "properties": {"CUT_REG": "05", "CUT_PROV": "054", "CUT_COM": "05404", "REGION": "Valpara\u00edso", "PROVINCIA": "Petorca", "COMUNA": "Petorca", "variable": "Sitios de Inter\u00e9s Poblacional", "Nombres": "E.M.R Chalaco. - (hospital)", "POINT_X": -70.803638, "POINT_Y": -32.1875862991}}, {"type": "Feature", "geometry": {"type": "Point", "coordinates": [-70.81120040000002, -32.17962169910001]}, "properties": {"CUT_REG": "05", "CUT_PROV": "054", "CUT_COM": "05404", "REGION": "Valpara\u00edso", "PROVINCIA": "Petorca", "COMUNA": "Petorca", "variable": "Sitios de Inter\u00e9s Poblacional", "Nombres": "Escuela Calle Larga - (school)", "POINT_X": -70.8112004, "POINT_Y": -32.1796216991}}, {"type": "Feature", "geometry": {"type": "Point", "coordinates": [-70.81150349999996, -32.17955589909999]}, "properties": {"CUT_REG": "05", "CUT_PROV": "054", "CUT_COM": "05404", "REGION": "Valpara\u00edso", "PROVINCIA": "Petorca", "COMUNA": "Petorca", "variable": "Sitios de Inter\u00e9s Poblacional", "Nombres": "E.M.R Calle Larga - (hospital)", "POINT_X": -70.8115035, "POINT_Y": -32.1795558991}}, {"type": "Feature", "geometry": {"type": "Point", "coordinates": [-71.4946339, -32.162184899099955]}, "properties": {"CUT_REG": "05", "CUT_PROV": "054", "CUT_COM": "05401", "REGION": "Valpara\u00edso", "PROVINCIA": "Petorca", "COMUNA": "La Ligua", "variable": "Sitios de Inter\u00e9s Poblacional", "Nombres": "- (tower)", "POINT_X": -71.4946339, "POINT_Y": -32.1621848991}}, {"type": "Feature", "geometry": {"type": "Point", "coordinates": [-71.49459629999998, -32.162041899100025]}, "properties": {"CUT_REG": "05", "CUT_PROV": "054", "CUT_COM": "05401", "REGION": "Valpara\u00edso", "PROVINCIA": "Petorca", "COMUNA": "La Ligua", "variable": "Sitios de Inter\u00e9s Poblacional", "Nombres": "- (tower)", "POINT_X": -71.4945963, "POINT_Y": -32.1620418991}}, {"type": "Feature", "geometry": {"type": "Point", "coordinates": [-70.80022279999997, -32.092218899200006]}, "properties": {"CUT_REG": "05", "CUT_PROV": "054", "CUT_COM": "05404", "REGION": "Valpara\u00edso", "PROVINCIA": "Petorca", "COMUNA": "Petorca", "variable": "Sitios de Inter\u00e9s Poblacional", "Nombres": "Pederna - (school)", "POINT_X": -70.8002228, "POINT_Y": -32.0922188992}}]}