{"type": "FeatureCollection", "features": [{"type": "Feature", "geometry": {"type": "Point", "coordinates": [-71.05107239999997, -32.98117449909997]}, "properties": {"CUT_REG": "05", "CUT_PROV": "055", "CUT_COM": "05503", "REGION": "Valpara\u00edso", "PROVINCIA": "Quillota", "COMUNA": "Hijuelas", "variable": "Sitios de Inter\u00e9s Poblacional", "Nombres": "mina de cuarzo - (archaeological_s)", "POINT_X": -71.0510724, "POINT_Y": -32.9811744991}}, {"type": "Feature", "geometry": {"type": "Point", "coordinates": [-71.09564370000001, -32.97727989909996]}, "properties": {"CUT_REG": "05", "CUT_PROV": "055", "CUT_COM": "05503", "REGION": "Valpara\u00edso", "PROVINCIA": "Quillota", "COMUNA": "Hijuelas", "variable": "Sitios de Inter\u00e9s Poblacional", "Nombres": "Portezuelo Ocoa - (viewpoint)", "POINT_X": -71.0956437, "POINT_Y": -32.9772798991}}, {"type": "Feature", "geometry": {"type": "Point", "coordinates": [-71.05508760000001, -32.96110029910001]}, "properties": {"CUT_REG": "05", "CUT_PROV": "055", "CUT_COM": "05503", "REGION": "Valpara\u00edso", "PROVINCIA": "Quillota", "COMUNA": "Hijuelas", "variable": "Sitios de Inter\u00e9s Poblacional", "Nombres": "Salto de agua - (viewpoint)", "POINT_X": -71.0550876, "POINT_Y": -32.9611002991}}, {"type": "Feature", "geometry": {"type": "Point", "coordinates": [-71.12050639999995, -32.95396459909997]}, "properties": {"CUT_REG": "05", "CUT_PROV": "055", "CUT_COM": "05501", "REGION": "Valpara\u00edso", "PROVINCIA": "Quillota", "COMUNA": "Quillota", "variable": "Sitios de Inter\u00e9s Poblacional", "Nombres": "Cumbre Cerro La Campana - (viewpoint)", "POINT_X": -71.1205064, "POINT_Y": -32.9539645991}}, {"type": "Feature", "geometry": {"type": "Point", "coordinates": [-71.27799440000001, -32.93943879909998]}, "properties": {"CUT_REG": "05", "CUT_PROV": "055", "CUT_COM": "05501", "REGION": "Valpara\u00edso", "PROVINCIA": "Quillota", "COMUNA": "Quillota", "variable": "Sitios de Inter\u00e9s Poblacional", "Nombres": "- (level_crossing)", "POINT_X": -71.2779944, "POINT_Y": -32.9394387991}}, {"type": "Feature", "geometry": {"type": "Point", "coordinates": [-71.27785930000003, -32.939397799099964]}, "properties": {"CUT_REG": "05", "CUT_PROV": "055", "CUT_COM": "05501", "REGION": "Valpara\u00edso", "PROVINCIA": "Quillota", "COMUNA": "Quillota", "variable": "Sitios de Inter\u00e9s Poblacional", "Nombres": "- (level_crossing)", "POINT_X": -71.2778593, "POINT_Y": -32.9393977991}}, {"type": "Feature", "geometry": {"type": "Point", "coordinates": [-71.28696830000001, -32.939142699099996]}, "properties": {"CUT_REG": "05", "CUT_PROV": "055", "CUT_COM": "05501", "REGION": "Valpara\u00edso", "PROVINCIA": "Quillota", "COMUNA": "Quillota", "variable": "Sitios de Inter\u00e9s Poblacional", "Nombres": "- (level_crossing)", "POINT_X": -71.2869683, "POINT_Y": -32.9391426991}}, {"type": "Feature", "geometry": {"type": "Point", "coordinates": [-71.0858752, -32.93362689909996]}, "properties": {"CUT_REG": "05", "CUT_PROV": "055", "CUT_COM": "05503", "REGION": "Valpara\u00edso", "PROVINCIA": "Quillota", "COMUNA": "Hijuelas", "variable": "Sitios de Inter\u00e9s Poblacional", "Nombres": "Parque La Campana - (parking)", "POINT_X": -71.0858752, "POINT_Y": -32.9336268991}}, {"type": "Feature", "geometry": {"type": "Point", "coordinates": [-71.07760890000003, -32.932821199100005]}, "properties": {"CUT_REG": "05", "CUT_PROV": "055", "CUT_COM": "05503", "REGION": "Valpara\u00edso", "PROVINCIA": "Quillota", "COMUNA": "Hijuelas", "variable": "Sitios de Inter\u00e9s Poblacional", "Nombres": "Parque La Campana - (camp_site)", "POINT_X": -71.0776089, "POINT_Y": -32.9328211991}}, {"type": "Feature", "geometry": {"type": "Point", "coordinates": [-71.08510160000003, -32.92743109909998]}, "properties": {"CUT_REG": "05", "CUT_PROV": "055", "CUT_COM": "05503", "REGION": "Valpara\u00edso", "PROVINCIA": "Quillota", "COMUNA": "Hijuelas", "variable": "Sitios de Inter\u00e9s Poblacional", "Nombres": "- (toilets)", "POINT_X": -71.0851016, "POINT_Y": -32.9274310991}}, {"type": "Feature", "geometry": {"type": "Point", "coordinates": [-71.08546899999996, -32.92726449909996]}, "properties": {"CUT_REG": "05", "CUT_PROV": "055", "CUT_COM": "05503", "REGION": "Valpara\u00edso", "PROVINCIA": "Quillota", "COMUNA": "Hijuelas", "variable": "Sitios de Inter\u00e9s Poblacional", "Nombres": "entrada parque la campana - (information)", "POINT_X": -71.085469, "POINT_Y": -32.9272644991}}, {"type": "Feature", "geometry": {"type": "Point", "coordinates": [-71.09413529999999, -32.90973829909996]}, "properties": {"CUT_REG": "05", "CUT_PROV": "055", "CUT_COM": "05503", "REGION": "Valpara\u00edso", "PROVINCIA": "Quillota", "COMUNA": "Hijuelas", "variable": "Sitios de Inter\u00e9s Poblacional", "Nombres": "Parque La Campana - (viewpoint)", "POINT_X": -71.0941353, "POINT_Y": -32.9097382991}}, {"type": "Feature", "geometry": {"type": "Point", "coordinates": [-71.24672170000002, -32.90015259909998]}, "properties": {"CUT_REG": "05", "CUT_PROV": "055", "CUT_COM": "05501", "REGION": "Valpara\u00edso", "PROVINCIA": "Quillota", "COMUNA": "Quillota", "variable": "Sitios de Inter\u00e9s Poblacional", "Nombres": "Caba\u00f1as La Rotonda - (motel)", "POINT_X": -71.2467217, "POINT_Y": -32.9001525991}}, {"type": "Feature", "geometry": {"type": "Point", "coordinates": [-71.26532409999999, -32.8964708991]}, "properties": {"CUT_REG": "05", "CUT_PROV": "055", "CUT_COM": "05501", "REGION": "Valpara\u00edso", "PROVINCIA": "Quillota", "COMUNA": "Quillota", "variable": "Sitios de Inter\u00e9s Poblacional", "Nombres": "- (parking)", "POINT_X": -71.2653241, "POINT_Y": -32.8964708991}}, {"type": "Feature", "geometry": {"type": "Point", "coordinates": [-71.26377350000004, -32.896362999099956]}, "properties": {"CUT_REG": "05", "CUT_PROV": "055", "CUT_COM": "05501", "REGION": "Valpara\u00edso", "PROVINCIA": "Quillota", "COMUNA": "Quillota", "variable": "Sitios de Inter\u00e9s Poblacional", "Nombres": "- (parking)", "POINT_X": -71.2637735, "POINT_Y": -32.8963629991}}, {"type": "Feature", "geometry": {"type": "Point", "coordinates": [-71.25619189999996, -32.895797699099994]}, "properties": {"CUT_REG": "05", "CUT_PROV": "055", "CUT_COM": "05501", "REGION": "Valpara\u00edso", "PROVINCIA": "Quillota", "COMUNA": "Quillota", "variable": "Sitios de Inter\u00e9s Poblacional", "Nombres": "El Corralero - (restaurant)", "POINT_X": -71.2561919, "POINT_Y": -32.8957976991}}, {"type": "Feature", "geometry": {"type": "Point", "coordinates": [-71.253424, -32.89487199909996]}, "properties": {"CUT_REG": "05", "CUT_PROV": "055", "CUT_COM": "05501", "REGION": "Valpara\u00edso", "PROVINCIA": "Quillota", "COMUNA": "Quillota", "variable": "Sitios de Inter\u00e9s Poblacional", "Nombres": "COPEC - (fuel)", "POINT_X": -71.253424, "POINT_Y": -32.8948719991}}, {"type": "Feature", "geometry": {"type": "Point", "coordinates": [-71.24854300000001, -32.89301939909998]}, "properties": {"CUT_REG": "05", "CUT_PROV": "055", "CUT_COM": "05501", "REGION": "Valpara\u00edso", "PROVINCIA": "Quillota", "COMUNA": "Quillota", "variable": "Sitios de Inter\u00e9s Poblacional", "Nombres": "Minimarket San Pedro - (convenience)", "POINT_X": -71.248543, "POINT_Y": -32.8930193991}}, {"type": "Feature", "geometry": {"type": "Point", "coordinates": [-71.24360389999998, -32.888702799100045]}, "properties": {"CUT_REG": "05", "CUT_PROV": "055", "CUT_COM": "05501", "REGION": "Valpara\u00edso", "PROVINCIA": "Quillota", "COMUNA": "Quillota", "variable": "Sitios de Inter\u00e9s Poblacional", "Nombres": "Radio Taxis JM - (taxi)", "POINT_X": -71.2436039, "POINT_Y": -32.8887027991}}, {"type": "Feature", "geometry": {"type": "Point", "coordinates": [-71.2447903, -32.88768109909997]}, "properties": {"CUT_REG": "05", "CUT_PROV": "055", "CUT_COM": "05501", "REGION": "Valpara\u00edso", "PROVINCIA": "Quillota", "COMUNA": "Quillota", "variable": "Sitios de Inter\u00e9s Poblacional", "Nombres": "- (place_of_worship)", "POINT_X": -71.2447903, "POINT_Y": -32.8876810991}}, {"type": "Feature", "geometry": {"type": "Point", "coordinates": [-71.2423266, -32.887462899100036]}, "properties": {"CUT_REG": "05", "CUT_PROV": "055", "CUT_COM": "05501", "REGION": "Valpara\u00edso", "PROVINCIA": "Quillota", "COMUNA": "Quillota", "variable": "Sitios de Inter\u00e9s Poblacional", "Nombres": "- (supermarket)", "POINT_X": -71.2423266, "POINT_Y": -32.8874628991}}, {"type": "Feature", "geometry": {"type": "Point", "coordinates": [-71.24731339999997, -32.88523639910002]}, "properties": {"CUT_REG": "05", "CUT_PROV": "055", "CUT_COM": "05501", "REGION": "Valpara\u00edso", "PROVINCIA": "Quillota", "COMUNA": "Quillota", "variable": "Sitios de Inter\u00e9s Poblacional", "Nombres": "Cuerpo de Bomberos Quillota - (fire_station)", "POINT_X": -71.2473134, "POINT_Y": -32.8852363991}}, {"type": "Feature", "geometry": {"type": "Point", "coordinates": [-71.24404770000004, -32.885087299100036]}, "properties": {"CUT_REG": "05", "CUT_PROV": "055", "CUT_COM": "05501", "REGION": "Valpara\u00edso", "PROVINCIA": "Quillota", "COMUNA": "Quillota", "variable": "Sitios de Inter\u00e9s Poblacional", "Nombres": "Copec - (fuel)", "POINT_X": -71.2440477, "POINT_Y": -32.8850872991}}, {"type": "Feature", "geometry": {"type": "Point", "coordinates": [-71.24455960000002, -32.88405029910003]}, "properties": {"CUT_REG": "05", "CUT_PROV": "055", "CUT_COM": "05501", "REGION": "Valpara\u00edso", "PROVINCIA": "Quillota", "COMUNA": "Quillota", "variable": "Sitios de Inter\u00e9s Poblacional", "Nombres": "- (fast_food)", "POINT_X": -71.2445596, "POINT_Y": -32.8840502991}}, {"type": "Feature", "geometry": {"type": "Point", "coordinates": [-71.24540340000001, -32.88302489910001]}, "properties": {"CUT_REG": "05", "CUT_PROV": "055", "CUT_COM": "05501", "REGION": "Valpara\u00edso", "PROVINCIA": "Quillota", "COMUNA": "Quillota", "variable": "Sitios de Inter\u00e9s Poblacional", "Nombres": "Copec - (fuel)", "POINT_X": -71.2454034, "POINT_Y": -32.8830248991}}, {"type": "Feature", "geometry": {"type": "Point", "coordinates": [-71.24757679999999, -32.8829753991]}, "properties": {"CUT_REG": "05", "CUT_PROV": "055", "CUT_COM": "05501", "REGION": "Valpara\u00edso", "PROVINCIA": "Quillota", "COMUNA": "Quillota", "variable": "Sitios de Inter\u00e9s Poblacional", "Nombres": "Instituto Rafael Ariztia - (school)", "POINT_X": -71.2475768, "POINT_Y": -32.8829753991}}, {"type": "Feature", "geometry": {"type": "Point", "coordinates": [-71.24568839999998, -32.880896299100016]}, "properties": {"CUT_REG": "05", "CUT_PROV": "055", "CUT_COM": "05501", "REGION": "Valpara\u00edso", "PROVINCIA": "Quillota", "COMUNA": "Quillota", "variable": "Sitios de Inter\u00e9s Poblacional", "Nombres": "Escuela N2 - (school)", "POINT_X": -71.2456884, "POINT_Y": -32.8808962991}}, {"type": "Feature", "geometry": {"type": "Point", "coordinates": [-71.24535410000003, -32.88064519910002]}, "properties": {"CUT_REG": "05", "CUT_PROV": "055", "CUT_COM": "05501", "REGION": "Valpara\u00edso", "PROVINCIA": "Quillota", "COMUNA": "Quillota", "variable": "Sitios de Inter\u00e9s Poblacional", "Nombres": "- (traffic_signals)", "POINT_X": -71.2453541, "POINT_Y": -32.8806451991}}, {"type": "Feature", "geometry": {"type": "Point", "coordinates": [-71.2467116, -32.880587899099986]}, "properties": {"CUT_REG": "05", "CUT_PROV": "055", "CUT_COM": "05501", "REGION": "Valpara\u00edso", "PROVINCIA": "Quillota", "COMUNA": "Quillota", "variable": "Sitios de Inter\u00e9s Poblacional", "Nombres": "- (traffic_signals)", "POINT_X": -71.2467116, "POINT_Y": -32.8805878991}}, {"type": "Feature", "geometry": {"type": "Point", "coordinates": [-71.24811280000003, -32.88052889909999]}, "properties": {"CUT_REG": "05", "CUT_PROV": "055", "CUT_COM": "05501", "REGION": "Valpara\u00edso", "PROVINCIA": "Quillota", "COMUNA": "Quillota", "variable": "Sitios de Inter\u00e9s Poblacional", "Nombres": "- (traffic_signals)", "POINT_X": -71.2481128, "POINT_Y": -32.8805288991}}, {"type": "Feature", "geometry": {"type": "Point", "coordinates": [-71.24658200000002, -32.880442799099974]}, "properties": {"CUT_REG": "05", "CUT_PROV": "055", "CUT_COM": "05501", "REGION": "Valpara\u00edso", "PROVINCIA": "Quillota", "COMUNA": "Quillota", "variable": "Sitios de Inter\u00e9s Poblacional", "Nombres": "Iglesia Santo Domingo - (place_of_worship)", "POINT_X": -71.246582, "POINT_Y": -32.8804427991}}, {"type": "Feature", "geometry": {"type": "Point", "coordinates": [-71.2491323, -32.88033769909998]}, "properties": {"CUT_REG": "05", "CUT_PROV": "055", "CUT_COM": "05501", "REGION": "Valpara\u00edso", "PROVINCIA": "Quillota", "COMUNA": "Quillota", "variable": "Sitios de Inter\u00e9s Poblacional", "Nombres": "Bomberos de Quillota - (fire_station)", "POINT_X": -71.2491323, "POINT_Y": -32.8803376991}}, {"type": "Feature", "geometry": {"type": "Point", "coordinates": [-71.24736340000001, -32.88001099910004]}, "properties": {"CUT_REG": "05", "CUT_PROV": "055", "CUT_COM": "05501", "REGION": "Valpara\u00edso", "PROVINCIA": "Quillota", "COMUNA": "Quillota", "variable": "Sitios de Inter\u00e9s Poblacional", "Nombres": "- (fountain)", "POINT_X": -71.2473634, "POINT_Y": -32.8800109991}}, {"type": "Feature", "geometry": {"type": "Point", "coordinates": [-71.24816950000002, -32.879539099099986]}, "properties": {"CUT_REG": "05", "CUT_PROV": "055", "CUT_COM": "05501", "REGION": "Valpara\u00edso", "PROVINCIA": "Quillota", "COMUNA": "Quillota", "variable": "Sitios de Inter\u00e9s Poblacional", "Nombres": "Parroquia San Mart\u00edn - (place_of_worship)", "POINT_X": -71.2481695, "POINT_Y": -32.8795390991}}, {"type": "Feature", "geometry": {"type": "Point", "coordinates": [-71.24527330000001, -32.87949709909997]}, "properties": {"CUT_REG": "05", "CUT_PROV": "055", "CUT_COM": "05501", "REGION": "Valpara\u00edso", "PROVINCIA": "Quillota", "COMUNA": "Quillota", "variable": "Sitios de Inter\u00e9s Poblacional", "Nombres": "- (traffic_signals)", "POINT_X": -71.2452733, "POINT_Y": -32.8794970991}}, {"type": "Feature", "geometry": {"type": "Point", "coordinates": [-71.2466312, -32.87943999909996]}, "properties": {"CUT_REG": "05", "CUT_PROV": "055", "CUT_COM": "05501", "REGION": "Valpara\u00edso", "PROVINCIA": "Quillota", "COMUNA": "Quillota", "variable": "Sitios de Inter\u00e9s Poblacional", "Nombres": "- (traffic_signals)", "POINT_X": -71.2466312, "POINT_Y": -32.8794399991}}, {"type": "Feature", "geometry": {"type": "Point", "coordinates": [-71.24800249999996, -32.879362499100026]}, "properties": {"CUT_REG": "05", "CUT_PROV": "055", "CUT_COM": "05501", "REGION": "Valpara\u00edso", "PROVINCIA": "Quillota", "COMUNA": "Quillota", "variable": "Sitios de Inter\u00e9s Poblacional", "Nombres": "- (traffic_signals)", "POINT_X": -71.2480025, "POINT_Y": -32.8793624991}}, {"type": "Feature", "geometry": {"type": "Point", "coordinates": [-71.24702950000001, -32.87929679910001]}, "properties": {"CUT_REG": "05", "CUT_PROV": "055", "CUT_COM": "05501", "REGION": "Valpara\u00edso", "PROVINCIA": "Quillota", "COMUNA": "Quillota", "variable": "Sitios de Inter\u00e9s Poblacional", "Nombres": "Municipalidad de Quillota - (townhall)", "POINT_X": -71.2470295, "POINT_Y": -32.8792967991}}, {"type": "Feature", "geometry": {"type": "Point", "coordinates": [-71.24674740000003, -32.87925069910001]}, "properties": {"CUT_REG": "05", "CUT_PROV": "055", "CUT_COM": "05501", "REGION": "Valpara\u00edso", "PROVINCIA": "Quillota", "COMUNA": "Quillota", "variable": "Sitios de Inter\u00e9s Poblacional", "Nombres": "Farmacias Cruz Verde - (pharmacy)", "POINT_X": -71.2467474, "POINT_Y": -32.8792506991}}, {"type": "Feature", "geometry": {"type": "Point", "coordinates": [-71.24730049999997, -32.879232799100045]}, "properties": {"CUT_REG": "05", "CUT_PROV": "055", "CUT_COM": "05501", "REGION": "Valpara\u00edso", "PROVINCIA": "Quillota", "COMUNA": "Quillota", "variable": "Sitios de Inter\u00e9s Poblacional", "Nombres": "Cine Portales - (cinema)", "POINT_X": -71.2473005, "POINT_Y": -32.8792327991}}, {"type": "Feature", "geometry": {"type": "Point", "coordinates": [-71.2481791, -32.87921339910004]}, "properties": {"CUT_REG": "05", "CUT_PROV": "055", "CUT_COM": "05501", "REGION": "Valpara\u00edso", "PROVINCIA": "Quillota", "COMUNA": "Quillota", "variable": "Sitios de Inter\u00e9s Poblacional", "Nombres": "Banco de Chile - (bank)", "POINT_X": -71.2481791, "POINT_Y": -32.8792133991}}, {"type": "Feature", "geometry": {"type": "Point", "coordinates": [-71.24752350000003, -32.879165899100016]}, "properties": {"CUT_REG": "05", "CUT_PROV": "055", "CUT_COM": "05501", "REGION": "Valpara\u00edso", "PROVINCIA": "Quillota", "COMUNA": "Quillota", "variable": "Sitios de Inter\u00e9s Poblacional", "Nombres": "El Paseo Del Valle - (mall)", "POINT_X": -71.2475235, "POINT_Y": -32.8791658991}}, {"type": "Feature", "geometry": {"type": "Point", "coordinates": [-71.2481554, -32.87889149909996]}, "properties": {"CUT_REG": "05", "CUT_PROV": "055", "CUT_COM": "05501", "REGION": "Valpara\u00edso", "PROVINCIA": "Quillota", "COMUNA": "Quillota", "variable": "Sitios de Inter\u00e9s Poblacional", "Nombres": "Banco Santander - (bank)", "POINT_X": -71.2481554, "POINT_Y": -32.8788914991}}, {"type": "Feature", "geometry": {"type": "Point", "coordinates": [-71.24678319999997, -32.878751899100045]}, "properties": {"CUT_REG": "05", "CUT_PROV": "055", "CUT_COM": "05501", "REGION": "Valpara\u00edso", "PROVINCIA": "Quillota", "COMUNA": "Quillota", "variable": "Sitios de Inter\u00e9s Poblacional", "Nombres": "Centro Comercial El Caracol - (mall)", "POINT_X": -71.2467832, "POINT_Y": -32.8787518991}}, {"type": "Feature", "geometry": {"type": "Point", "coordinates": [-71.24764040000002, -32.87871129909997]}, "properties": {"CUT_REG": "05", "CUT_PROV": "055", "CUT_COM": "05501", "REGION": "Valpara\u00edso", "PROVINCIA": "Quillota", "COMUNA": "Quillota", "variable": "Sitios de Inter\u00e9s Poblacional", "Nombres": "Unimarc - (supermarket)", "POINT_X": -71.2476404, "POINT_Y": -32.8787112991}}, {"type": "Feature", "geometry": {"type": "Point", "coordinates": [-71.24669739999997, -32.87858019909996]}, "properties": {"CUT_REG": "05", "CUT_PROV": "055", "CUT_COM": "05501", "REGION": "Valpara\u00edso", "PROVINCIA": "Quillota", "COMUNA": "Quillota", "variable": "Sitios de Inter\u00e9s Poblacional", "Nombres": "Farmacias Ahumada - (pharmacy)", "POINT_X": -71.2466974, "POINT_Y": -32.8785801991}}, {"type": "Feature", "geometry": {"type": "Point", "coordinates": [-71.24751280000004, -32.87844509909997]}, "properties": {"CUT_REG": "05", "CUT_PROV": "055", "CUT_COM": "05501", "REGION": "Valpara\u00edso", "PROVINCIA": "Quillota", "COMUNA": "Quillota", "variable": "Sitios de Inter\u00e9s Poblacional", "Nombres": "Johnson - (department_store)", "POINT_X": -71.2475128, "POINT_Y": -32.8784450991}}, {"type": "Feature", "geometry": {"type": "Point", "coordinates": [-71.2466729, -32.878372299099986]}, "properties": {"CUT_REG": "05", "CUT_PROV": "055", "CUT_COM": "05501", "REGION": "Valpara\u00edso", "PROVINCIA": "Quillota", "COMUNA": "Quillota", "variable": "Sitios de Inter\u00e9s Poblacional", "Nombres": "Banco BCI - (bank)", "POINT_X": -71.2466729, "POINT_Y": -32.8783722991}}, {"type": "Feature", "geometry": {"type": "Point", "coordinates": [-71.24910299999998, -32.87834079909996]}, "properties": {"CUT_REG": "05", "CUT_PROV": "055", "CUT_COM": "05501", "REGION": "Valpara\u00edso", "PROVINCIA": "Quillota", "COMUNA": "Quillota", "variable": "Sitios de Inter\u00e9s Poblacional", "Nombres": "4ta Comisaria de Quillota - (police)", "POINT_X": -71.249103, "POINT_Y": -32.8783407991}}, {"type": "Feature", "geometry": {"type": "Point", "coordinates": [-71.2464368, -32.878169599100005]}, "properties": {"CUT_REG": "05", "CUT_PROV": "055", "CUT_COM": "05501", "REGION": "Valpara\u00edso", "PROVINCIA": "Quillota", "COMUNA": "Quillota", "variable": "Sitios de Inter\u00e9s Poblacional", "Nombres": "ScotiaBank - (bank)", "POINT_X": -71.2464368, "POINT_Y": -32.8781695991}}, {"type": "Feature", "geometry": {"type": "Point", "coordinates": [-71.24667819999999, -32.87816049909996]}, "properties": {"CUT_REG": "05", "CUT_PROV": "055", "CUT_COM": "05501", "REGION": "Valpara\u00edso", "PROVINCIA": "Quillota", "COMUNA": "Quillota", "variable": "Sitios de Inter\u00e9s Poblacional", "Nombres": "BancoEstado - (bank)", "POINT_X": -71.2466782, "POINT_Y": -32.8781604991}}, {"type": "Feature", "geometry": {"type": "Point", "coordinates": [-71.24499379999997, -32.87803439910001]}, "properties": {"CUT_REG": "05", "CUT_PROV": "055", "CUT_COM": "05501", "REGION": "Valpara\u00edso", "PROVINCIA": "Quillota", "COMUNA": "Quillota", "variable": "Sitios de Inter\u00e9s Poblacional", "Nombres": "Iglesia San Francisco - (place_of_worship)", "POINT_X": -71.2449938, "POINT_Y": -32.8780343991}}, {"type": "Feature", "geometry": {"type": "Point", "coordinates": [-71.24253989999997, -32.87802489910002]}, "properties": {"CUT_REG": "05", "CUT_PROV": "055", "CUT_COM": "05501", "REGION": "Valpara\u00edso", "PROVINCIA": "Quillota", "COMUNA": "Quillota", "variable": "Sitios de Inter\u00e9s Poblacional", "Nombres": "- (traffic_signals)", "POINT_X": -71.2425399, "POINT_Y": -32.8780248991}}, {"type": "Feature", "geometry": {"type": "Point", "coordinates": [-71.2424253, -32.87801529910003]}, "properties": {"CUT_REG": "05", "CUT_PROV": "055", "CUT_COM": "05501", "REGION": "Valpara\u00edso", "PROVINCIA": "Quillota", "COMUNA": "Quillota", "variable": "Sitios de Inter\u00e9s Poblacional", "Nombres": "- (traffic_signals)", "POINT_X": -71.2424253, "POINT_Y": -32.8780152991}}, {"type": "Feature", "geometry": {"type": "Point", "coordinates": [-71.24365270000004, -32.877475799099976]}, "properties": {"CUT_REG": "05", "CUT_PROV": "055", "CUT_COM": "05501", "REGION": "Valpara\u00edso", "PROVINCIA": "Quillota", "COMUNA": "Quillota", "variable": "Sitios de Inter\u00e9s Poblacional", "Nombres": "3\u00b0 Compa\u00f1\u00eda de Bomberos Jose Mar\u00eda Landeta d -", "POINT_X": -71.2436527, "POINT_Y": -32.8774757991}}, {"type": "Feature", "geometry": {"type": "Point", "coordinates": [-71.24264629999999, -32.87743829909998]}, "properties": {"CUT_REG": "05", "CUT_PROV": "055", "CUT_COM": "05501", "REGION": "Valpara\u00edso", "PROVINCIA": "Quillota", "COMUNA": "Quillota", "variable": "Sitios de Inter\u00e9s Poblacional", "Nombres": "2\u00b0 Compa\u00f1\u00eda de Bomberos Enrique Miller Brown -", "POINT_X": -71.2426463, "POINT_Y": -32.8774382991}}, {"type": "Feature", "geometry": {"type": "Point", "coordinates": [-71.23531940000002, -32.87722469909998]}, "properties": {"CUT_REG": "05", "CUT_PROV": "055", "CUT_COM": "05501", "REGION": "Valpara\u00edso", "PROVINCIA": "Quillota", "COMUNA": "Quillota", "variable": "Sitios de Inter\u00e9s Poblacional", "Nombres": "Open Hotel - (hotel)", "POINT_X": -71.2353194, "POINT_Y": -32.8772246991}}, {"type": "Feature", "geometry": {"type": "Point", "coordinates": [-71.2336305, -32.87700729910002]}, "properties": {"CUT_REG": "05", "CUT_PROV": "055", "CUT_COM": "05501", "REGION": "Valpara\u00edso", "PROVINCIA": "Quillota", "COMUNA": "Quillota", "variable": "Sitios de Inter\u00e9s Poblacional", "Nombres": "- (traffic_signals)", "POINT_X": -71.2336305, "POINT_Y": -32.8770072991}}, {"type": "Feature", "geometry": {"type": "Point", "coordinates": [-71.23370189999994, -32.8770037991]}, "properties": {"CUT_REG": "05", "CUT_PROV": "055", "CUT_COM": "05501", "REGION": "Valpara\u00edso", "PROVINCIA": "Quillota", "COMUNA": "Quillota", "variable": "Sitios de Inter\u00e9s Poblacional", "Nombres": "- (traffic_signals)", "POINT_X": -71.2337019, "POINT_Y": -32.8770037991}}, {"type": "Feature", "geometry": {"type": "Point", "coordinates": [-71.23019929999995, -32.876980699100045]}, "properties": {"CUT_REG": "05", "CUT_PROV": "055", "CUT_COM": "05501", "REGION": "Valpara\u00edso", "PROVINCIA": "Quillota", "COMUNA": "Quillota", "variable": "Sitios de Inter\u00e9s Poblacional", "Nombres": "Tutix - (nightclub)", "POINT_X": -71.2301993, "POINT_Y": -32.8769806991}}, {"type": "Feature", "geometry": {"type": "Point", "coordinates": [-71.2332826, -32.876931599099976]}, "properties": {"CUT_REG": "05", "CUT_PROV": "055", "CUT_COM": "05501", "REGION": "Valpara\u00edso", "PROVINCIA": "Quillota", "COMUNA": "Quillota", "variable": "Sitios de Inter\u00e9s Poblacional", "Nombres": "Shell - (fuel)", "POINT_X": -71.2332826, "POINT_Y": -32.8769315991}}, {"type": "Feature", "geometry": {"type": "Point", "coordinates": [-71.24247319999996, -32.87683489909997]}, "properties": {"CUT_REG": "05", "CUT_PROV": "055", "CUT_COM": "05501", "REGION": "Valpara\u00edso", "PROVINCIA": "Quillota", "COMUNA": "Quillota", "variable": "Sitios de Inter\u00e9s Poblacional", "Nombres": "- (traffic_signals)", "POINT_X": -71.2424732, "POINT_Y": -32.8768348991}}, {"type": "Feature", "geometry": {"type": "Point", "coordinates": [-71.24235329999999, -32.87681099910004]}, "properties": {"CUT_REG": "05", "CUT_PROV": "055", "CUT_COM": "05501", "REGION": "Valpara\u00edso", "PROVINCIA": "Quillota", "COMUNA": "Quillota", "variable": "Sitios de Inter\u00e9s Poblacional", "Nombres": "- (traffic_signals)", "POINT_X": -71.2423533, "POINT_Y": -32.8768109991}}, {"type": "Feature", "geometry": {"type": "Point", "coordinates": [-71.24400260000003, -32.87673349910002]}, "properties": {"CUT_REG": "05", "CUT_PROV": "055", "CUT_COM": "05501", "REGION": "Valpara\u00edso", "PROVINCIA": "Quillota", "COMUNA": "Quillota", "variable": "Sitios de Inter\u00e9s Poblacional", "Nombres": "Santa Isabel - (supermarket)", "POINT_X": -71.2440026, "POINT_Y": -32.8767334991}}, {"type": "Feature", "geometry": {"type": "Point", "coordinates": [-71.2341328, -32.87667489909997]}, "properties": {"CUT_REG": "05", "CUT_PROV": "055", "CUT_COM": "05501", "REGION": "Valpara\u00edso", "PROVINCIA": "Quillota", "COMUNA": "Quillota", "variable": "Sitios de Inter\u00e9s Poblacional", "Nombres": "Estacionamiento Easy/Santa Isabel - (parking)", "POINT_X": -71.2341328, "POINT_Y": -32.8766748991}}, {"type": "Feature", "geometry": {"type": "Point", "coordinates": [-71.23654759999995, -32.87659839910003]}, "properties": {"CUT_REG": "05", "CUT_PROV": "055", "CUT_COM": "05501", "REGION": "Valpara\u00edso", "PROVINCIA": "Quillota", "COMUNA": "Quillota", "variable": "Sitios de Inter\u00e9s Poblacional", "Nombres": "Feria Ganadera de Quillota - (marketplace)", "POINT_X": -71.2365476, "POINT_Y": -32.8765983991}}, {"type": "Feature", "geometry": {"type": "Point", "coordinates": [-71.23455730000003, -32.87621109909996]}, "properties": {"CUT_REG": "05", "CUT_PROV": "055", "CUT_COM": "05501", "REGION": "Valpara\u00edso", "PROVINCIA": "Quillota", "COMUNA": "Quillota", "variable": "Sitios de Inter\u00e9s Poblacional", "Nombres": "EASY - (doityourself)", "POINT_X": -71.2345573, "POINT_Y": -32.8762110991}}, {"type": "Feature", "geometry": {"type": "Point", "coordinates": [-71.23474510000003, -32.87619309909998]}, "properties": {"CUT_REG": "05", "CUT_PROV": "055", "CUT_COM": "05501", "REGION": "Valpara\u00edso", "PROVINCIA": "Quillota", "COMUNA": "Quillota", "variable": "Sitios de Inter\u00e9s Poblacional", "Nombres": "Santa Isabel - (supermarket)", "POINT_X": -71.2347451, "POINT_Y": -32.8761930991}}, {"type": "Feature", "geometry": {"type": "Point", "coordinates": [-71.24535859999996, -32.875024899099955]}, "properties": {"CUT_REG": "05", "CUT_PROV": "055", "CUT_COM": "05501", "REGION": "Valpara\u00edso", "PROVINCIA": "Quillota", "COMUNA": "Quillota", "variable": "Sitios de Inter\u00e9s Poblacional", "Nombres": "Robert and Rose - (school)", "POINT_X": -71.2453586, "POINT_Y": -32.8750248991}}, {"type": "Feature", "geometry": {"type": "Point", "coordinates": [-71.2418317, -32.87486559910001]}, "properties": {"CUT_REG": "05", "CUT_PROV": "055", "CUT_COM": "05501", "REGION": "Valpara\u00edso", "PROVINCIA": "Quillota", "COMUNA": "Quillota", "variable": "Sitios de Inter\u00e9s Poblacional", "Nombres": "Lider Parking - (parking)", "POINT_X": -71.2418317, "POINT_Y": -32.8748655991}}, {"type": "Feature", "geometry": {"type": "Point", "coordinates": [-71.24109570000003, -32.87486469910002]}, "properties": {"CUT_REG": "05", "CUT_PROV": "055", "CUT_COM": "05501", "REGION": "Valpara\u00edso", "PROVINCIA": "Quillota", "COMUNA": "Quillota", "variable": "Sitios de Inter\u00e9s Poblacional", "Nombres": "Feria Sargento Aldea - (greengrocer)", "POINT_X": -71.2410957, "POINT_Y": -32.8748646991}}, {"type": "Feature", "geometry": {"type": "Point", "coordinates": [-71.24256559999998, -32.87463849909996]}, "properties": {"CUT_REG": "05", "CUT_PROV": "055", "CUT_COM": "05501", "REGION": "Valpara\u00edso", "PROVINCIA": "Quillota", "COMUNA": "Quillota", "variable": "Sitios de Inter\u00e9s Poblacional", "Nombres": "Club Uni\u00f3n Arabe - (restaurant)", "POINT_X": -71.2425656, "POINT_Y": -32.8746384991}}, {"type": "Feature", "geometry": {"type": "Point", "coordinates": [-71.24168529999997, -32.8742857991]}, "properties": {"CUT_REG": "05", "CUT_PROV": "055", "CUT_COM": "05501", "REGION": "Valpara\u00edso", "PROVINCIA": "Quillota", "COMUNA": "Quillota", "variable": "Sitios de Inter\u00e9s Poblacional", "Nombres": "Lider - (supermarket)", "POINT_X": -71.2416853, "POINT_Y": -32.8742857991}}, {"type": "Feature", "geometry": {"type": "Point", "coordinates": [-71.24238910000003, -32.87377369909999]}, "properties": {"CUT_REG": "05", "CUT_PROV": "055", "CUT_COM": "05501", "REGION": "Valpara\u00edso", "PROVINCIA": "Quillota", "COMUNA": "Quillota", "variable": "Sitios de Inter\u00e9s Poblacional", "Nombres": "Shell - (fuel)", "POINT_X": -71.2423891, "POINT_Y": -32.8737736991}}, {"type": "Feature", "geometry": {"type": "Point", "coordinates": [-71.23918600000002, -32.87303459910004]}, "properties": {"CUT_REG": "05", "CUT_PROV": "055", "CUT_COM": "05501", "REGION": "Valpara\u00edso", "PROVINCIA": "Quillota", "COMUNA": "Quillota", "variable": "Sitios de Inter\u00e9s Poblacional", "Nombres": "Feria Serrano - (marketplace)", "POINT_X": -71.239186, "POINT_Y": -32.8730345991}}, {"type": "Feature", "geometry": {"type": "Point", "coordinates": [-71.22793549999997, -32.871267799100046]}, "properties": {"CUT_REG": "05", "CUT_PROV": "055", "CUT_COM": "05501", "REGION": "Valpara\u00edso", "PROVINCIA": "Quillota", "COMUNA": "Quillota", "variable": "Sitios de Inter\u00e9s Poblacional", "Nombres": "Motel Ensue\u00f1o - (motel)", "POINT_X": -71.2279355, "POINT_Y": -32.8712677991}}, {"type": "Feature", "geometry": {"type": "Point", "coordinates": [-71.2692122, -32.86562029910004]}, "properties": {"CUT_REG": "05", "CUT_PROV": "055", "CUT_COM": "05501", "REGION": "Valpara\u00edso", "PROVINCIA": "Quillota", "COMUNA": "Quillota", "variable": "Sitios de Inter\u00e9s Poblacional", "Nombres": "Centro Tur\u00edstico El Ed\u00e9n - (picnic_site)", "POINT_X": -71.2692122, "POINT_Y": -32.8656202991}}, {"type": "Feature", "geometry": {"type": "Point", "coordinates": [-71.2694999, -32.8655575991]}, "properties": {"CUT_REG": "05", "CUT_PROV": "055", "CUT_COM": "05501", "REGION": "Valpara\u00edso", "PROVINCIA": "Quillota", "COMUNA": "Quillota", "variable": "Sitios de Inter\u00e9s Poblacional", "Nombres": "El Eden - (restaurant)", "POINT_X": -71.2694999, "POINT_Y": -32.8655575991}}, {"type": "Feature", "geometry": {"type": "Point", "coordinates": [-71.10829199999999, -32.84950959910001]}, "properties": {"CUT_REG": "05", "CUT_PROV": "055", "CUT_COM": "05503", "REGION": "Valpara\u00edso", "PROVINCIA": "Quillota", "COMUNA": "Hijuelas", "variable": "Sitios de Inter\u00e9s Poblacional", "Nombres": "La Veguita - (restaurant)", "POINT_X": -71.108292, "POINT_Y": -32.8495095991}}, {"type": "Feature", "geometry": {"type": "Point", "coordinates": [-71.11162369999997, -32.8480989991]}, "properties": {"CUT_REG": "05", "CUT_PROV": "055", "CUT_COM": "05503", "REGION": "Valpara\u00edso", "PROVINCIA": "Quillota", "COMUNA": "Hijuelas", "variable": "Sitios de Inter\u00e9s Poblacional", "Nombres": "Posta Rural de Salud Villa Prat - (hospital)", "POINT_X": -71.1116237, "POINT_Y": -32.8480989991}}, {"type": "Feature", "geometry": {"type": "Point", "coordinates": [-71.23234529999996, -32.84721799910003]}, "properties": {"CUT_REG": "05", "CUT_PROV": "055", "CUT_COM": "05504", "REGION": "Valpara\u00edso", "PROVINCIA": "Quillota", "COMUNA": "La Cruz", "variable": "Sitios de Inter\u00e9s Poblacional", "Nombres": "Carabineros Charravata - (police)", "POINT_X": -71.2323453, "POINT_Y": -32.8472179991}}, {"type": "Feature", "geometry": {"type": "Point", "coordinates": [-71.14938689999998, -32.84025999910004]}, "properties": {"CUT_REG": "05", "CUT_PROV": "055", "CUT_COM": "05502", "REGION": "Valpara\u00edso", "PROVINCIA": "Quillota", "COMUNA": "Calera", "variable": "Sitios de Inter\u00e9s Poblacional", "Nombres": "Posta de Salud Rural - Pachacama - (hospital)", "POINT_X": -71.1493869, "POINT_Y": -32.8402599991}}, {"type": "Feature", "geometry": {"type": "Point", "coordinates": [-71.22661629999998, -32.828109299100014]}, "properties": {"CUT_REG": "05", "CUT_PROV": "055", "CUT_COM": "05504", "REGION": "Valpara\u00edso", "PROVINCIA": "Quillota", "COMUNA": "La Cruz", "variable": "Sitios de Inter\u00e9s Poblacional", "Nombres": "Municipalidad - (townhall)", "POINT_X": -71.2266163, "POINT_Y": -32.8281092991}}, {"type": "Feature", "geometry": {"type": "Point", "coordinates": [-71.1305533, -32.8273662991]}, "properties": {"CUT_REG": "05", "CUT_PROV": "055", "CUT_COM": "05503", "REGION": "Valpara\u00edso", "PROVINCIA": "Quillota", "COMUNA": "Hijuelas", "variable": "Sitios de Inter\u00e9s Poblacional", "Nombres": "Pronto Copec - (fast_food)", "POINT_X": -71.1305533, "POINT_Y": -32.8273662991}}, {"type": "Feature", "geometry": {"type": "Point", "coordinates": [-71.22714119999998, -32.8273050991]}, "properties": {"CUT_REG": "05", "CUT_PROV": "055", "CUT_COM": "05504", "REGION": "Valpara\u00edso", "PROVINCIA": "Quillota", "COMUNA": "La Cruz", "variable": "Sitios de Inter\u00e9s Poblacional", "Nombres": "- (fire_station)", "POINT_X": -71.2271412, "POINT_Y": -32.8273050991}}, {"type": "Feature", "geometry": {"type": "Point", "coordinates": [-71.13096389999995, -32.82730149909997]}, "properties": {"CUT_REG": "05", "CUT_PROV": "055", "CUT_COM": "05503", "REGION": "Valpara\u00edso", "PROVINCIA": "Quillota", "COMUNA": "Hijuelas", "variable": "Sitios de Inter\u00e9s Poblacional", "Nombres": "Copec - (fuel)", "POINT_X": -71.1309639, "POINT_Y": -32.8273014991}}, {"type": "Feature", "geometry": {"type": "Point", "coordinates": [-71.22655959999999, -32.82567589910003]}, "properties": {"CUT_REG": "05", "CUT_PROV": "055", "CUT_COM": "05504", "REGION": "Valpara\u00edso", "PROVINCIA": "Quillota", "COMUNA": "La Cruz", "variable": "Sitios de Inter\u00e9s Poblacional", "Nombres": "Copec - (fuel)", "POINT_X": -71.2265596, "POINT_Y": -32.8256758991}}, {"type": "Feature", "geometry": {"type": "Point", "coordinates": [-71.1753829, -32.81853569909997]}, "properties": {"CUT_REG": "05", "CUT_PROV": "055", "CUT_COM": "05502", "REGION": "Valpara\u00edso", "PROVINCIA": "Quillota", "COMUNA": "Calera", "variable": "Sitios de Inter\u00e9s Poblacional", "Nombres": "Posta Pachacamita - (hospital)", "POINT_X": -71.1753829, "POINT_Y": -32.8185356991}}, {"type": "Feature", "geometry": {"type": "Point", "coordinates": [-71.22496050000001, -32.818371399099966]}, "properties": {"CUT_REG": "05", "CUT_PROV": "055", "CUT_COM": "05504", "REGION": "Valpara\u00edso", "PROVINCIA": "Quillota", "COMUNA": "La Cruz", "variable": "Sitios de Inter\u00e9s Poblacional", "Nombres": "Capri - (hotel)", "POINT_X": -71.2249605, "POINT_Y": -32.8183713991}}, {"type": "Feature", "geometry": {"type": "Point", "coordinates": [-71.17528100000001, -32.80576779910004]}, "properties": {"CUT_REG": "05", "CUT_PROV": "055", "CUT_COM": "05502", "REGION": "Valpara\u00edso", "PROVINCIA": "Quillota", "COMUNA": "Calera", "variable": "Sitios de Inter\u00e9s Poblacional", "Nombres": "Estaci\u00f3n M\u00e9dico Rural Las Cabritas - (hospital)", "POINT_X": -71.175281, "POINT_Y": -32.8057677991}}, {"type": "Feature", "geometry": {"type": "Point", "coordinates": [-71.154794, -32.801263699099955]}, "properties": {"CUT_REG": "05", "CUT_PROV": "055", "CUT_COM": "05503", "REGION": "Valpara\u00edso", "PROVINCIA": "Quillota", "COMUNA": "Hijuelas", "variable": "Sitios de Inter\u00e9s Poblacional", "Nombres": "Carabineros de Chile - (police)", "POINT_X": -71.154794, "POINT_Y": -32.8012636991}}, {"type": "Feature", "geometry": {"type": "Point", "coordinates": [-71.15486689999999, -32.800640699100015]}, "properties": {"CUT_REG": "05", "CUT_PROV": "055", "CUT_COM": "05503", "REGION": "Valpara\u00edso", "PROVINCIA": "Quillota", "COMUNA": "Hijuelas", "variable": "Sitios de Inter\u00e9s Poblacional", "Nombres": "Carabineros de Chile - (parking)", "POINT_X": -71.1548669, "POINT_Y": -32.8006406991}}, {"type": "Feature", "geometry": {"type": "Point", "coordinates": [-71.15873720000002, -32.79831299909998]}, "properties": {"CUT_REG": "05", "CUT_PROV": "055", "CUT_COM": "05503", "REGION": "Valpara\u00edso", "PROVINCIA": "Quillota", "COMUNA": "Hijuelas", "variable": "Sitios de Inter\u00e9s Poblacional", "Nombres": "Shell - (fuel)", "POINT_X": -71.1587372, "POINT_Y": -32.7983129991}}, {"type": "Feature", "geometry": {"type": "Point", "coordinates": [-71.16137580000003, -32.79345079910002]}, "properties": {"CUT_REG": "05", "CUT_PROV": "055", "CUT_COM": "05503", "REGION": "Valpara\u00edso", "PROVINCIA": "Quillota", "COMUNA": "Hijuelas", "variable": "Sitios de Inter\u00e9s Poblacional", "Nombres": "Sabadell - (restaurant)", "POINT_X": -71.1613758, "POINT_Y": -32.7934507991}}, {"type": "Feature", "geometry": {"type": "Point", "coordinates": [-71.20480459999996, -32.79232189909996]}, "properties": {"CUT_REG": "05", "CUT_PROV": "055", "CUT_COM": "05502", "REGION": "Valpara\u00edso", "PROVINCIA": "Quillota", "COMUNA": "Calera", "variable": "Sitios de Inter\u00e9s Poblacional", "Nombres": "- (hospital)", "POINT_X": -71.2048046, "POINT_Y": -32.7923218991}}, {"type": "Feature", "geometry": {"type": "Point", "coordinates": [-71.22632680000001, -32.79205339910004]}, "properties": {"CUT_REG": "05", "CUT_PROV": "055", "CUT_COM": "05502", "REGION": "Valpara\u00edso", "PROVINCIA": "Quillota", "COMUNA": "Calera", "variable": "Sitios de Inter\u00e9s Poblacional", "Nombres": "Templo Mormon - (place_of_worship)", "POINT_X": -71.2263268, "POINT_Y": -32.7920533991}}, {"type": "Feature", "geometry": {"type": "Point", "coordinates": [-71.19281170000002, -32.791675999099986]}, "properties": {"CUT_REG": "05", "CUT_PROV": "055", "CUT_COM": "05502", "REGION": "Valpara\u00edso", "PROVINCIA": "Quillota", "COMUNA": "Calera", "variable": "Sitios de Inter\u00e9s Poblacional", "Nombres": "Estaciomaniento Falabella/Tottus/Sodimac - (parki*", "POINT_X": -71.1928117, "POINT_Y": -32.7916759991}}, {"type": "Feature", "geometry": {"type": "Point", "coordinates": [-71.1935522, -32.791635799100035]}, "properties": {"CUT_REG": "05", "CUT_PROV": "055", "CUT_COM": "05502", "REGION": "Valpara\u00edso", "PROVINCIA": "Quillota", "COMUNA": "Calera", "variable": "Sitios de Inter\u00e9s Poblacional", "Nombres": "Sodimac - (doityourself)", "POINT_X": -71.1935522, "POINT_Y": -32.7916357991}}, {"type": "Feature", "geometry": {"type": "Point", "coordinates": [-71.19259659999999, -32.79108109909997]}, "properties": {"CUT_REG": "05", "CUT_PROV": "055", "CUT_COM": "05502", "REGION": "Valpara\u00edso", "PROVINCIA": "Quillota", "COMUNA": "Calera", "variable": "Sitios de Inter\u00e9s Poblacional", "Nombres": "Tottus - (supermarket)", "POINT_X": -71.1925966, "POINT_Y": -32.7910810991}}, {"type": "Feature", "geometry": {"type": "Point", "coordinates": [-71.19154630000003, -32.790665699099975]}, "properties": {"CUT_REG": "05", "CUT_PROV": "055", "CUT_COM": "05502", "REGION": "Valpara\u00edso", "PROVINCIA": "Quillota", "COMUNA": "Calera", "variable": "Sitios de Inter\u00e9s Poblacional", "Nombres": "Falabella - (department_store)", "POINT_X": -71.1915463, "POINT_Y": -32.7906656991}}, {"type": "Feature", "geometry": {"type": "Point", "coordinates": [-71.20246249999997, -32.78992419909999]}, "properties": {"CUT_REG": "05", "CUT_PROV": "055", "CUT_COM": "05502", "REGION": "Valpara\u00edso", "PROVINCIA": "Quillota", "COMUNA": "Calera", "variable": "Sitios de Inter\u00e9s Poblacional", "Nombres": "Iglesia San Jose de la Calera - (place_of_worship)", "POINT_X": -71.2024625, "POINT_Y": -32.7899241991}}, {"type": "Feature", "geometry": {"type": "Point", "coordinates": [-71.191564, -32.78986959910001]}, "properties": {"CUT_REG": "05", "CUT_PROV": "055", "CUT_COM": "05502", "REGION": "Valpara\u00edso", "PROVINCIA": "Quillota", "COMUNA": "Calera", "variable": "Sitios de Inter\u00e9s Poblacional", "Nombres": "La Calera (Valpara\u00edso a Santiago) - (station)", "POINT_X": -71.191564, "POINT_Y": -32.7898695991}}, {"type": "Feature", "geometry": {"type": "Point", "coordinates": [-71.1835529, -32.78971679909998]}, "properties": {"CUT_REG": "05", "CUT_PROV": "055", "CUT_COM": "05502", "REGION": "Valpara\u00edso", "PROVINCIA": "Quillota", "COMUNA": "Calera", "variable": "Sitios de Inter\u00e9s Poblacional", "Nombres": "Clinica Los Leones - (hospital)", "POINT_X": -71.1835529, "POINT_Y": -32.7897167991}}, {"type": "Feature", "geometry": {"type": "Point", "coordinates": [-71.19166449999996, -32.78971109910004]}, "properties": {"CUT_REG": "05", "CUT_PROV": "055", "CUT_COM": "05502", "REGION": "Valpara\u00edso", "PROVINCIA": "Quillota", "COMUNA": "Calera", "variable": "Sitios de Inter\u00e9s Poblacional", "Nombres": "- (buffer_stop)", "POINT_X": -71.1916645, "POINT_Y": -32.7897110991}}, {"type": "Feature", "geometry": {"type": "Point", "coordinates": [-71.19174260000003, -32.78960319909999]}, "properties": {"CUT_REG": "05", "CUT_PROV": "055", "CUT_COM": "05502", "REGION": "Valpara\u00edso", "PROVINCIA": "Quillota", "COMUNA": "Calera", "variable": "Sitios de Inter\u00e9s Poblacional", "Nombres": "La Calera (Red Norte) - (station)", "POINT_X": -71.1917426, "POINT_Y": -32.7896031991}}, {"type": "Feature", "geometry": {"type": "Point", "coordinates": [-71.18547250000002, -32.78959709910002]}, "properties": {"CUT_REG": "05", "CUT_PROV": "055", "CUT_COM": "05502", "REGION": "Valpara\u00edso", "PROVINCIA": "Quillota", "COMUNA": "Calera", "variable": "Sitios de Inter\u00e9s Poblacional", "Nombres": "Acuenta - (supermarket)", "POINT_X": -71.1854725, "POINT_Y": -32.7895970991}}, {"type": "Feature", "geometry": {"type": "Point", "coordinates": [-71.18940130000001, -32.789088099100006]}, "properties": {"CUT_REG": "05", "CUT_PROV": "055", "CUT_COM": "05502", "REGION": "Valpara\u00edso", "PROVINCIA": "Quillota", "COMUNA": "Calera", "variable": "Sitios de Inter\u00e9s Poblacional", "Nombres": "- (traffic_signals)", "POINT_X": -71.1894013, "POINT_Y": -32.7890880991}}, {"type": "Feature", "geometry": {"type": "Point", "coordinates": [-71.19078590000001, -32.78825789909997]}, "properties": {"CUT_REG": "05", "CUT_PROV": "055", "CUT_COM": "05502", "REGION": "Valpara\u00edso", "PROVINCIA": "Quillota", "COMUNA": "Calera", "variable": "Sitios de Inter\u00e9s Poblacional", "Nombres": "- (traffic_signals)", "POINT_X": -71.1907859, "POINT_Y": -32.7882578991}}, {"type": "Feature", "geometry": {"type": "Point", "coordinates": [-71.1978963, -32.78822089910002]}, "properties": {"CUT_REG": "05", "CUT_PROV": "055", "CUT_COM": "05502", "REGION": "Valpara\u00edso", "PROVINCIA": "Quillota", "COMUNA": "Calera", "variable": "Sitios de Inter\u00e9s Poblacional", "Nombres": "- (fuel)", "POINT_X": -71.1978963, "POINT_Y": -32.7882208991}}, {"type": "Feature", "geometry": {"type": "Point", "coordinates": [-71.18959819999996, -32.78809319910002]}, "properties": {"CUT_REG": "05", "CUT_PROV": "055", "CUT_COM": "05502", "REGION": "Valpara\u00edso", "PROVINCIA": "Quillota", "COMUNA": "Calera", "variable": "Sitios de Inter\u00e9s Poblacional", "Nombres": "- (traffic_signals)", "POINT_X": -71.1895982, "POINT_Y": -32.7880931991}}, {"type": "Feature", "geometry": {"type": "Point", "coordinates": [-71.1885907, -32.78748349910002]}, "properties": {"CUT_REG": "05", "CUT_PROV": "055", "CUT_COM": "05502", "REGION": "Valpara\u00edso", "PROVINCIA": "Quillota", "COMUNA": "Calera", "variable": "Sitios de Inter\u00e9s Poblacional", "Nombres": "Santa Isabel - (supermarket)", "POINT_X": -71.1885907, "POINT_Y": -32.7874834991}}, {"type": "Feature", "geometry": {"type": "Point", "coordinates": [-71.1923917, -32.78741739909997]}, "properties": {"CUT_REG": "05", "CUT_PROV": "055", "CUT_COM": "05502", "REGION": "Valpara\u00edso", "PROVINCIA": "Quillota", "COMUNA": "Calera", "variable": "Sitios de Inter\u00e9s Poblacional", "Nombres": "- (traffic_signals)", "POINT_X": -71.1923917, "POINT_Y": -32.7874173991}}, {"type": "Feature", "geometry": {"type": "Point", "coordinates": [-71.19224720000003, -32.78740029909998]}, "properties": {"CUT_REG": "05", "CUT_PROV": "055", "CUT_COM": "05502", "REGION": "Valpara\u00edso", "PROVINCIA": "Quillota", "COMUNA": "Calera", "variable": "Sitios de Inter\u00e9s Poblacional", "Nombres": "- (traffic_signals)", "POINT_X": -71.1922472, "POINT_Y": -32.7874002991}}, {"type": "Feature", "geometry": {"type": "Point", "coordinates": [-71.190976, -32.78724879909996]}, "properties": {"CUT_REG": "05", "CUT_PROV": "055", "CUT_COM": "05502", "REGION": "Valpara\u00edso", "PROVINCIA": "Quillota", "COMUNA": "Calera", "variable": "Sitios de Inter\u00e9s Poblacional", "Nombres": "- (traffic_signals)", "POINT_X": -71.190976, "POINT_Y": -32.7872487991}}, {"type": "Feature", "geometry": {"type": "Point", "coordinates": [-71.18979359999997, -32.78710779910002]}, "properties": {"CUT_REG": "05", "CUT_PROV": "055", "CUT_COM": "05502", "REGION": "Valpara\u00edso", "PROVINCIA": "Quillota", "COMUNA": "Calera", "variable": "Sitios de Inter\u00e9s Poblacional", "Nombres": "- (traffic_signals)", "POINT_X": -71.1897936, "POINT_Y": -32.7871077991}}, {"type": "Feature", "geometry": {"type": "Point", "coordinates": [-71.19452759999997, -32.786404199099984]}, "properties": {"CUT_REG": "05", "CUT_PROV": "055", "CUT_COM": "05502", "REGION": "Valpara\u00edso", "PROVINCIA": "Quillota", "COMUNA": "Calera", "variable": "Sitios de Inter\u00e9s Poblacional", "Nombres": "Supermercado Mayorista 10 - (supermarket)", "POINT_X": -71.1945276, "POINT_Y": -32.7864041991}}, {"type": "Feature", "geometry": {"type": "Point", "coordinates": [-71.19256600000003, -32.786355199100015]}, "properties": {"CUT_REG": "05", "CUT_PROV": "055", "CUT_COM": "05502", "REGION": "Valpara\u00edso", "PROVINCIA": "Quillota", "COMUNA": "Calera", "variable": "Sitios de Inter\u00e9s Poblacional", "Nombres": "- (traffic_signals)", "POINT_X": -71.192566, "POINT_Y": -32.7863551991}}, {"type": "Feature", "geometry": {"type": "Point", "coordinates": [-71.19243080000004, -32.786337899100005]}, "properties": {"CUT_REG": "05", "CUT_PROV": "055", "CUT_COM": "05502", "REGION": "Valpara\u00edso", "PROVINCIA": "Quillota", "COMUNA": "Calera", "variable": "Sitios de Inter\u00e9s Poblacional", "Nombres": "- (traffic_signals)", "POINT_X": -71.1924308, "POINT_Y": -32.7863378991}}, {"type": "Feature", "geometry": {"type": "Point", "coordinates": [-71.19014029999997, -32.786219699099995]}, "properties": {"CUT_REG": "05", "CUT_PROV": "055", "CUT_COM": "05502", "REGION": "Valpara\u00edso", "PROVINCIA": "Quillota", "COMUNA": "Calera", "variable": "Sitios de Inter\u00e9s Poblacional", "Nombres": "Carnes Varas - (butcher)", "POINT_X": -71.1901403, "POINT_Y": -32.7862196991}}, {"type": "Feature", "geometry": {"type": "Point", "coordinates": [-71.19000709999996, -32.78602719909996]}, "properties": {"CUT_REG": "05", "CUT_PROV": "055", "CUT_COM": "05502", "REGION": "Valpara\u00edso", "PROVINCIA": "Quillota", "COMUNA": "Calera", "variable": "Sitios de Inter\u00e9s Poblacional", "Nombres": "- (traffic_signals)", "POINT_X": -71.1900071, "POINT_Y": -32.7860271991}}, {"type": "Feature", "geometry": {"type": "Point", "coordinates": [-71.19022609999996, -32.785903999099986]}, "properties": {"CUT_REG": "05", "CUT_PROV": "055", "CUT_COM": "05502", "REGION": "Valpara\u00edso", "PROVINCIA": "Quillota", "COMUNA": "Calera", "variable": "Sitios de Inter\u00e9s Poblacional", "Nombres": "Ferreteria Los Angeles - (doityourself)", "POINT_X": -71.1902261, "POINT_Y": -32.7859039991}}, {"type": "Feature", "geometry": {"type": "Point", "coordinates": [-71.18959360000002, -32.78577809909996]}, "properties": {"CUT_REG": "05", "CUT_PROV": "055", "CUT_COM": "05502", "REGION": "Valpara\u00edso", "PROVINCIA": "Quillota", "COMUNA": "Calera", "variable": "Sitios de Inter\u00e9s Poblacional", "Nombres": "Copec - (fuel)", "POINT_X": -71.1895936, "POINT_Y": -32.7857780991}}, {"type": "Feature", "geometry": {"type": "Point", "coordinates": [-71.19183700000002, -32.77798469910004]}, "properties": {"CUT_REG": "05", "CUT_PROV": "055", "CUT_COM": "05502", "REGION": "Valpara\u00edso", "PROVINCIA": "Quillota", "COMUNA": "Calera", "variable": "Sitios de Inter\u00e9s Poblacional", "Nombres": "Shell - (fuel)", "POINT_X": -71.191837, "POINT_Y": -32.7779846991}}, {"type": "Feature", "geometry": {"type": "Point", "coordinates": [-71.19474329999997, -32.756521099099956]}, "properties": {"CUT_REG": "05", "CUT_PROV": "055", "CUT_COM": "05506", "REGION": "Valpara\u00edso", "PROVINCIA": "Quillota", "COMUNA": "Nogales", "variable": "Sitios de Inter\u00e9s Poblacional", "Nombres": "Ensue\u00f1o - (motel)", "POINT_X": -71.1947433, "POINT_Y": -32.7565210991}}, {"type": "Feature", "geometry": {"type": "Point", "coordinates": [-71.25224149999995, -32.75226249910003]}, "properties": {"CUT_REG": "05", "CUT_PROV": "055", "CUT_COM": "05506", "REGION": "Valpara\u00edso", "PROVINCIA": "Quillota", "COMUNA": "Nogales", "variable": "Sitios de Inter\u00e9s Poblacional", "Nombres": "- (weighbridge)", "POINT_X": -71.2522415, "POINT_Y": -32.7522624991}}, {"type": "Feature", "geometry": {"type": "Point", "coordinates": [-71.1982936, -32.74402939909996]}, "properties": {"CUT_REG": "05", "CUT_PROV": "055", "CUT_COM": "05506", "REGION": "Valpara\u00edso", "PROVINCIA": "Quillota", "COMUNA": "Nogales", "variable": "Sitios de Inter\u00e9s Poblacional", "Nombres": "Junta de Vecinos El Litre - (community_centre)", "POINT_X": -71.1982936, "POINT_Y": -32.7440293991}}, {"type": "Feature", "geometry": {"type": "Point", "coordinates": [-71.19977000000003, -32.73903609909999]}, "properties": {"CUT_REG": "05", "CUT_PROV": "055", "CUT_COM": "05506", "REGION": "Valpara\u00edso", "PROVINCIA": "Quillota", "COMUNA": "Nogales", "variable": "Sitios de Inter\u00e9s Poblacional", "Nombres": "Carabineros Los Nogales - (police)", "POINT_X": -71.19977, "POINT_Y": -32.7390360991}}, {"type": "Feature", "geometry": {"type": "Point", "coordinates": [-71.20768819999998, -32.73644369909999]}, "properties": {"CUT_REG": "05", "CUT_PROV": "055", "CUT_COM": "05506", "REGION": "Valpara\u00edso", "PROVINCIA": "Quillota", "COMUNA": "Nogales", "variable": "Sitios de Inter\u00e9s Poblacional", "Nombres": "Imagen de la Virgen del Carmen - (place_of_worshi*", "POINT_X": -71.2076882, "POINT_Y": -32.7364436991}}, {"type": "Feature", "geometry": {"type": "Point", "coordinates": [-71.20102069999996, -32.7361431991]}, "properties": {"CUT_REG": "05", "CUT_PROV": "055", "CUT_COM": "05506", "REGION": "Valpara\u00edso", "PROVINCIA": "Quillota", "COMUNA": "Nogales", "variable": "Sitios de Inter\u00e9s Poblacional", "Nombres": "Iglesia Bautista - (place_of_worship)", "POINT_X": -71.2010207, "POINT_Y": -32.7361431991}}, {"type": "Feature", "geometry": {"type": "Point", "coordinates": [-71.2152016, -32.736087699100025]}, "properties": {"CUT_REG": "05", "CUT_PROV": "055", "CUT_COM": "05506", "REGION": "Valpara\u00edso", "PROVINCIA": "Quillota", "COMUNA": "Nogales", "variable": "Sitios de Inter\u00e9s Poblacional", "Nombres": "Capilla Inmaculada Concepci\u00f3n - (place_of_worship", "POINT_X": -71.2152016, "POINT_Y": -32.7360876991}}, {"type": "Feature", "geometry": {"type": "Point", "coordinates": [-71.20030579999997, -32.73603079910002]}, "properties": {"CUT_REG": "05", "CUT_PROV": "055", "CUT_COM": "05506", "REGION": "Valpara\u00edso", "PROVINCIA": "Quillota", "COMUNA": "Nogales", "variable": "Sitios de Inter\u00e9s Poblacional", "Nombres": "Primera Compa\u00f1\u00eda de Bomberos de Nogales - (fire_", "POINT_X": -71.2003058, "POINT_Y": -32.7360307991}}, {"type": "Feature", "geometry": {"type": "Point", "coordinates": [-71.20394350000004, -32.73520059909999]}, "properties": {"CUT_REG": "05", "CUT_PROV": "055", "CUT_COM": "05506", "REGION": "Valpara\u00edso", "PROVINCIA": "Quillota", "COMUNA": "Nogales", "variable": "Sitios de Inter\u00e9s Poblacional", "Nombres": "Junta de Vecinos Andr\u00e9s Bello - (community_centre", "POINT_X": -71.2039435, "POINT_Y": -32.7352005991}}, {"type": "Feature", "geometry": {"type": "Point", "coordinates": [-71.21587930000004, -32.73509189909996]}, "properties": {"CUT_REG": "05", "CUT_PROV": "055", "CUT_COM": "05506", "REGION": "Valpara\u00edso", "PROVINCIA": "Quillota", "COMUNA": "Nogales", "variable": "Sitios de Inter\u00e9s Poblacional", "Nombres": "- (fire_station)", "POINT_X": -71.2158793, "POINT_Y": -32.7350918991}}, {"type": "Feature", "geometry": {"type": "Point", "coordinates": [-71.20021550000004, -32.73505449909998]}, "properties": {"CUT_REG": "05", "CUT_PROV": "055", "CUT_COM": "05506", "REGION": "Valpara\u00edso", "PROVINCIA": "Quillota", "COMUNA": "Nogales", "variable": "Sitios de Inter\u00e9s Poblacional", "Nombres": "Departamento de Salud - (yes)", "POINT_X": -71.2002155, "POINT_Y": -32.7350544991}}, {"type": "Feature", "geometry": {"type": "Point", "coordinates": [-71.20132850000002, -32.73501239909996]}, "properties": {"CUT_REG": "05", "CUT_PROV": "055", "CUT_COM": "05506", "REGION": "Valpara\u00edso", "PROVINCIA": "Quillota", "COMUNA": "Nogales", "variable": "Sitios de Inter\u00e9s Poblacional", "Nombres": "Banco Estado - (bank)", "POINT_X": -71.2013285, "POINT_Y": -32.7350123991}}, {"type": "Feature", "geometry": {"type": "Point", "coordinates": [-71.20277399999998, -32.734830599100015]}, "properties": {"CUT_REG": "05", "CUT_PROV": "055", "CUT_COM": "05506", "REGION": "Valpara\u00edso", "PROVINCIA": "Quillota", "COMUNA": "Nogales", "variable": "Sitios de Inter\u00e9s Poblacional", "Nombres": "Correos de Chile - (post_office)", "POINT_X": -71.202774, "POINT_Y": -32.7348305991}}, {"type": "Feature", "geometry": {"type": "Point", "coordinates": [-71.20157279999998, -32.73466739910001]}, "properties": {"CUT_REG": "05", "CUT_PROV": "055", "CUT_COM": "05506", "REGION": "Valpara\u00edso", "PROVINCIA": "Quillota", "COMUNA": "Nogales", "variable": "Sitios de Inter\u00e9s Poblacional", "Nombres": "Nuestra sra. del Carmen - (social_facility)", "POINT_X": -71.2015728, "POINT_Y": -32.7346673991}}, {"type": "Feature", "geometry": {"type": "Point", "coordinates": [-71.20154669999997, -32.73430079909997]}, "properties": {"CUT_REG": "05", "CUT_PROV": "055", "CUT_COM": "05506", "REGION": "Valpara\u00edso", "PROVINCIA": "Quillota", "COMUNA": "Nogales", "variable": "Sitios de Inter\u00e9s Poblacional", "Nombres": "Municipalidad de Nogales - (townhall)", "POINT_X": -71.2015467, "POINT_Y": -32.7343007991}}, {"type": "Feature", "geometry": {"type": "Point", "coordinates": [-71.20116469999996, -32.73414469910002]}, "properties": {"CUT_REG": "05", "CUT_PROV": "055", "CUT_COM": "05506", "REGION": "Valpara\u00edso", "PROVINCIA": "Quillota", "COMUNA": "Nogales", "variable": "Sitios de Inter\u00e9s Poblacional", "Nombres": "Municipalidad de Los Nogales - (townhall)", "POINT_X": -71.2011647, "POINT_Y": -32.7341446991}}, {"type": "Feature", "geometry": {"type": "Point", "coordinates": [-71.20160269999997, -32.73309819910003]}, "properties": {"CUT_REG": "05", "CUT_PROV": "055", "CUT_COM": "05506", "REGION": "Valpara\u00edso", "PROVINCIA": "Quillota", "COMUNA": "Nogales", "variable": "Sitios de Inter\u00e9s Poblacional", "Nombres": "Parroquia Nuestra Se\u00f1ora del Carmen - (place_of_w", "POINT_X": -71.2016027, "POINT_Y": -32.7330981991}}, {"type": "Feature", "geometry": {"type": "Point", "coordinates": [-71.20467789999995, -32.73296889909999]}, "properties": {"CUT_REG": "05", "CUT_PROV": "055", "CUT_COM": "05506", "REGION": "Valpara\u00edso", "PROVINCIA": "Quillota", "COMUNA": "Nogales", "variable": "Sitios de Inter\u00e9s Poblacional", "Nombres": "Copec - (fuel)", "POINT_X": -71.2046779, "POINT_Y": -32.7329688991}}, {"type": "Feature", "geometry": {"type": "Point", "coordinates": [-71.20526040000001, -32.70807759909998]}, "properties": {"CUT_REG": "05", "CUT_PROV": "055", "CUT_COM": "05506", "REGION": "Valpara\u00edso", "PROVINCIA": "Quillota", "COMUNA": "Nogales", "variable": "Sitios de Inter\u00e9s Poblacional", "Nombres": "- (fuel)", "POINT_X": -71.2052604, "POINT_Y": -32.7080775991}}, {"type": "Feature", "geometry": {"type": "Point", "coordinates": [-71.21311099999996, -32.690390699100014]}, "properties": {"CUT_REG": "05", "CUT_PROV": "055", "CUT_COM": "05506", "REGION": "Valpara\u00edso", "PROVINCIA": "Quillota", "COMUNA": "Nogales", "variable": "Sitios de Inter\u00e9s Poblacional", "Nombres": "Banco Estado - (bank)", "POINT_X": -71.213111, "POINT_Y": -32.6903906991}}, {"type": "Feature", "geometry": {"type": "Point", "coordinates": [-71.2102519, -32.689120599099994]}, "properties": {"CUT_REG": "05", "CUT_PROV": "055", "CUT_COM": "05506", "REGION": "Valpara\u00edso", "PROVINCIA": "Quillota", "COMUNA": "Nogales", "variable": "Sitios de Inter\u00e9s Poblacional", "Nombres": "Parroquia Santa Isabel de Hungria - (place_of_wor*", "POINT_X": -71.2102519, "POINT_Y": -32.6891205991}}]}