{"type": "FeatureCollection", "features": [{"type": "Feature", "geometry": {"type": "Point", "coordinates": [-71.83551130000004, -34.76882209910003]}, "properties": {"CUT_REG": "06", "CUT_PROV": "062", "CUT_COM": "06206", "REGION": "Libertador General Bernardo O'Higgins", "PROVINCIA": "Cardenal Caro", "COMUNA": "Paredones", "variable": "Sitios de Inter\u00e9s Poblacional", "Nombres": "San Pedro de Alcantara - (restaurant)", "POINT_X": -71.8355113, "POINT_Y": -34.7688220991}}, {"type": "Feature", "geometry": {"type": "Point", "coordinates": [-72.01322980000002, -34.69487559909997]}, "properties": {"CUT_REG": "06", "CUT_PROV": "062", "CUT_COM": "06206", "REGION": "Libertador General Bernardo O'Higgins", "PROVINCIA": "Cardenal Caro", "COMUNA": "Paredones", "variable": "Sitios de Inter\u00e9s Poblacional", "Nombres": "El Tropoezon - (restaurant)", "POINT_X": -72.0132298, "POINT_Y": -34.6948755991}}, {"type": "Feature", "geometry": {"type": "Point", "coordinates": [-71.89957969999998, -34.652990999100005]}, "properties": {"CUT_REG": "06", "CUT_PROV": "062", "CUT_COM": "06206", "REGION": "Libertador General Bernardo O'Higgins", "PROVINCIA": "Cardenal Caro", "COMUNA": "Paredones", "variable": "Sitios de Inter\u00e9s Poblacional", "Nombres": "Terpel - (fuel)", "POINT_X": -71.8995797, "POINT_Y": -34.6529909991}}, {"type": "Feature", "geometry": {"type": "Point", "coordinates": [-72.00583270000001, -34.51223899910002]}, "properties": {"CUT_REG": "06", "CUT_PROV": "062", "CUT_COM": "06201", "REGION": "Libertador General Bernardo O'Higgins", "PROVINCIA": "Cardenal Caro", "COMUNA": "Pichilemu", "variable": "Sitios de Inter\u00e9s Poblacional", "Nombres": "Mirados - (viewpoint)", "POINT_X": -72.0058327, "POINT_Y": -34.5122389991}}, {"type": "Feature", "geometry": {"type": "Point", "coordinates": [-71.95698779999996, -34.499136899099966]}, "properties": {"CUT_REG": "06", "CUT_PROV": "062", "CUT_COM": "06201", "REGION": "Libertador General Bernardo O'Higgins", "PROVINCIA": "Cardenal Caro", "COMUNA": "Pichilemu", "variable": "Sitios de Inter\u00e9s Poblacional", "Nombres": "- (artwork)", "POINT_X": -71.9569878, "POINT_Y": -34.4991368991}}, {"type": "Feature", "geometry": {"type": "Point", "coordinates": [-72.01168569999999, -34.48221689910004]}, "properties": {"CUT_REG": "06", "CUT_PROV": "062", "CUT_COM": "06201", "REGION": "Libertador General Bernardo O'Higgins", "PROVINCIA": "Cardenal Caro", "COMUNA": "Pichilemu", "variable": "Sitios de Inter\u00e9s Poblacional", "Nombres": "restaurant el buzo - (restaurant)", "POINT_X": -72.0116857, "POINT_Y": -34.4822168991}}, {"type": "Feature", "geometry": {"type": "Point", "coordinates": [-72.0225375, -34.47392389909999]}, "properties": {"CUT_REG": "06", "CUT_PROV": "062", "CUT_COM": "06201", "REGION": "Libertador General Bernardo O'Higgins", "PROVINCIA": "Cardenal Caro", "COMUNA": "Pichilemu", "variable": "Sitios de Inter\u00e9s Poblacional", "Nombres": "Hoster\u00eda Cristy - (restaurant)", "POINT_X": -72.0225375, "POINT_Y": -34.4739238991}}, {"type": "Feature", "geometry": {"type": "Point", "coordinates": [-71.9654578, -34.463650699099965]}, "properties": {"CUT_REG": "06", "CUT_PROV": "062", "CUT_COM": "06201", "REGION": "Libertador General Bernardo O'Higgins", "PROVINCIA": "Cardenal Caro", "COMUNA": "Pichilemu", "variable": "Sitios de Inter\u00e9s Poblacional", "Nombres": "Cementerio Ciruelos - (grave_yard)", "POINT_X": -71.9654578, "POINT_Y": -34.4636506991}}, {"type": "Feature", "geometry": {"type": "Point", "coordinates": [-71.97214189999998, -34.4619345991]}, "properties": {"CUT_REG": "06", "CUT_PROV": "062", "CUT_COM": "06201", "REGION": "Libertador General Bernardo O'Higgins", "PROVINCIA": "Cardenal Caro", "COMUNA": "Pichilemu", "variable": "Sitios de Inter\u00e9s Poblacional", "Nombres": "Iglesia San Andr\u00e9s - (place_of_worship)", "POINT_X": -71.9721419, "POINT_Y": -34.4619345991}}, {"type": "Feature", "geometry": {"type": "Point", "coordinates": [-72.02887149999997, -34.453396699100026]}, "properties": {"CUT_REG": "06", "CUT_PROV": "062", "CUT_COM": "06201", "REGION": "Libertador General Bernardo O'Higgins", "PROVINCIA": "Cardenal Caro", "COMUNA": "Pichilemu", "variable": "Sitios de Inter\u00e9s Poblacional", "Nombres": "Caba\u00f1as - (guest_house)", "POINT_X": -72.0288715, "POINT_Y": -34.4533966991}}, {"type": "Feature", "geometry": {"type": "Point", "coordinates": [-72.02740939999995, -34.452943699100025]}, "properties": {"CUT_REG": "06", "CUT_PROV": "062", "CUT_COM": "06201", "REGION": "Libertador General Bernardo O'Higgins", "PROVINCIA": "Cardenal Caro", "COMUNA": "Pichilemu", "variable": "Sitios de Inter\u00e9s Poblacional", "Nombres": "Camping Laguna del perro - (camp_site)", "POINT_X": -72.0274094, "POINT_Y": -34.4529436991}}, {"type": "Feature", "geometry": {"type": "Point", "coordinates": [-71.9249672, -34.430127399100016]}, "properties": {"CUT_REG": "06", "CUT_PROV": "062", "CUT_COM": "06201", "REGION": "Libertador General Bernardo O'Higgins", "PROVINCIA": "Cardenal Caro", "COMUNA": "Pichilemu", "variable": "Sitios de Inter\u00e9s Poblacional", "Nombres": "Larra\u00edn Alcalde - (station)", "POINT_X": -71.9249672, "POINT_Y": -34.4301273991}}, {"type": "Feature", "geometry": {"type": "Point", "coordinates": [-72.03263460000002, -34.42903379910004]}, "properties": {"CUT_REG": "06", "CUT_PROV": "062", "CUT_COM": "06201", "REGION": "Libertador General Bernardo O'Higgins", "PROVINCIA": "Cardenal Caro", "COMUNA": "Pichilemu", "variable": "Sitios de Inter\u00e9s Poblacional", "Nombres": "Haka Honu - (hotel)", "POINT_X": -72.0326346, "POINT_Y": -34.4290337991}}, {"type": "Feature", "geometry": {"type": "Point", "coordinates": [-72.03920870000005, -34.42897399909997]}, "properties": {"CUT_REG": "06", "CUT_PROV": "062", "CUT_COM": "06201", "REGION": "Libertador General Bernardo O'Higgins", "PROVINCIA": "Cardenal Caro", "COMUNA": "Pichilemu", "variable": "Sitios de Inter\u00e9s Poblacional", "Nombres": "La Lora - (restaurant)", "POINT_X": -72.0392087, "POINT_Y": -34.4289739991}}, {"type": "Feature", "geometry": {"type": "Point", "coordinates": [-72.0412284, -34.42844969910003]}, "properties": {"CUT_REG": "06", "CUT_PROV": "062", "CUT_COM": "06201", "REGION": "Libertador General Bernardo O'Higgins", "PROVINCIA": "Cardenal Caro", "COMUNA": "Pichilemu", "variable": "Sitios de Inter\u00e9s Poblacional", "Nombres": "EntreMar - (restaurant)", "POINT_X": -72.0412284, "POINT_Y": -34.4284496991}}, {"type": "Feature", "geometry": {"type": "Point", "coordinates": [-72.03967870000002, -34.42722409909996]}, "properties": {"CUT_REG": "06", "CUT_PROV": "062", "CUT_COM": "06201", "REGION": "Libertador General Bernardo O'Higgins", "PROVINCIA": "Cardenal Caro", "COMUNA": "Pichilemu", "variable": "Sitios de Inter\u00e9s Poblacional", "Nombres": "Punta de Lobos - (parking)", "POINT_X": -72.0396787, "POINT_Y": -34.4272240991}}, {"type": "Feature", "geometry": {"type": "Point", "coordinates": [-72.04084819999997, -34.42714449910004]}, "properties": {"CUT_REG": "06", "CUT_PROV": "062", "CUT_COM": "06201", "REGION": "Libertador General Bernardo O'Higgins", "PROVINCIA": "Cardenal Caro", "COMUNA": "Pichilemu", "variable": "Sitios de Inter\u00e9s Poblacional", "Nombres": "Punta de Lobos - (parking)", "POINT_X": -72.0408482, "POINT_Y": -34.4271444991}}, {"type": "Feature", "geometry": {"type": "Point", "coordinates": [-72.04491629999995, -34.4265697991]}, "properties": {"CUT_REG": "06", "CUT_PROV": "062", "CUT_COM": "06201", "REGION": "Libertador General Bernardo O'Higgins", "PROVINCIA": "Cardenal Caro", "COMUNA": "Pichilemu", "variable": "Sitios de Inter\u00e9s Poblacional", "Nombres": "Conviento de lobos - (guest_house)", "POINT_X": -72.0449163, "POINT_Y": -34.4265697991}}, {"type": "Feature", "geometry": {"type": "Point", "coordinates": [-72.0450672, -34.4264376991]}, "properties": {"CUT_REG": "06", "CUT_PROV": "062", "CUT_COM": "06201", "REGION": "Libertador General Bernardo O'Higgins", "PROVINCIA": "Cardenal Caro", "COMUNA": "Pichilemu", "variable": "Sitios de Inter\u00e9s Poblacional", "Nombres": "- (place_of_worship)", "POINT_X": -72.0450672, "POINT_Y": -34.4264376991}}, {"type": "Feature", "geometry": {"type": "Point", "coordinates": [-72.04672160000003, -34.425679799099996]}, "properties": {"CUT_REG": "06", "CUT_PROV": "062", "CUT_COM": "06201", "REGION": "Libertador General Bernardo O'Higgins", "PROVINCIA": "Cardenal Caro", "COMUNA": "Pichilemu", "variable": "Sitios de Inter\u00e9s Poblacional", "Nombres": "Centro Turistico Integral - (hotel)", "POINT_X": -72.0467216, "POINT_Y": -34.4256797991}}, {"type": "Feature", "geometry": {"type": "Point", "coordinates": [-72.04818819999996, -34.42547139909998]}, "properties": {"CUT_REG": "06", "CUT_PROV": "062", "CUT_COM": "06201", "REGION": "Libertador General Bernardo O'Higgins", "PROVINCIA": "Cardenal Caro", "COMUNA": "Pichilemu", "variable": "Sitios de Inter\u00e9s Poblacional", "Nombres": "Punta de Lobos - (viewpoint)", "POINT_X": -72.0481882, "POINT_Y": -34.4254713991}}, {"type": "Feature", "geometry": {"type": "Point", "coordinates": [-72.02870470000002, -34.414503499100036]}, "properties": {"CUT_REG": "06", "CUT_PROV": "062", "CUT_COM": "06201", "REGION": "Libertador General Bernardo O'Higgins", "PROVINCIA": "Cardenal Caro", "COMUNA": "Pichilemu", "variable": "Sitios de Inter\u00e9s Poblacional", "Nombres": "Waffleria - (fast_food)", "POINT_X": -72.0287047, "POINT_Y": -34.4145034991}}, {"type": "Feature", "geometry": {"type": "Point", "coordinates": [-72.028493, -34.413678599099995]}, "properties": {"CUT_REG": "06", "CUT_PROV": "062", "CUT_COM": "06201", "REGION": "Libertador General Bernardo O'Higgins", "PROVINCIA": "Cardenal Caro", "COMUNA": "Pichilemu", "variable": "Sitios de Inter\u00e9s Poblacional", "Nombres": "Lodge del Mar - (hotel)", "POINT_X": -72.028493, "POINT_Y": -34.4136785991}}, {"type": "Feature", "geometry": {"type": "Point", "coordinates": [-72.02660339999997, -34.41353919910001]}, "properties": {"CUT_REG": "06", "CUT_PROV": "062", "CUT_COM": "06201", "REGION": "Libertador General Bernardo O'Higgins", "PROVINCIA": "Cardenal Caro", "COMUNA": "Pichilemu", "variable": "Sitios de Inter\u00e9s Poblacional", "Nombres": "Lomas Alto Pinar - (hotel)", "POINT_X": -72.0266034, "POINT_Y": -34.4135391991}}, {"type": "Feature", "geometry": {"type": "Point", "coordinates": [-72.02731150000002, -34.412149099100006]}, "properties": {"CUT_REG": "06", "CUT_PROV": "062", "CUT_COM": "06201", "REGION": "Libertador General Bernardo O'Higgins", "PROVINCIA": "Cardenal Caro", "COMUNA": "Pichilemu", "variable": "Sitios de Inter\u00e9s Poblacional", "Nombres": "Caba\u00f1as Loft Pichilemu - (hotel)", "POINT_X": -72.0273115, "POINT_Y": -34.4121490991}}, {"type": "Feature", "geometry": {"type": "Point", "coordinates": [-72.02784959999997, -34.41189949909996]}, "properties": {"CUT_REG": "06", "CUT_PROV": "062", "CUT_COM": "06201", "REGION": "Libertador General Bernardo O'Higgins", "PROVINCIA": "Cardenal Caro", "COMUNA": "Pichilemu", "variable": "Sitios de Inter\u00e9s Poblacional", "Nombres": "Dunamar - (hotel)", "POINT_X": -72.0278496, "POINT_Y": -34.4118994991}}, {"type": "Feature", "geometry": {"type": "Point", "coordinates": [-71.61596970000001, -34.40372429909998]}, "properties": {"CUT_REG": "06", "CUT_PROV": "062", "CUT_COM": "06204", "REGION": "Libertador General Bernardo O'Higgins", "PROVINCIA": "Cardenal Caro", "COMUNA": "Marchihue", "variable": "Sitios de Inter\u00e9s Poblacional", "Nombres": "Vulcanizacion - (car_repair)", "POINT_X": -71.6159697, "POINT_Y": -34.4037242991}}, {"type": "Feature", "geometry": {"type": "Point", "coordinates": [-72.02493539999998, -34.403592299099984]}, "properties": {"CUT_REG": "06", "CUT_PROV": "062", "CUT_COM": "06201", "REGION": "Libertador General Bernardo O'Higgins", "PROVINCIA": "Cardenal Caro", "COMUNA": "Pichilemu", "variable": "Sitios de Inter\u00e9s Poblacional", "Nombres": "Verde Mar - (supermarket)", "POINT_X": -72.0249354, "POINT_Y": -34.4035922991}}, {"type": "Feature", "geometry": {"type": "Point", "coordinates": [-72.02475299999999, -34.40324709910002]}, "properties": {"CUT_REG": "06", "CUT_PROV": "062", "CUT_COM": "06201", "REGION": "Libertador General Bernardo O'Higgins", "PROVINCIA": "Cardenal Caro", "COMUNA": "Pichilemu", "variable": "Sitios de Inter\u00e9s Poblacional", "Nombres": "Don Tito - (supermarket)", "POINT_X": -72.024753, "POINT_Y": -34.4032470991}}, {"type": "Feature", "geometry": {"type": "Point", "coordinates": [-72.00891729999998, -34.40223789910001]}, "properties": {"CUT_REG": "06", "CUT_PROV": "062", "CUT_COM": "06201", "REGION": "Libertador General Bernardo O'Higgins", "PROVINCIA": "Cardenal Caro", "COMUNA": "Pichilemu", "variable": "Sitios de Inter\u00e9s Poblacional", "Nombres": "- (supermarket)", "POINT_X": -72.0089173, "POINT_Y": -34.4022378991}}, {"type": "Feature", "geometry": {"type": "Point", "coordinates": [-71.62305059999996, -34.40129869910001]}, "properties": {"CUT_REG": "06", "CUT_PROV": "062", "CUT_COM": "06204", "REGION": "Libertador General Bernardo O'Higgins", "PROVINCIA": "Cardenal Caro", "COMUNA": "Marchihue", "variable": "Sitios de Inter\u00e9s Poblacional", "Nombres": "Terpel - (fuel)", "POINT_X": -71.6230506, "POINT_Y": -34.4012986991}}, {"type": "Feature", "geometry": {"type": "Point", "coordinates": [-71.6190622, -34.4010419991]}, "properties": {"CUT_REG": "06", "CUT_PROV": "062", "CUT_COM": "06204", "REGION": "Libertador General Bernardo O'Higgins", "PROVINCIA": "Cardenal Caro", "COMUNA": "Marchihue", "variable": "Sitios de Inter\u00e9s Poblacional", "Nombres": "Ritmo 60\u00b4s - (pub)", "POINT_X": -71.6190622, "POINT_Y": -34.4010419991}}, {"type": "Feature", "geometry": {"type": "Point", "coordinates": [-71.61984090000004, -34.400761299099955]}, "properties": {"CUT_REG": "06", "CUT_PROV": "062", "CUT_COM": "06204", "REGION": "Libertador General Bernardo O'Higgins", "PROVINCIA": "Cardenal Caro", "COMUNA": "Marchihue", "variable": "Sitios de Inter\u00e9s Poblacional", "Nombres": "Biblioteca Publica - (library)", "POINT_X": -71.6198409, "POINT_Y": -34.4007612991}}, {"type": "Feature", "geometry": {"type": "Point", "coordinates": [-71.61976499999997, -34.400479899100034]}, "properties": {"CUT_REG": "06", "CUT_PROV": "062", "CUT_COM": "06204", "REGION": "Libertador General Bernardo O'Higgins", "PROVINCIA": "Cardenal Caro", "COMUNA": "Marchihue", "variable": "Sitios de Inter\u00e9s Poblacional", "Nombres": "Telefono Publico - (telephone)", "POINT_X": -71.619765, "POINT_Y": -34.4004798991}}, {"type": "Feature", "geometry": {"type": "Point", "coordinates": [-71.61993400000001, -34.40045559909998]}, "properties": {"CUT_REG": "06", "CUT_PROV": "062", "CUT_COM": "06204", "REGION": "Libertador General Bernardo O'Higgins", "PROVINCIA": "Cardenal Caro", "COMUNA": "Marchihue", "variable": "Sitios de Inter\u00e9s Poblacional", "Nombres": "- (bus_stop)", "POINT_X": -71.619934, "POINT_Y": -34.4004555991}}, {"type": "Feature", "geometry": {"type": "Point", "coordinates": [-71.61759859999995, -34.40031489909997]}, "properties": {"CUT_REG": "06", "CUT_PROV": "062", "CUT_COM": "06204", "REGION": "Libertador General Bernardo O'Higgins", "PROVINCIA": "Cardenal Caro", "COMUNA": "Marchihue", "variable": "Sitios de Inter\u00e9s Poblacional", "Nombres": "Escuela America - (school)", "POINT_X": -71.6175986, "POINT_Y": -34.4003148991}}, {"type": "Feature", "geometry": {"type": "Point", "coordinates": [-71.61835149999999, -34.400059399099966]}, "properties": {"CUT_REG": "06", "CUT_PROV": "062", "CUT_COM": "06204", "REGION": "Libertador General Bernardo O'Higgins", "PROVINCIA": "Cardenal Caro", "COMUNA": "Marchihue", "variable": "Sitios de Inter\u00e9s Poblacional", "Nombres": "Plaza de Armas - (Plaza)", "POINT_X": -71.6183515, "POINT_Y": -34.4000593991}}, {"type": "Feature", "geometry": {"type": "Point", "coordinates": [-71.62024860000002, -34.40001829910003]}, "properties": {"CUT_REG": "06", "CUT_PROV": "062", "CUT_COM": "06204", "REGION": "Libertador General Bernardo O'Higgins", "PROVINCIA": "Cardenal Caro", "COMUNA": "Marchihue", "variable": "Sitios de Inter\u00e9s Poblacional", "Nombres": "Restaurant Vi\u00f1as de Marchigue - (restaurant)", "POINT_X": -71.6202486, "POINT_Y": -34.4000182991}}, {"type": "Feature", "geometry": {"type": "Point", "coordinates": [-71.61928489999995, -34.39953929910001]}, "properties": {"CUT_REG": "06", "CUT_PROV": "062", "CUT_COM": "06204", "REGION": "Libertador General Bernardo O'Higgins", "PROVINCIA": "Cardenal Caro", "COMUNA": "Marchihue", "variable": "Sitios de Inter\u00e9s Poblacional", "Nombres": "Centro de llamados - (telephone)", "POINT_X": -71.6192849, "POINT_Y": -34.3995392991}}, {"type": "Feature", "geometry": {"type": "Point", "coordinates": [-71.61815880000003, -34.39952829909999]}, "properties": {"CUT_REG": "06", "CUT_PROV": "062", "CUT_COM": "06204", "REGION": "Libertador General Bernardo O'Higgins", "PROVINCIA": "Cardenal Caro", "COMUNA": "Marchihue", "variable": "Sitios de Inter\u00e9s Poblacional", "Nombres": "Primera Compa\u00f1ia Marchigue - (fire_station)", "POINT_X": -71.6181588, "POINT_Y": -34.3995282991}}, {"type": "Feature", "geometry": {"type": "Point", "coordinates": [-71.61856330000002, -34.3994972991]}, "properties": {"CUT_REG": "06", "CUT_PROV": "062", "CUT_COM": "06204", "REGION": "Libertador General Bernardo O'Higgins", "PROVINCIA": "Cardenal Caro", "COMUNA": "Marchihue", "variable": "Sitios de Inter\u00e9s Poblacional", "Nombres": "Restaurant Plaza - (restaurant)", "POINT_X": -71.6185633, "POINT_Y": -34.3994972991}}, {"type": "Feature", "geometry": {"type": "Point", "coordinates": [-71.6190998, -34.39925159910001]}, "properties": {"CUT_REG": "06", "CUT_PROV": "062", "CUT_COM": "06204", "REGION": "Libertador General Bernardo O'Higgins", "PROVINCIA": "Cardenal Caro", "COMUNA": "Marchihue", "variable": "Sitios de Inter\u00e9s Poblacional", "Nombres": "- (hardware)", "POINT_X": -71.6190998, "POINT_Y": -34.3992515991}}, {"type": "Feature", "geometry": {"type": "Point", "coordinates": [-71.61906079999997, -34.39916749909998]}, "properties": {"CUT_REG": "06", "CUT_PROV": "062", "CUT_COM": "06204", "REGION": "Libertador General Bernardo O'Higgins", "PROVINCIA": "Cardenal Caro", "COMUNA": "Marchihue", "variable": "Sitios de Inter\u00e9s Poblacional", "Nombres": "Correos Chile - (post_box)", "POINT_X": -71.6190608, "POINT_Y": -34.3991674991}}, {"type": "Feature", "geometry": {"type": "Point", "coordinates": [-71.61897369999997, -34.398921899099996]}, "properties": {"CUT_REG": "06", "CUT_PROV": "062", "CUT_COM": "06204", "REGION": "Libertador General Bernardo O'Higgins", "PROVINCIA": "Cardenal Caro", "COMUNA": "Marchihue", "variable": "Sitios de Inter\u00e9s Poblacional", "Nombres": "Santa Ana - (supermarket)", "POINT_X": -71.6189737, "POINT_Y": -34.3989218991}}, {"type": "Feature", "geometry": {"type": "Point", "coordinates": [-71.61697279999996, -34.39890859909996]}, "properties": {"CUT_REG": "06", "CUT_PROV": "062", "CUT_COM": "06204", "REGION": "Libertador General Bernardo O'Higgins", "PROVINCIA": "Cardenal Caro", "COMUNA": "Marchihue", "variable": "Sitios de Inter\u00e9s Poblacional", "Nombres": "Hospital Marchigue - (hospital)", "POINT_X": -71.6169728, "POINT_Y": -34.3989085991}}, {"type": "Feature", "geometry": {"type": "Point", "coordinates": [-71.61875110000003, -34.3988842991]}, "properties": {"CUT_REG": "06", "CUT_PROV": "062", "CUT_COM": "06204", "REGION": "Libertador General Bernardo O'Higgins", "PROVINCIA": "Cardenal Caro", "COMUNA": "Marchihue", "variable": "Sitios de Inter\u00e9s Poblacional", "Nombres": "Catalan - (supermarket)", "POINT_X": -71.6187511, "POINT_Y": -34.3988842991}}, {"type": "Feature", "geometry": {"type": "Point", "coordinates": [-71.72117809999995, -34.39869929909997]}, "properties": {"CUT_REG": "06", "CUT_PROV": "062", "CUT_COM": "06204", "REGION": "Libertador General Bernardo O'Higgins", "PROVINCIA": "Cardenal Caro", "COMUNA": "Marchihue", "variable": "Sitios de Inter\u00e9s Poblacional", "Nombres": "- (fuel)", "POINT_X": -71.7211781, "POINT_Y": -34.3986992991}}, {"type": "Feature", "geometry": {"type": "Point", "coordinates": [-71.61872560000003, -34.39864349909997]}, "properties": {"CUT_REG": "06", "CUT_PROV": "062", "CUT_COM": "06204", "REGION": "Libertador General Bernardo O'Higgins", "PROVINCIA": "Cardenal Caro", "COMUNA": "Marchihue", "variable": "Sitios de Inter\u00e9s Poblacional", "Nombres": "Estrella de Marchigue - (supermarket)", "POINT_X": -71.6187256, "POINT_Y": -34.3986434991}}, {"type": "Feature", "geometry": {"type": "Point", "coordinates": [-71.61868340000001, -34.39840619909996]}, "properties": {"CUT_REG": "06", "CUT_PROV": "062", "CUT_COM": "06204", "REGION": "Libertador General Bernardo O'Higgins", "PROVINCIA": "Cardenal Caro", "COMUNA": "Marchihue", "variable": "Sitios de Inter\u00e9s Poblacional", "Nombres": "Tenencia Marchigue - (police)", "POINT_X": -71.6186834, "POINT_Y": -34.3984061991}}, {"type": "Feature", "geometry": {"type": "Point", "coordinates": [-71.6185309, -34.39837739909998]}, "properties": {"CUT_REG": "06", "CUT_PROV": "062", "CUT_COM": "06204", "REGION": "Libertador General Bernardo O'Higgins", "PROVINCIA": "Cardenal Caro", "COMUNA": "Marchihue", "variable": "Sitios de Inter\u00e9s Poblacional", "Nombres": "La Bodega - (supermarket)", "POINT_X": -71.6185309, "POINT_Y": -34.3983773991}}, {"type": "Feature", "geometry": {"type": "Point", "coordinates": [-72.02494650000001, -34.39836149909999]}, "properties": {"CUT_REG": "06", "CUT_PROV": "062", "CUT_COM": "06201", "REGION": "Libertador General Bernardo O'Higgins", "PROVINCIA": "Cardenal Caro", "COMUNA": "Pichilemu", "variable": "Sitios de Inter\u00e9s Poblacional", "Nombres": "Playa Hermosa - (viewpoint)", "POINT_X": -72.0249465, "POINT_Y": -34.3983614991}}, {"type": "Feature", "geometry": {"type": "Point", "coordinates": [-71.61828909999998, -34.397558599099995]}, "properties": {"CUT_REG": "06", "CUT_PROV": "062", "CUT_COM": "06204", "REGION": "Libertador General Bernardo O'Higgins", "PROVINCIA": "Cardenal Caro", "COMUNA": "Marchihue", "variable": "Sitios de Inter\u00e9s Poblacional", "Nombres": "Farmacia Flores - (pharmacy)", "POINT_X": -71.6182891, "POINT_Y": -34.3975585991}}, {"type": "Feature", "geometry": {"type": "Point", "coordinates": [-71.61811809999995, -34.39722659909997]}, "properties": {"CUT_REG": "06", "CUT_PROV": "062", "CUT_COM": "06204", "REGION": "Libertador General Bernardo O'Higgins", "PROVINCIA": "Cardenal Caro", "COMUNA": "Marchihue", "variable": "Sitios de Inter\u00e9s Poblacional", "Nombres": "Iglesia - (place_of_worship)", "POINT_X": -71.6181181, "POINT_Y": -34.3972265991}}, {"type": "Feature", "geometry": {"type": "Point", "coordinates": [-72.0063326, -34.397144499100015]}, "properties": {"CUT_REG": "06", "CUT_PROV": "062", "CUT_COM": "06201", "REGION": "Libertador General Bernardo O'Higgins", "PROVINCIA": "Cardenal Caro", "COMUNA": "Pichilemu", "variable": "Sitios de Inter\u00e9s Poblacional", "Nombres": "- (turning_circle)", "POINT_X": -72.0063326, "POINT_Y": -34.3971444991}}, {"type": "Feature", "geometry": {"type": "Point", "coordinates": [-71.61943979999998, -34.39710769909999]}, "properties": {"CUT_REG": "06", "CUT_PROV": "062", "CUT_COM": "06204", "REGION": "Libertador General Bernardo O'Higgins", "PROVINCIA": "Cardenal Caro", "COMUNA": "Marchihue", "variable": "Sitios de Inter\u00e9s Poblacional", "Nombres": "Instituto C. Caro - (college)", "POINT_X": -71.6194398, "POINT_Y": -34.3971076991}}, {"type": "Feature", "geometry": {"type": "Point", "coordinates": [-71.6188109, -34.39675109909997]}, "properties": {"CUT_REG": "06", "CUT_PROV": "062", "CUT_COM": "06204", "REGION": "Libertador General Bernardo O'Higgins", "PROVINCIA": "Cardenal Caro", "COMUNA": "Marchihue", "variable": "Sitios de Inter\u00e9s Poblacional", "Nombres": "- (bank)", "POINT_X": -71.6188109, "POINT_Y": -34.3967510991}}, {"type": "Feature", "geometry": {"type": "Point", "coordinates": [-71.61885569999997, -34.3966311991]}, "properties": {"CUT_REG": "06", "CUT_PROV": "062", "CUT_COM": "06204", "REGION": "Libertador General Bernardo O'Higgins", "PROVINCIA": "Cardenal Caro", "COMUNA": "Marchihue", "variable": "Sitios de Inter\u00e9s Poblacional", "Nombres": "- (Municipalidad)", "POINT_X": -71.6188557, "POINT_Y": -34.3966311991}}, {"type": "Feature", "geometry": {"type": "Point", "coordinates": [-71.9896277, -34.39451529909999]}, "properties": {"CUT_REG": "06", "CUT_PROV": "062", "CUT_COM": "06201", "REGION": "Libertador General Bernardo O'Higgins", "PROVINCIA": "Cardenal Caro", "COMUNA": "Pichilemu", "variable": "Sitios de Inter\u00e9s Poblacional", "Nombres": "Escuela Divino Maestro - (school)", "POINT_X": -71.9896277, "POINT_Y": -34.3945152991}}, {"type": "Feature", "geometry": {"type": "Point", "coordinates": [-72.01892909999995, -34.39418429909996]}, "properties": {"CUT_REG": "06", "CUT_PROV": "062", "CUT_COM": "06201", "REGION": "Libertador General Bernardo O'Higgins", "PROVINCIA": "Cardenal Caro", "COMUNA": "Pichilemu", "variable": "Sitios de Inter\u00e9s Poblacional", "Nombres": "Almacen Franco's - (convenience)", "POINT_X": -72.0189291, "POINT_Y": -34.3941842991}}, {"type": "Feature", "geometry": {"type": "Point", "coordinates": [-72.01325010000001, -34.393820199100034]}, "properties": {"CUT_REG": "06", "CUT_PROV": "062", "CUT_COM": "06201", "REGION": "Libertador General Bernardo O'Higgins", "PROVINCIA": "Cardenal Caro", "COMUNA": "Pichilemu", "variable": "Sitios de Inter\u00e9s Poblacional", "Nombres": "- (turning_circle)", "POINT_X": -72.0132501, "POINT_Y": -34.3938201991}}, {"type": "Feature", "geometry": {"type": "Point", "coordinates": [-72.01367870000004, -34.393775499099974]}, "properties": {"CUT_REG": "06", "CUT_PROV": "062", "CUT_COM": "06201", "REGION": "Libertador General Bernardo O'Higgins", "PROVINCIA": "Cardenal Caro", "COMUNA": "Pichilemu", "variable": "Sitios de Inter\u00e9s Poblacional", "Nombres": "- (turning_circle)", "POINT_X": -72.0136787, "POINT_Y": -34.3937754991}}, {"type": "Feature", "geometry": {"type": "Point", "coordinates": [-72.00559929999999, -34.39348649909996]}, "properties": {"CUT_REG": "06", "CUT_PROV": "062", "CUT_COM": "06201", "REGION": "Libertador General Bernardo O'Higgins", "PROVINCIA": "Cardenal Caro", "COMUNA": "Pichilemu", "variable": "Sitios de Inter\u00e9s Poblacional", "Nombres": "Supermercado Sagitario - (convenience)", "POINT_X": -72.0055993, "POINT_Y": -34.3934864991}}, {"type": "Feature", "geometry": {"type": "Point", "coordinates": [-72.01832289999999, -34.39330789910001]}, "properties": {"CUT_REG": "06", "CUT_PROV": "062", "CUT_COM": "06201", "REGION": "Libertador General Bernardo O'Higgins", "PROVINCIA": "Cardenal Caro", "COMUNA": "Pichilemu", "variable": "Sitios de Inter\u00e9s Poblacional", "Nombres": "Restaurant Los Aviadores - (restaurant)", "POINT_X": -72.0183229, "POINT_Y": -34.3933078991}}, {"type": "Feature", "geometry": {"type": "Point", "coordinates": [-72.00363039999996, -34.39330699910003]}, "properties": {"CUT_REG": "06", "CUT_PROV": "062", "CUT_COM": "06201", "REGION": "Libertador General Bernardo O'Higgins", "PROVINCIA": "Cardenal Caro", "COMUNA": "Pichilemu", "variable": "Sitios de Inter\u00e9s Poblacional", "Nombres": "Hoster\u00eda La Gloria - (restaurant)", "POINT_X": -72.0036304, "POINT_Y": -34.3933069991}}, {"type": "Feature", "geometry": {"type": "Point", "coordinates": [-72.00219129999999, -34.393077999099994]}, "properties": {"CUT_REG": "06", "CUT_PROV": "062", "CUT_COM": "06201", "REGION": "Libertador General Bernardo O'Higgins", "PROVINCIA": "Cardenal Caro", "COMUNA": "Pichilemu", "variable": "Sitios de Inter\u00e9s Poblacional", "Nombres": "Radio Entre Olas - (studio)", "POINT_X": -72.0021913, "POINT_Y": -34.3930779991}}, {"type": "Feature", "geometry": {"type": "Point", "coordinates": [-72.02007769999996, -34.39306049909997]}, "properties": {"CUT_REG": "06", "CUT_PROV": "062", "CUT_COM": "06201", "REGION": "Libertador General Bernardo O'Higgins", "PROVINCIA": "Cardenal Caro", "COMUNA": "Pichilemu", "variable": "Sitios de Inter\u00e9s Poblacional", "Nombres": "Caba\u00f1as Tulum - (hostel)", "POINT_X": -72.0200777, "POINT_Y": -34.3930604991}}, {"type": "Feature", "geometry": {"type": "Point", "coordinates": [-71.99058899999997, -34.39292059910003]}, "properties": {"CUT_REG": "06", "CUT_PROV": "062", "CUT_COM": "06201", "REGION": "Libertador General Bernardo O'Higgins", "PROVINCIA": "Cardenal Caro", "COMUNA": "Pichilemu", "variable": "Sitios de Inter\u00e9s Poblacional", "Nombres": "Don Beto - (convenience)", "POINT_X": -71.990589, "POINT_Y": -34.3929205991}}, {"type": "Feature", "geometry": {"type": "Point", "coordinates": [-72.00650759999999, -34.39269329909996]}, "properties": {"CUT_REG": "06", "CUT_PROV": "062", "CUT_COM": "06201", "REGION": "Libertador General Bernardo O'Higgins", "PROVINCIA": "Cardenal Caro", "COMUNA": "Pichilemu", "variable": "Sitios de Inter\u00e9s Poblacional", "Nombres": "Jard\u00edn Infantil Amanecer - (kindergarten)", "POINT_X": -72.0065076, "POINT_Y": -34.3926932991}}, {"type": "Feature", "geometry": {"type": "Point", "coordinates": [-72.00602820000003, -34.392617699100015]}, "properties": {"CUT_REG": "06", "CUT_PROV": "062", "CUT_COM": "06201", "REGION": "Libertador General Bernardo O'Higgins", "PROVINCIA": "Cardenal Caro", "COMUNA": "Pichilemu", "variable": "Sitios de Inter\u00e9s Poblacional", "Nombres": "Labarca - (supermarket)", "POINT_X": -72.0060282, "POINT_Y": -34.3926176991}}, {"type": "Feature", "geometry": {"type": "Point", "coordinates": [-72.00624629999996, -34.39168589910001]}, "properties": {"CUT_REG": "06", "CUT_PROV": "062", "CUT_COM": "06201", "REGION": "Libertador General Bernardo O'Higgins", "PROVINCIA": "Cardenal Caro", "COMUNA": "Pichilemu", "variable": "Sitios de Inter\u00e9s Poblacional", "Nombres": "- (bus_stop)", "POINT_X": -72.0062463, "POINT_Y": -34.3916858991}}, {"type": "Feature", "geometry": {"type": "Point", "coordinates": [-72.00634719999996, -34.39151499909999]}, "properties": {"CUT_REG": "06", "CUT_PROV": "062", "CUT_COM": "06201", "REGION": "Libertador General Bernardo O'Higgins", "PROVINCIA": "Cardenal Caro", "COMUNA": "Pichilemu", "variable": "Sitios de Inter\u00e9s Poblacional", "Nombres": "- (bus_stop)", "POINT_X": -72.0063472, "POINT_Y": -34.3915149991}}, {"type": "Feature", "geometry": {"type": "Point", "coordinates": [-72.00314360000002, -34.39120869909996]}, "properties": {"CUT_REG": "06", "CUT_PROV": "062", "CUT_COM": "06201", "REGION": "Libertador General Bernardo O'Higgins", "PROVINCIA": "Cardenal Caro", "COMUNA": "Pichilemu", "variable": "Sitios de Inter\u00e9s Poblacional", "Nombres": "Defensor\u00eda Penal P\u00fablica - (defender)", "POINT_X": -72.0031436, "POINT_Y": -34.3912086991}}, {"type": "Feature", "geometry": {"type": "Point", "coordinates": [-72.00725319999995, -34.391189999100014]}, "properties": {"CUT_REG": "06", "CUT_PROV": "062", "CUT_COM": "06201", "REGION": "Libertador General Bernardo O'Higgins", "PROVINCIA": "Cardenal Caro", "COMUNA": "Pichilemu", "variable": "Sitios de Inter\u00e9s Poblacional", "Nombres": "Minimarket El Poronguito - (convenience)", "POINT_X": -72.0072532, "POINT_Y": -34.3911899991}}, {"type": "Feature", "geometry": {"type": "Point", "coordinates": [-72.01642899999996, -34.390917699100044]}, "properties": {"CUT_REG": "06", "CUT_PROV": "062", "CUT_COM": "06201", "REGION": "Libertador General Bernardo O'Higgins", "PROVINCIA": "Cardenal Caro", "COMUNA": "Pichilemu", "variable": "Sitios de Inter\u00e9s Poblacional", "Nombres": "Ferreter\u00eda - (doityourself)", "POINT_X": -72.016429, "POINT_Y": -34.3909176991}}, {"type": "Feature", "geometry": {"type": "Point", "coordinates": [-72.01675119999996, -34.3909085991]}, "properties": {"CUT_REG": "06", "CUT_PROV": "062", "CUT_COM": "06201", "REGION": "Libertador General Bernardo O'Higgins", "PROVINCIA": "Cardenal Caro", "COMUNA": "Pichilemu", "variable": "Sitios de Inter\u00e9s Poblacional", "Nombres": "Supermercado El Diamante - (convenience)", "POINT_X": -72.0167512, "POINT_Y": -34.3909085991}}, {"type": "Feature", "geometry": {"type": "Point", "coordinates": [-72.01525450000003, -34.39067399910004]}, "properties": {"CUT_REG": "06", "CUT_PROV": "062", "CUT_COM": "06201", "REGION": "Libertador General Bernardo O'Higgins", "PROVINCIA": "Cardenal Caro", "COMUNA": "Pichilemu", "variable": "Sitios de Inter\u00e9s Poblacional", "Nombres": "Terminal de Buses Pichilemu - (bus_station)", "POINT_X": -72.0152545, "POINT_Y": -34.3906739991}}, {"type": "Feature", "geometry": {"type": "Point", "coordinates": [-71.73583020000001, -34.39004529909998]}, "properties": {"CUT_REG": "06", "CUT_PROV": "062", "CUT_COM": "06204", "REGION": "Libertador General Bernardo O'Higgins", "PROVINCIA": "Cardenal Caro", "COMUNA": "Marchihue", "variable": "Sitios de Inter\u00e9s Poblacional", "Nombres": "Templo de Nuestra Se\u00f1ora de la Merced - (place_of", "POINT_X": -71.7358302, "POINT_Y": -34.3900452991}}, {"type": "Feature", "geometry": {"type": "Point", "coordinates": [-72.0024038, -34.38979339910001]}, "properties": {"CUT_REG": "06", "CUT_PROV": "062", "CUT_COM": "06201", "REGION": "Libertador General Bernardo O'Higgins", "PROVINCIA": "Cardenal Caro", "COMUNA": "Pichilemu", "variable": "Sitios de Inter\u00e9s Poblacional", "Nombres": "- (bus_stop)", "POINT_X": -72.0024038, "POINT_Y": -34.3897933991}}, {"type": "Feature", "geometry": {"type": "Point", "coordinates": [-72.01135409999998, -34.389616699100046]}, "properties": {"CUT_REG": "06", "CUT_PROV": "062", "CUT_COM": "06201", "REGION": "Libertador General Bernardo O'Higgins", "PROVINCIA": "Cardenal Caro", "COMUNA": "Pichilemu", "variable": "Sitios de Inter\u00e9s Poblacional", "Nombres": "Oficina Provincial CONAF - (public_building)", "POINT_X": -72.0113541, "POINT_Y": -34.3896166991}}, {"type": "Feature", "geometry": {"type": "Point", "coordinates": [-72.02058329999996, -34.389522999100016]}, "properties": {"CUT_REG": "06", "CUT_PROV": "062", "CUT_COM": "06201", "REGION": "Libertador General Bernardo O'Higgins", "PROVINCIA": "Cardenal Caro", "COMUNA": "Pichilemu", "variable": "Sitios de Inter\u00e9s Poblacional", "Nombres": "Costa Luna - (restaurant)", "POINT_X": -72.0205833, "POINT_Y": -34.3895229991}}, {"type": "Feature", "geometry": {"type": "Point", "coordinates": [-72.0012778, -34.389013399100044]}, "properties": {"CUT_REG": "06", "CUT_PROV": "062", "CUT_COM": "06201", "REGION": "Libertador General Bernardo O'Higgins", "PROVINCIA": "Cardenal Caro", "COMUNA": "Pichilemu", "variable": "Sitios de Inter\u00e9s Poblacional", "Nombres": "Instituto de Previsi\u00f3n Social / ChileAtiende - (p", "POINT_X": -72.0012778, "POINT_Y": -34.3890133991}}, {"type": "Feature", "geometry": {"type": "Point", "coordinates": [-72.00306879999995, -34.38879939910001]}, "properties": {"CUT_REG": "06", "CUT_PROV": "062", "CUT_COM": "06201", "REGION": "Libertador General Bernardo O'Higgins", "PROVINCIA": "Cardenal Caro", "COMUNA": "Pichilemu", "variable": "Sitios de Inter\u00e9s Poblacional", "Nombres": "Canal 3 Pichilemu - (studio)", "POINT_X": -72.0030688, "POINT_Y": -34.3887993991}}, {"type": "Feature", "geometry": {"type": "Point", "coordinates": [-72.00436659999995, -34.38869449910003]}, "properties": {"CUT_REG": "06", "CUT_PROV": "062", "CUT_COM": "06201", "REGION": "Libertador General Bernardo O'Higgins", "PROVINCIA": "Cardenal Caro", "COMUNA": "Pichilemu", "variable": "Sitios de Inter\u00e9s Poblacional", "Nombres": "Ministerio P\u00fablico - (prosecutor)", "POINT_X": -72.0043666, "POINT_Y": -34.3886944991}}, {"type": "Feature", "geometry": {"type": "Point", "coordinates": [-72.00694910000001, -34.3886017991]}, "properties": {"CUT_REG": "06", "CUT_PROV": "062", "CUT_COM": "06201", "REGION": "Libertador General Bernardo O'Higgins", "PROVINCIA": "Cardenal Caro", "COMUNA": "Pichilemu", "variable": "Sitios de Inter\u00e9s Poblacional", "Nombres": "La Pic\u00e1 del Negro - (restaurant)", "POINT_X": -72.0069491, "POINT_Y": -34.3886017991}}, {"type": "Feature", "geometry": {"type": "Point", "coordinates": [-72.00317639999997, -34.388587599099985]}, "properties": {"CUT_REG": "06", "CUT_PROV": "062", "CUT_COM": "06201", "REGION": "Libertador General Bernardo O'Higgins", "PROVINCIA": "Cardenal Caro", "COMUNA": "Pichilemu", "variable": "Sitios de Inter\u00e9s Poblacional", "Nombres": "- (bus_stop)", "POINT_X": -72.0031764, "POINT_Y": -34.3885875991}}, {"type": "Feature", "geometry": {"type": "Point", "coordinates": [-72.00794830000001, -34.38857779909997]}, "properties": {"CUT_REG": "06", "CUT_PROV": "062", "CUT_COM": "06201", "REGION": "Libertador General Bernardo O'Higgins", "PROVINCIA": "Cardenal Caro", "COMUNA": "Pichilemu", "variable": "Sitios de Inter\u00e9s Poblacional", "Nombres": "Viva Chile - (pub)", "POINT_X": -72.0079483, "POINT_Y": -34.3885777991}}, {"type": "Feature", "geometry": {"type": "Point", "coordinates": [-72.00676670000003, -34.388429099100016]}, "properties": {"CUT_REG": "06", "CUT_PROV": "062", "CUT_COM": "06201", "REGION": "Libertador General Bernardo O'Higgins", "PROVINCIA": "Cardenal Caro", "COMUNA": "Pichilemu", "variable": "Sitios de Inter\u00e9s Poblacional", "Nombres": "La Pic\u00e1 del Negro 2 - (restaurant)", "POINT_X": -72.0067667, "POINT_Y": -34.3884290991}}, {"type": "Feature", "geometry": {"type": "Point", "coordinates": [-72.00841630000001, -34.38841379909999]}, "properties": {"CUT_REG": "06", "CUT_PROV": "062", "CUT_COM": "06201", "REGION": "Libertador General Bernardo O'Higgins", "PROVINCIA": "Cardenal Caro", "COMUNA": "Pichilemu", "variable": "Sitios de Inter\u00e9s Poblacional", "Nombres": "Departamento Provincial de Educaci\u00f3n Cardenal C -", "POINT_X": -72.0084163, "POINT_Y": -34.3884137991}}, {"type": "Feature", "geometry": {"type": "Point", "coordinates": [-72.00206920000002, -34.38787249909997]}, "properties": {"CUT_REG": "06", "CUT_PROV": "062", "CUT_COM": "06201", "REGION": "Libertador General Bernardo O'Higgins", "PROVINCIA": "Cardenal Caro", "COMUNA": "Pichilemu", "variable": "Sitios de Inter\u00e9s Poblacional", "Nombres": "Asthur - (hotel)", "POINT_X": -72.0020692, "POINT_Y": -34.3878724991}}, {"type": "Feature", "geometry": {"type": "Point", "coordinates": [-72.00635359999995, -34.38768469909997]}, "properties": {"CUT_REG": "06", "CUT_PROV": "062", "CUT_COM": "06201", "REGION": "Libertador General Bernardo O'Higgins", "PROVINCIA": "Cardenal Caro", "COMUNA": "Pichilemu", "variable": "Sitios de Inter\u00e9s Poblacional", "Nombres": "ex - (nightclub)", "POINT_X": -72.0063536, "POINT_Y": -34.3876846991}}, {"type": "Feature", "geometry": {"type": "Point", "coordinates": [-72.006543, -34.387638899100004]}, "properties": {"CUT_REG": "06", "CUT_PROV": "062", "CUT_COM": "06201", "REGION": "Libertador General Bernardo O'Higgins", "PROVINCIA": "Cardenal Caro", "COMUNA": "Pichilemu", "variable": "Sitios de Inter\u00e9s Poblacional", "Nombres": "- (taxi)", "POINT_X": -72.006543, "POINT_Y": -34.3876388991}}, {"type": "Feature", "geometry": {"type": "Point", "coordinates": [-72.00646789999999, -34.38759459909998]}, "properties": {"CUT_REG": "06", "CUT_PROV": "062", "CUT_COM": "06201", "REGION": "Libertador General Bernardo O'Higgins", "PROVINCIA": "Cardenal Caro", "COMUNA": "Pichilemu", "variable": "Sitios de Inter\u00e9s Poblacional", "Nombres": "- (taxi)", "POINT_X": -72.0064679, "POINT_Y": -34.3875945991}}, {"type": "Feature", "geometry": {"type": "Point", "coordinates": [-72.00630459999999, -34.38751679910003]}, "properties": {"CUT_REG": "06", "CUT_PROV": "062", "CUT_COM": "06201", "REGION": "Libertador General Bernardo O'Higgins", "PROVINCIA": "Cardenal Caro", "COMUNA": "Pichilemu", "variable": "Sitios de Inter\u00e9s Poblacional", "Nombres": "Los Colchag\u00fcinos - (restaurant)", "POINT_X": -72.0063046, "POINT_Y": -34.3875167991}}, {"type": "Feature", "geometry": {"type": "Point", "coordinates": [-72.00621409999997, -34.38747289910003]}, "properties": {"CUT_REG": "06", "CUT_PROV": "062", "CUT_COM": "06201", "REGION": "Libertador General Bernardo O'Higgins", "PROVINCIA": "Cardenal Caro", "COMUNA": "Pichilemu", "variable": "Sitios de Inter\u00e9s Poblacional", "Nombres": "Pistonald's - (fast_food)", "POINT_X": -72.0062141, "POINT_Y": -34.3874728991}}, {"type": "Feature", "geometry": {"type": "Point", "coordinates": [-72.00615780000001, -34.38744409909996]}, "properties": {"CUT_REG": "06", "CUT_PROV": "062", "CUT_COM": "06201", "REGION": "Libertador General Bernardo O'Higgins", "PROVINCIA": "Cardenal Caro", "COMUNA": "Pichilemu", "variable": "Sitios de Inter\u00e9s Poblacional", "Nombres": "El Rey del Baj\u00f3n - (fast_food)", "POINT_X": -72.0061578, "POINT_Y": -34.3874440991}}, {"type": "Feature", "geometry": {"type": "Point", "coordinates": [-72.00610149999997, -34.387419799099995]}, "properties": {"CUT_REG": "06", "CUT_PROV": "062", "CUT_COM": "06201", "REGION": "Libertador General Bernardo O'Higgins", "PROVINCIA": "Cardenal Caro", "COMUNA": "Pichilemu", "variable": "Sitios de Inter\u00e9s Poblacional", "Nombres": "Casa de las Empanadas - (fast_food)", "POINT_X": -72.0061015, "POINT_Y": -34.3874197991}}, {"type": "Feature", "geometry": {"type": "Point", "coordinates": [-72.00596470000002, -34.38735999910002]}, "properties": {"CUT_REG": "06", "CUT_PROV": "062", "CUT_COM": "06201", "REGION": "Libertador General Bernardo O'Higgins", "PROVINCIA": "Cardenal Caro", "COMUNA": "Pichilemu", "variable": "Sitios de Inter\u00e9s Poblacional", "Nombres": "Farmacia Posto Verde - (pharmacy)", "POINT_X": -72.0059647, "POINT_Y": -34.3873599991}}, {"type": "Feature", "geometry": {"type": "Point", "coordinates": [-72.00288080000003, -34.38733629910001]}, "properties": {"CUT_REG": "06", "CUT_PROV": "062", "CUT_COM": "06201", "REGION": "Libertador General Bernardo O'Higgins", "PROVINCIA": "Cardenal Caro", "COMUNA": "Pichilemu", "variable": "Sitios de Inter\u00e9s Poblacional", "Nombres": "Ort\u00fazar - (bakery)", "POINT_X": -72.0028808, "POINT_Y": -34.3873362991}}, {"type": "Feature", "geometry": {"type": "Point", "coordinates": [-72.00618659999999, -34.38732529909999]}, "properties": {"CUT_REG": "06", "CUT_PROV": "062", "CUT_COM": "06201", "REGION": "Libertador General Bernardo O'Higgins", "PROVINCIA": "Cardenal Caro", "COMUNA": "Pichilemu", "variable": "Sitios de Inter\u00e9s Poblacional", "Nombres": "La Casona - (restaurant)", "POINT_X": -72.0061866, "POINT_Y": -34.3873252991}}, {"type": "Feature", "geometry": {"type": "Point", "coordinates": [-72.00605099999996, -34.38727159909999]}, "properties": {"CUT_REG": "06", "CUT_PROV": "062", "CUT_COM": "06201", "REGION": "Libertador General Bernardo O'Higgins", "PROVINCIA": "Cardenal Caro", "COMUNA": "Pichilemu", "variable": "Sitios de Inter\u00e9s Poblacional", "Nombres": "100% Pizza - (fast_food)", "POINT_X": -72.006051, "POINT_Y": -34.3872715991}}, {"type": "Feature", "geometry": {"type": "Point", "coordinates": [-72.00639549999997, -34.38726979910002]}, "properties": {"CUT_REG": "06", "CUT_PROV": "062", "CUT_COM": "06201", "REGION": "Libertador General Bernardo O'Higgins", "PROVINCIA": "Cardenal Caro", "COMUNA": "Pichilemu", "variable": "Sitios de Inter\u00e9s Poblacional", "Nombres": "Donde Johnny - (alcohol)", "POINT_X": -72.0063955, "POINT_Y": -34.3872697991}}, {"type": "Feature", "geometry": {"type": "Point", "coordinates": [-72.00510739999996, -34.38724619910002]}, "properties": {"CUT_REG": "06", "CUT_PROV": "062", "CUT_COM": "06201", "REGION": "Libertador General Bernardo O'Higgins", "PROVINCIA": "Cardenal Caro", "COMUNA": "Pichilemu", "variable": "Sitios de Inter\u00e9s Poblacional", "Nombres": "Feria Artesanal - (marketplace)", "POINT_X": -72.0051074, "POINT_Y": -34.3872461991}}, {"type": "Feature", "geometry": {"type": "Point", "coordinates": [-72.007855, -34.387245899099995]}, "properties": {"CUT_REG": "06", "CUT_PROV": "062", "CUT_COM": "06201", "REGION": "Libertador General Bernardo O'Higgins", "PROVINCIA": "Cardenal Caro", "COMUNA": "Pichilemu", "variable": "Sitios de Inter\u00e9s Poblacional", "Nombres": "Servicio de Impuestos Internos - (public_building)", "POINT_X": -72.007855, "POINT_Y": -34.3872458991}}, {"type": "Feature", "geometry": {"type": "Point", "coordinates": [-72.00295529999997, -34.38724119909996]}, "properties": {"CUT_REG": "06", "CUT_PROV": "062", "CUT_COM": "06201", "REGION": "Libertador General Bernardo O'Higgins", "PROVINCIA": "Cardenal Caro", "COMUNA": "Pichilemu", "variable": "Sitios de Inter\u00e9s Poblacional", "Nombres": "La Ferre - (hardware)", "POINT_X": -72.0029553, "POINT_Y": -34.3872411991}}, {"type": "Feature", "geometry": {"type": "Point", "coordinates": [-72.00642229999995, -34.38722549909999]}, "properties": {"CUT_REG": "06", "CUT_PROV": "062", "CUT_COM": "06201", "REGION": "Libertador General Bernardo O'Higgins", "PROVINCIA": "Cardenal Caro", "COMUNA": "Pichilemu", "variable": "Sitios de Inter\u00e9s Poblacional", "Nombres": "Maxx Sabor - (fast_food)", "POINT_X": -72.0064223, "POINT_Y": -34.3872254991}}, {"type": "Feature", "geometry": {"type": "Point", "coordinates": [-72.00783289999995, -34.38715429909996]}, "properties": {"CUT_REG": "06", "CUT_PROV": "062", "CUT_COM": "06201", "REGION": "Libertador General Bernardo O'Higgins", "PROVINCIA": "Cardenal Caro", "COMUNA": "Pichilemu", "variable": "Sitios de Inter\u00e9s Poblacional", "Nombres": "- (traffic_signals)", "POINT_X": -72.0078329, "POINT_Y": -34.3871542991}}, {"type": "Feature", "geometry": {"type": "Point", "coordinates": [-72.00581029999995, -34.38714699909998]}, "properties": {"CUT_REG": "06", "CUT_PROV": "062", "CUT_COM": "06201", "REGION": "Libertador General Bernardo O'Higgins", "PROVINCIA": "Cardenal Caro", "COMUNA": "Pichilemu", "variable": "Sitios de Inter\u00e9s Poblacional", "Nombres": "Ducal - (hotel)", "POINT_X": -72.0058103, "POINT_Y": -34.3871469991}}, {"type": "Feature", "geometry": {"type": "Point", "coordinates": [-72.00558060000003, -34.38714179909999]}, "properties": {"CUT_REG": "06", "CUT_PROV": "062", "CUT_COM": "06201", "REGION": "Libertador General Bernardo O'Higgins", "PROVINCIA": "Cardenal Caro", "COMUNA": "Pichilemu", "variable": "Sitios de Inter\u00e9s Poblacional", "Nombres": "Montecarlo - (hotel)", "POINT_X": -72.0055806, "POINT_Y": -34.3871417991}}, {"type": "Feature", "geometry": {"type": "Point", "coordinates": [-72.00544859999995, -34.38713419909999]}, "properties": {"CUT_REG": "06", "CUT_PROV": "062", "CUT_COM": "06201", "REGION": "Libertador General Bernardo O'Higgins", "PROVINCIA": "Cardenal Caro", "COMUNA": "Pichilemu", "variable": "Sitios de Inter\u00e9s Poblacional", "Nombres": "- (taxi)", "POINT_X": -72.0054486, "POINT_Y": -34.3871341991}}, {"type": "Feature", "geometry": {"type": "Point", "coordinates": [-72.00253849999996, -34.38713239910002]}, "properties": {"CUT_REG": "06", "CUT_PROV": "062", "CUT_COM": "06201", "REGION": "Libertador General Bernardo O'Higgins", "PROVINCIA": "Cardenal Caro", "COMUNA": "Pichilemu", "variable": "Sitios de Inter\u00e9s Poblacional", "Nombres": "- (taxi)", "POINT_X": -72.0025385, "POINT_Y": -34.3871323991}}, {"type": "Feature", "geometry": {"type": "Point", "coordinates": [-72.00773299999996, -34.387130099100006]}, "properties": {"CUT_REG": "06", "CUT_PROV": "062", "CUT_COM": "06201", "REGION": "Libertador General Bernardo O'Higgins", "PROVINCIA": "Cardenal Caro", "COMUNA": "Pichilemu", "variable": "Sitios de Inter\u00e9s Poblacional", "Nombres": "- (bus_stop)", "POINT_X": -72.007733, "POINT_Y": -34.3871300991}}, {"type": "Feature", "geometry": {"type": "Point", "coordinates": [-72.00549360000002, -34.3871063991]}, "properties": {"CUT_REG": "06", "CUT_PROV": "062", "CUT_COM": "06201", "REGION": "Libertador General Bernardo O'Higgins", "PROVINCIA": "Cardenal Caro", "COMUNA": "Pichilemu", "variable": "Sitios de Inter\u00e9s Poblacional", "Nombres": "D'Carlo 2 - (alcohol)", "POINT_X": -72.0054936, "POINT_Y": -34.3871063991}}, {"type": "Feature", "geometry": {"type": "Point", "coordinates": [-72.00555040000003, -34.387024999100014]}, "properties": {"CUT_REG": "06", "CUT_PROV": "062", "CUT_COM": "06201", "REGION": "Libertador General Bernardo O'Higgins", "PROVINCIA": "Cardenal Caro", "COMUNA": "Pichilemu", "variable": "Sitios de Inter\u00e9s Poblacional", "Nombres": "Ducal - (restaurant)", "POINT_X": -72.0055504, "POINT_Y": -34.3870249991}}, {"type": "Feature", "geometry": {"type": "Point", "coordinates": [-72.0052839, -34.38701359909996]}, "properties": {"CUT_REG": "06", "CUT_PROV": "062", "CUT_COM": "06201", "REGION": "Libertador General Bernardo O'Higgins", "PROVINCIA": "Cardenal Caro", "COMUNA": "Pichilemu", "variable": "Sitios de Inter\u00e9s Poblacional", "Nombres": "Botiller\u00eda One - (alcohol)", "POINT_X": -72.0052839, "POINT_Y": -34.3870135991}}, {"type": "Feature", "geometry": {"type": "Point", "coordinates": [-72.00516539999997, -34.38695419910002]}, "properties": {"CUT_REG": "06", "CUT_PROV": "062", "CUT_COM": "06201", "REGION": "Libertador General Bernardo O'Higgins", "PROVINCIA": "Cardenal Caro", "COMUNA": "Pichilemu", "variable": "Sitios de Inter\u00e9s Poblacional", "Nombres": "Papa Pollo - (fast_food)", "POINT_X": -72.0051654, "POINT_Y": -34.3869541991}}, {"type": "Feature", "geometry": {"type": "Point", "coordinates": [-71.99780159999997, -34.386880799099984]}, "properties": {"CUT_REG": "06", "CUT_PROV": "062", "CUT_COM": "06201", "REGION": "Libertador General Bernardo O'Higgins", "PROVINCIA": "Cardenal Caro", "COMUNA": "Pichilemu", "variable": "Sitios de Inter\u00e9s Poblacional", "Nombres": "- (bus_stop)", "POINT_X": -71.9978016, "POINT_Y": -34.3868807991}}, {"type": "Feature", "geometry": {"type": "Point", "coordinates": [-72.00494190000003, -34.386828499100005]}, "properties": {"CUT_REG": "06", "CUT_PROV": "062", "CUT_COM": "06201", "REGION": "Libertador General Bernardo O'Higgins", "PROVINCIA": "Cardenal Caro", "COMUNA": "Pichilemu", "variable": "Sitios de Inter\u00e9s Poblacional", "Nombres": "Blue - (fast_food)", "POINT_X": -72.0049419, "POINT_Y": -34.3868284991}}, {"type": "Feature", "geometry": {"type": "Point", "coordinates": [-72.00487029999996, -34.386794399100026]}, "properties": {"CUT_REG": "06", "CUT_PROV": "062", "CUT_COM": "06201", "REGION": "Libertador General Bernardo O'Higgins", "PROVINCIA": "Cardenal Caro", "COMUNA": "Pichilemu", "variable": "Sitios de Inter\u00e9s Poblacional", "Nombres": "Dokas - (fast_food)", "POINT_X": -72.0048703, "POINT_Y": -34.3867943991}}, {"type": "Feature", "geometry": {"type": "Point", "coordinates": [-72.00429560000003, -34.38674649909997]}, "properties": {"CUT_REG": "06", "CUT_PROV": "062", "CUT_COM": "06201", "REGION": "Libertador General Bernardo O'Higgins", "PROVINCIA": "Cardenal Caro", "COMUNA": "Pichilemu", "variable": "Sitios de Inter\u00e9s Poblacional", "Nombres": "Disco 127 - (nightclub)", "POINT_X": -72.0042956, "POINT_Y": -34.3867464991}}, {"type": "Feature", "geometry": {"type": "Point", "coordinates": [-72.00505579999995, -34.3867425991]}, "properties": {"CUT_REG": "06", "CUT_PROV": "062", "CUT_COM": "06201", "REGION": "Libertador General Bernardo O'Higgins", "PROVINCIA": "Cardenal Caro", "COMUNA": "Pichilemu", "variable": "Sitios de Inter\u00e9s Poblacional", "Nombres": "D'Carlo - (alcohol)", "POINT_X": -72.0050558, "POINT_Y": -34.3867425991}}, {"type": "Feature", "geometry": {"type": "Point", "coordinates": [-71.99751719999998, -34.386733799099986]}, "properties": {"CUT_REG": "06", "CUT_PROV": "062", "CUT_COM": "06201", "REGION": "Libertador General Bernardo O'Higgins", "PROVINCIA": "Cardenal Caro", "COMUNA": "Pichilemu", "variable": "Sitios de Inter\u00e9s Poblacional", "Nombres": "- (traffic_signals)", "POINT_X": -71.9975172, "POINT_Y": -34.3867337991}}, {"type": "Feature", "geometry": {"type": "Point", "coordinates": [-72.0048986, -34.3867091991]}, "properties": {"CUT_REG": "06", "CUT_PROV": "062", "CUT_COM": "06201", "REGION": "Libertador General Bernardo O'Higgins", "PROVINCIA": "Cardenal Caro", "COMUNA": "Pichilemu", "variable": "Sitios de Inter\u00e9s Poblacional", "Nombres": "- (bus_stop)", "POINT_X": -72.0048986, "POINT_Y": -34.3867091991}}, {"type": "Feature", "geometry": {"type": "Point", "coordinates": [-72.00496960000001, -34.38670569909997]}, "properties": {"CUT_REG": "06", "CUT_PROV": "062", "CUT_COM": "06201", "REGION": "Libertador General Bernardo O'Higgins", "PROVINCIA": "Cardenal Caro", "COMUNA": "Pichilemu", "variable": "Sitios de Inter\u00e9s Poblacional", "Nombres": "SurfNet - (computer)", "POINT_X": -72.0049696, "POINT_Y": -34.3867056991}}, {"type": "Feature", "geometry": {"type": "Point", "coordinates": [-71.99756979999998, -34.38667769909996]}, "properties": {"CUT_REG": "06", "CUT_PROV": "062", "CUT_COM": "06201", "REGION": "Libertador General Bernardo O'Higgins", "PROVINCIA": "Cardenal Caro", "COMUNA": "Pichilemu", "variable": "Sitios de Inter\u00e9s Poblacional", "Nombres": "- (taxi)", "POINT_X": -71.9975698, "POINT_Y": -34.3866776991}}, {"type": "Feature", "geometry": {"type": "Point", "coordinates": [-71.99735, -34.386643099100034]}, "properties": {"CUT_REG": "06", "CUT_PROV": "062", "CUT_COM": "06201", "REGION": "Libertador General Bernardo O'Higgins", "PROVINCIA": "Cardenal Caro", "COMUNA": "Pichilemu", "variable": "Sitios de Inter\u00e9s Poblacional", "Nombres": "- (bus_stop)", "POINT_X": -71.99735, "POINT_Y": -34.3866430991}}, {"type": "Feature", "geometry": {"type": "Point", "coordinates": [-71.99178870000003, -34.38655909910001]}, "properties": {"CUT_REG": "06", "CUT_PROV": "062", "CUT_COM": "06201", "REGION": "Libertador General Bernardo O'Higgins", "PROVINCIA": "Cardenal Caro", "COMUNA": "Pichilemu", "variable": "Sitios de Inter\u00e9s Poblacional", "Nombres": "Petrobras - (fuel)", "POINT_X": -71.9917887, "POINT_Y": -34.3865590991}}, {"type": "Feature", "geometry": {"type": "Point", "coordinates": [-72.00345549999997, -34.386556999100016]}, "properties": {"CUT_REG": "06", "CUT_PROV": "062", "CUT_COM": "06201", "REGION": "Libertador General Bernardo O'Higgins", "PROVINCIA": "Cardenal Caro", "COMUNA": "Pichilemu", "variable": "Sitios de Inter\u00e9s Poblacional", "Nombres": "Cruz Verde - (pharmacy)", "POINT_X": -72.0034555, "POINT_Y": -34.3865569991}}, {"type": "Feature", "geometry": {"type": "Point", "coordinates": [-72.00953480000001, -34.38651679909997]}, "properties": {"CUT_REG": "06", "CUT_PROV": "062", "CUT_COM": "06201", "REGION": "Libertador General Bernardo O'Higgins", "PROVINCIA": "Cardenal Caro", "COMUNA": "Pichilemu", "variable": "Sitios de Inter\u00e9s Poblacional", "Nombres": "Oficina de Informaci\u00f3n Tur\u00edstica - (arts_centre)", "POINT_X": -72.0095348, "POINT_Y": -34.3865167991}}, {"type": "Feature", "geometry": {"type": "Point", "coordinates": [-72.01726959999996, -34.386499399100046]}, "properties": {"CUT_REG": "06", "CUT_PROV": "062", "CUT_COM": "06201", "REGION": "Libertador General Bernardo O'Higgins", "PROVINCIA": "Cardenal Caro", "COMUNA": "Pichilemu", "variable": "Sitios de Inter\u00e9s Poblacional", "Nombres": "SUNSET HOSTAL - (hostel)", "POINT_X": -72.0172696, "POINT_Y": -34.3864993991}}, {"type": "Feature", "geometry": {"type": "Point", "coordinates": [-72.00349599999996, -34.3864966991]}, "properties": {"CUT_REG": "06", "CUT_PROV": "062", "CUT_COM": "06201", "REGION": "Libertador General Bernardo O'Higgins", "PROVINCIA": "Cardenal Caro", "COMUNA": "Pichilemu", "variable": "Sitios de Inter\u00e9s Poblacional", "Nombres": "- (taxi)", "POINT_X": -72.003496, "POINT_Y": -34.3864966991}}, {"type": "Feature", "geometry": {"type": "Point", "coordinates": [-72.00304810000002, -34.38644189909999]}, "properties": {"CUT_REG": "06", "CUT_PROV": "062", "CUT_COM": "06201", "REGION": "Libertador General Bernardo O'Higgins", "PROVINCIA": "Cardenal Caro", "COMUNA": "Pichilemu", "variable": "Sitios de Inter\u00e9s Poblacional", "Nombres": "Barros Caf\u00e9 y Gelater\u00eda - (cafe)", "POINT_X": -72.0030481, "POINT_Y": -34.3864418991}}, {"type": "Feature", "geometry": {"type": "Point", "coordinates": [-72.00308939999996, -34.386401699099956]}, "properties": {"CUT_REG": "06", "CUT_PROV": "062", "CUT_COM": "06201", "REGION": "Libertador General Bernardo O'Higgins", "PROVINCIA": "Cardenal Caro", "COMUNA": "Pichilemu", "variable": "Sitios de Inter\u00e9s Poblacional", "Nombres": "Central - (bakery)", "POINT_X": -72.0030894, "POINT_Y": -34.3864016991}}, {"type": "Feature", "geometry": {"type": "Point", "coordinates": [-72.00313869999997, -34.386345799100035]}, "properties": {"CUT_REG": "06", "CUT_PROV": "062", "CUT_COM": "06201", "REGION": "Libertador General Bernardo O'Higgins", "PROVINCIA": "Cardenal Caro", "COMUNA": "Pichilemu", "variable": "Sitios de Inter\u00e9s Poblacional", "Nombres": "Farmacia Pichilemu - (pharmacy)", "POINT_X": -72.0031387, "POINT_Y": -34.3863457991}}, {"type": "Feature", "geometry": {"type": "Point", "coordinates": [-72.00252819999999, -34.38634219910001]}, "properties": {"CUT_REG": "06", "CUT_PROV": "062", "CUT_COM": "06201", "REGION": "Libertador General Bernardo O'Higgins", "PROVINCIA": "Cardenal Caro", "COMUNA": "Pichilemu", "variable": "Sitios de Inter\u00e9s Poblacional", "Nombres": "Essbio - (water_tower)", "POINT_X": -72.0025282, "POINT_Y": -34.3863421991}}, {"type": "Feature", "geometry": {"type": "Point", "coordinates": [-72.00421229999998, -34.38629119909996]}, "properties": {"CUT_REG": "06", "CUT_PROV": "062", "CUT_COM": "06201", "REGION": "Libertador General Bernardo O'Higgins", "PROVINCIA": "Cardenal Caro", "COMUNA": "Pichilemu", "variable": "Sitios de Inter\u00e9s Poblacional", "Nombres": "Botiller\u00eda El Metro - (alcohol)", "POINT_X": -72.0042123, "POINT_Y": -34.3862911991}}, {"type": "Feature", "geometry": {"type": "Point", "coordinates": [-72.01083659999998, -34.386263499099975]}, "properties": {"CUT_REG": "06", "CUT_PROV": "062", "CUT_COM": "06201", "REGION": "Libertador General Bernardo O'Higgins", "PROVINCIA": "Cardenal Caro", "COMUNA": "Pichilemu", "variable": "Sitios de Inter\u00e9s Poblacional", "Nombres": "Barracuda - (nightclub)", "POINT_X": -72.0108366, "POINT_Y": -34.3862634991}}, {"type": "Feature", "geometry": {"type": "Point", "coordinates": [-72.00488109999998, -34.386247099099954]}, "properties": {"CUT_REG": "06", "CUT_PROV": "062", "CUT_COM": "06201", "REGION": "Libertador General Bernardo O'Higgins", "PROVINCIA": "Cardenal Caro", "COMUNA": "Pichilemu", "variable": "Sitios de Inter\u00e9s Poblacional", "Nombres": "Residencial San Luis - (guest_house)", "POINT_X": -72.0048811, "POINT_Y": -34.3862470991}}, {"type": "Feature", "geometry": {"type": "Point", "coordinates": [-72.00411290000001, -34.38624299909997]}, "properties": {"CUT_REG": "06", "CUT_PROV": "062", "CUT_COM": "06201", "REGION": "Libertador General Bernardo O'Higgins", "PROVINCIA": "Cardenal Caro", "COMUNA": "Pichilemu", "variable": "Sitios de Inter\u00e9s Poblacional", "Nombres": "Cheers Restobar - (restaurant)", "POINT_X": -72.0041129, "POINT_Y": -34.3862429991}}, {"type": "Feature", "geometry": {"type": "Point", "coordinates": [-72.00463600000003, -34.38611429909998]}, "properties": {"CUT_REG": "06", "CUT_PROV": "062", "CUT_COM": "06201", "REGION": "Libertador General Bernardo O'Higgins", "PROVINCIA": "Cardenal Caro", "COMUNA": "Pichilemu", "variable": "Sitios de Inter\u00e9s Poblacional", "Nombres": "Rocas del Pac\u00edfico - (hotel)", "POINT_X": -72.004636, "POINT_Y": -34.3861142991}}, {"type": "Feature", "geometry": {"type": "Point", "coordinates": [-72.00328420000001, -34.38607889909998]}, "properties": {"CUT_REG": "06", "CUT_PROV": "062", "CUT_COM": "06201", "REGION": "Libertador General Bernardo O'Higgins", "PROVINCIA": "Cardenal Caro", "COMUNA": "Pichilemu", "variable": "Sitios de Inter\u00e9s Poblacional", "Nombres": "- (post_office)", "POINT_X": -72.0032842, "POINT_Y": -34.3860788991}}, {"type": "Feature", "geometry": {"type": "Point", "coordinates": [-72.00363379999999, -34.38607419910004]}, "properties": {"CUT_REG": "06", "CUT_PROV": "062", "CUT_COM": "06201", "REGION": "Libertador General Bernardo O'Higgins", "PROVINCIA": "Cardenal Caro", "COMUNA": "Pichilemu", "variable": "Sitios de Inter\u00e9s Poblacional", "Nombres": "- (traffic_signals)", "POINT_X": -72.0036338, "POINT_Y": -34.3860741991}}, {"type": "Feature", "geometry": {"type": "Point", "coordinates": [-72.0022267, -34.386064199100005]}, "properties": {"CUT_REG": "06", "CUT_PROV": "062", "CUT_COM": "06201", "REGION": "Libertador General Bernardo O'Higgins", "PROVINCIA": "Cardenal Caro", "COMUNA": "Pichilemu", "variable": "Sitios de Inter\u00e9s Poblacional", "Nombres": "Primera Compa\u00f1ia de Bomberos - (fire_station)", "POINT_X": -72.0022267, "POINT_Y": -34.3860641991}}, {"type": "Feature", "geometry": {"type": "Point", "coordinates": [-71.98881559999995, -34.386059799099996]}, "properties": {"CUT_REG": "06", "CUT_PROV": "062", "CUT_COM": "06201", "REGION": "Libertador General Bernardo O'Higgins", "PROVINCIA": "Cardenal Caro", "COMUNA": "Pichilemu", "variable": "Sitios de Inter\u00e9s Poblacional", "Nombres": "Caba\u00f1as Ladera - (motel)", "POINT_X": -71.9888156, "POINT_Y": -34.3860597991}}, {"type": "Feature", "geometry": {"type": "Point", "coordinates": [-72.00354490000001, -34.38602829909997]}, "properties": {"CUT_REG": "06", "CUT_PROV": "062", "CUT_COM": "06201", "REGION": "Libertador General Bernardo O'Higgins", "PROVINCIA": "Cardenal Caro", "COMUNA": "Pichilemu", "variable": "Sitios de Inter\u00e9s Poblacional", "Nombres": "- (traffic_signals)", "POINT_X": -72.0035449, "POINT_Y": -34.3860282991}}, {"type": "Feature", "geometry": {"type": "Point", "coordinates": [-72.00395049999999, -34.38594969910004]}, "properties": {"CUT_REG": "06", "CUT_PROV": "062", "CUT_COM": "06201", "REGION": "Libertador General Bernardo O'Higgins", "PROVINCIA": "Cardenal Caro", "COMUNA": "Pichilemu", "variable": "Sitios de Inter\u00e9s Poblacional", "Nombres": "Balaustro - (restaurant)", "POINT_X": -72.0039505, "POINT_Y": -34.3859496991}}, {"type": "Feature", "geometry": {"type": "Point", "coordinates": [-72.00769320000003, -34.38590049909996]}, "properties": {"CUT_REG": "06", "CUT_PROV": "062", "CUT_COM": "06201", "REGION": "Libertador General Bernardo O'Higgins", "PROVINCIA": "Cardenal Caro", "COMUNA": "Pichilemu", "variable": "Sitios de Inter\u00e9s Poblacional", "Nombres": "- (atm)", "POINT_X": -72.0076932, "POINT_Y": -34.3859004991}}, {"type": "Feature", "geometry": {"type": "Point", "coordinates": [-72.00345050000001, -34.38580449910001]}, "properties": {"CUT_REG": "06", "CUT_PROV": "062", "CUT_COM": "06201", "REGION": "Libertador General Bernardo O'Higgins", "PROVINCIA": "Cardenal Caro", "COMUNA": "Pichilemu", "variable": "Sitios de Inter\u00e9s Poblacional", "Nombres": "Copec - (fuel)", "POINT_X": -72.0034505, "POINT_Y": -34.3858044991}}, {"type": "Feature", "geometry": {"type": "Point", "coordinates": [-72.00023629999998, -34.385690499099994]}, "properties": {"CUT_REG": "06", "CUT_PROV": "062", "CUT_COM": "06201", "REGION": "Libertador General Bernardo O'Higgins", "PROVINCIA": "Cardenal Caro", "COMUNA": "Pichilemu", "variable": "Sitios de Inter\u00e9s Poblacional", "Nombres": "Museo Ex-Estaci\u00f3n - (museum)", "POINT_X": -72.0002363, "POINT_Y": -34.3856904991}}, {"type": "Feature", "geometry": {"type": "Point", "coordinates": [-72.00018899999998, -34.385681799099984]}, "properties": {"CUT_REG": "06", "CUT_PROV": "062", "CUT_COM": "06201", "REGION": "Libertador General Bernardo O'Higgins", "PROVINCIA": "Cardenal Caro", "COMUNA": "Pichilemu", "variable": "Sitios de Inter\u00e9s Poblacional", "Nombres": "Oficina de Informaci\u00f3n Tur\u00edstica - (information)", "POINT_X": -72.000189, "POINT_Y": -34.3856817991}}, {"type": "Feature", "geometry": {"type": "Point", "coordinates": [-72.00416379999996, -34.385668399100034]}, "properties": {"CUT_REG": "06", "CUT_PROV": "062", "CUT_COM": "06201", "REGION": "Libertador General Bernardo O'Higgins", "PROVINCIA": "Cardenal Caro", "COMUNA": "Pichilemu", "variable": "Sitios de Inter\u00e9s Poblacional", "Nombres": "Chile-Espa\u00f1a - (hotel)", "POINT_X": -72.0041638, "POINT_Y": -34.3856683991}}, {"type": "Feature", "geometry": {"type": "Point", "coordinates": [-72.004232, -34.38560799910001]}, "properties": {"CUT_REG": "06", "CUT_PROV": "062", "CUT_COM": "06201", "REGION": "Libertador General Bernardo O'Higgins", "PROVINCIA": "Cardenal Caro", "COMUNA": "Pichilemu", "variable": "Sitios de Inter\u00e9s Poblacional", "Nombres": "Cafe marley - (cafe)", "POINT_X": -72.004232, "POINT_Y": -34.3856079991}}, {"type": "Feature", "geometry": {"type": "Point", "coordinates": [-72.00431649999999, -34.385469499100004]}, "properties": {"CUT_REG": "06", "CUT_PROV": "062", "CUT_COM": "06201", "REGION": "Libertador General Bernardo O'Higgins", "PROVINCIA": "Cardenal Caro", "COMUNA": "Pichilemu", "variable": "Sitios de Inter\u00e9s Poblacional", "Nombres": "La Casa Roja - (restaurant)", "POINT_X": -72.0043165, "POINT_Y": -34.3854694991}}, {"type": "Feature", "geometry": {"type": "Point", "coordinates": [-72.01271570000003, -34.385343999100016]}, "properties": {"CUT_REG": "06", "CUT_PROV": "062", "CUT_COM": "06201", "REGION": "Libertador General Bernardo O'Higgins", "PROVINCIA": "Cardenal Caro", "COMUNA": "Pichilemu", "variable": "Sitios de Inter\u00e9s Poblacional", "Nombres": "Direcci\u00f3n del Trabajo - (public_building)", "POINT_X": -72.0127157, "POINT_Y": -34.3853439991}}, {"type": "Feature", "geometry": {"type": "Point", "coordinates": [-72.00665029999999, -34.38522839910004]}, "properties": {"CUT_REG": "06", "CUT_PROV": "062", "CUT_COM": "06201", "REGION": "Libertador General Bernardo O'Higgins", "PROVINCIA": "Cardenal Caro", "COMUNA": "Pichilemu", "variable": "Sitios de Inter\u00e9s Poblacional", "Nombres": "Registro Civil e Identificaci\u00f3n - (public_buildin", "POINT_X": -72.0066503, "POINT_Y": -34.3852283991}}, {"type": "Feature", "geometry": {"type": "Point", "coordinates": [-72.01688669999999, -34.38508549910003]}, "properties": {"CUT_REG": "06", "CUT_PROV": "062", "CUT_COM": "06201", "REGION": "Libertador General Bernardo O'Higgins", "PROVINCIA": "Cardenal Caro", "COMUNA": "Pichilemu", "variable": "Sitios de Inter\u00e9s Poblacional", "Nombres": "Pichilemu SurfHostal - (hostel)", "POINT_X": -72.0168867, "POINT_Y": -34.3850854991}}, {"type": "Feature", "geometry": {"type": "Point", "coordinates": [-72.01701639999997, -34.385078999100024]}, "properties": {"CUT_REG": "06", "CUT_PROV": "062", "CUT_COM": "06201", "REGION": "Libertador General Bernardo O'Higgins", "PROVINCIA": "Cardenal Caro", "COMUNA": "Pichilemu", "variable": "Sitios de Inter\u00e9s Poblacional", "Nombres": "El Puente Holand\u00e9s - (restaurant)", "POINT_X": -72.0170164, "POINT_Y": -34.3850789991}}, {"type": "Feature", "geometry": {"type": "Point", "coordinates": [-72.01117930000001, -34.3850507991]}, "properties": {"CUT_REG": "06", "CUT_PROV": "062", "CUT_COM": "06201", "REGION": "Libertador General Bernardo O'Higgins", "PROVINCIA": "Cardenal Caro", "COMUNA": "Pichilemu", "variable": "Sitios de Inter\u00e9s Poblacional", "Nombres": "Donde Esau - (restaurant)", "POINT_X": -72.0111793, "POINT_Y": -34.3850507991}}, {"type": "Feature", "geometry": {"type": "Point", "coordinates": [-72.0113725, -34.38499769909996]}, "properties": {"CUT_REG": "06", "CUT_PROV": "062", "CUT_COM": "06201", "REGION": "Libertador General Bernardo O'Higgins", "PROVINCIA": "Cardenal Caro", "COMUNA": "Pichilemu", "variable": "Sitios de Inter\u00e9s Poblacional", "Nombres": "Pepe Cuervo - (restaurant)", "POINT_X": -72.0113725, "POINT_Y": -34.3849976991}}, {"type": "Feature", "geometry": {"type": "Point", "coordinates": [-72.0051004, -34.384932299099965]}, "properties": {"CUT_REG": "06", "CUT_PROV": "062", "CUT_COM": "06201", "REGION": "Libertador General Bernardo O'Higgins", "PROVINCIA": "Cardenal Caro", "COMUNA": "Pichilemu", "variable": "Sitios de Inter\u00e9s Poblacional", "Nombres": "Arturo Prat Chac\u00f3n - (monument)", "POINT_X": -72.0051004, "POINT_Y": -34.3849322991}}, {"type": "Feature", "geometry": {"type": "Point", "coordinates": [-72.01181820000002, -34.3848661991]}, "properties": {"CUT_REG": "06", "CUT_PROV": "062", "CUT_COM": "06201", "REGION": "Libertador General Bernardo O'Higgins", "PROVINCIA": "Cardenal Caro", "COMUNA": "Pichilemu", "variable": "Sitios de Inter\u00e9s Poblacional", "Nombres": "Hotel Terraza - (hotel)", "POINT_X": -72.0118182, "POINT_Y": -34.3848661991}}, {"type": "Feature", "geometry": {"type": "Point", "coordinates": [-72.00842109999996, -34.38485009910001]}, "properties": {"CUT_REG": "06", "CUT_PROV": "062", "CUT_COM": "06201", "REGION": "Libertador General Bernardo O'Higgins", "PROVINCIA": "Cardenal Caro", "COMUNA": "Pichilemu", "variable": "Sitios de Inter\u00e9s Poblacional", "Nombres": "Capitan\u00eda de Puerto - (public_building)", "POINT_X": -72.0084211, "POINT_Y": -34.3848500991}}, {"type": "Feature", "geometry": {"type": "Point", "coordinates": [-72.00421759999998, -34.3847683991]}, "properties": {"CUT_REG": "06", "CUT_PROV": "062", "CUT_COM": "06201", "REGION": "Libertador General Bernardo O'Higgins", "PROVINCIA": "Cardenal Caro", "COMUNA": "Pichilemu", "variable": "Sitios de Inter\u00e9s Poblacional", "Nombres": "Rex - (restaurant)", "POINT_X": -72.0042176, "POINT_Y": -34.3847683991}}, {"type": "Feature", "geometry": {"type": "Point", "coordinates": [-72.00432159999997, -34.38470439910003]}, "properties": {"CUT_REG": "06", "CUT_PROV": "062", "CUT_COM": "06201", "REGION": "Libertador General Bernardo O'Higgins", "PROVINCIA": "Cardenal Caro", "COMUNA": "Pichilemu", "variable": "Sitios de Inter\u00e9s Poblacional", "Nombres": "Rex - (hotel)", "POINT_X": -72.0043216, "POINT_Y": -34.3847043991}}, {"type": "Feature", "geometry": {"type": "Point", "coordinates": [-72.01242399999995, -34.38428799910004]}, "properties": {"CUT_REG": "06", "CUT_PROV": "062", "CUT_COM": "06201", "REGION": "Libertador General Bernardo O'Higgins", "PROVINCIA": "Cardenal Caro", "COMUNA": "Pichilemu", "variable": "Sitios de Inter\u00e9s Poblacional", "Nombres": "El rey del mote con huesillos - (restaurant)", "POINT_X": -72.012424, "POINT_Y": -34.3842879991}}, {"type": "Feature", "geometry": {"type": "Point", "coordinates": [-72.01267199999995, -34.38417599910001]}, "properties": {"CUT_REG": "06", "CUT_PROV": "062", "CUT_COM": "06201", "REGION": "Libertador General Bernardo O'Higgins", "PROVINCIA": "Cardenal Caro", "COMUNA": "Pichilemu", "variable": "Sitios de Inter\u00e9s Poblacional", "Nombres": "El Mirador - (restaurant)", "POINT_X": -72.012672, "POINT_Y": -34.3841759991}}, {"type": "Feature", "geometry": {"type": "Point", "coordinates": [-72.01309599999996, -34.38400399909999]}, "properties": {"CUT_REG": "06", "CUT_PROV": "062", "CUT_COM": "06201", "REGION": "Libertador General Bernardo O'Higgins", "PROVINCIA": "Cardenal Caro", "COMUNA": "Pichilemu", "variable": "Sitios de Inter\u00e9s Poblacional", "Nombres": "Caba\u00f1as Santa Irene - (hotel)", "POINT_X": -72.013096, "POINT_Y": -34.3840039991}}, {"type": "Feature", "geometry": {"type": "Point", "coordinates": [-72.01242079999996, -34.38383309909997]}, "properties": {"CUT_REG": "06", "CUT_PROV": "062", "CUT_COM": "06201", "REGION": "Libertador General Bernardo O'Higgins", "PROVINCIA": "Cardenal Caro", "COMUNA": "Pichilemu", "variable": "Sitios de Inter\u00e9s Poblacional", "Nombres": "Mirador \"Las Terrazas\" - (viewpoint)", "POINT_X": -72.0124208, "POINT_Y": -34.3838330991}}, {"type": "Feature", "geometry": {"type": "Point", "coordinates": [-72.01358649999995, -34.383800599100034]}, "properties": {"CUT_REG": "06", "CUT_PROV": "062", "CUT_COM": "06201", "REGION": "Libertador General Bernardo O'Higgins", "PROVINCIA": "Cardenal Caro", "COMUNA": "Pichilemu", "variable": "Sitios de Inter\u00e9s Poblacional", "Nombres": "Entre Mar - (restaurant)", "POINT_X": -72.0135865, "POINT_Y": -34.3838005991}}, {"type": "Feature", "geometry": {"type": "Point", "coordinates": [-72.01434439999996, -34.38336849909999]}, "properties": {"CUT_REG": "06", "CUT_PROV": "062", "CUT_COM": "06201", "REGION": "Libertador General Bernardo O'Higgins", "PROVINCIA": "Cardenal Caro", "COMUNA": "Pichilemu", "variable": "Sitios de Inter\u00e9s Poblacional", "Nombres": "Cavala - (restaurant)", "POINT_X": -72.0143444, "POINT_Y": -34.3833684991}}, {"type": "Feature", "geometry": {"type": "Point", "coordinates": [-72.01452970000001, -34.383214999099984]}, "properties": {"CUT_REG": "06", "CUT_PROV": "062", "CUT_COM": "06201", "REGION": "Libertador General Bernardo O'Higgins", "PROVINCIA": "Cardenal Caro", "COMUNA": "Pichilemu", "variable": "Sitios de Inter\u00e9s Poblacional", "Nombres": "Waitara - (pub)", "POINT_X": -72.0145297, "POINT_Y": -34.3832149991}}, {"type": "Feature", "geometry": {"type": "Point", "coordinates": [-72.01496350000002, -34.38315519910001]}, "properties": {"CUT_REG": "06", "CUT_PROV": "062", "CUT_COM": "06201", "REGION": "Libertador General Bernardo O'Higgins", "PROVINCIA": "Cardenal Caro", "COMUNA": "Pichilemu", "variable": "Sitios de Inter\u00e9s Poblacional", "Nombres": "Waitara - (chalet)", "POINT_X": -72.0149635, "POINT_Y": -34.3831551991}}, {"type": "Feature", "geometry": {"type": "Point", "coordinates": [-72.01684379999999, -34.38237429909997]}, "properties": {"CUT_REG": "06", "CUT_PROV": "062", "CUT_COM": "06201", "REGION": "Libertador General Bernardo O'Higgins", "PROVINCIA": "Cardenal Caro", "COMUNA": "Pichilemu", "variable": "Sitios de Inter\u00e9s Poblacional", "Nombres": "Hostal SurfPichilemu - (hostel)", "POINT_X": -72.0168438, "POINT_Y": -34.3823742991}}, {"type": "Feature", "geometry": {"type": "Point", "coordinates": [-72.01663810000002, -34.38224089910003]}, "properties": {"CUT_REG": "06", "CUT_PROV": "062", "CUT_COM": "06201", "REGION": "Libertador General Bernardo O'Higgins", "PROVINCIA": "Cardenal Caro", "COMUNA": "Pichilemu", "variable": "Sitios de Inter\u00e9s Poblacional", "Nombres": "Mirador - (viewpoint)", "POINT_X": -72.0166381, "POINT_Y": -34.3822408991}}, {"type": "Feature", "geometry": {"type": "Point", "coordinates": [-72.01631180000003, -34.38221369910001]}, "properties": {"CUT_REG": "06", "CUT_PROV": "062", "CUT_COM": "06201", "REGION": "Libertador General Bernardo O'Higgins", "PROVINCIA": "Cardenal Caro", "COMUNA": "Pichilemu", "variable": "Sitios de Inter\u00e9s Poblacional", "Nombres": "Azul Marino - (restaurant)", "POINT_X": -72.0163118, "POINT_Y": -34.3822136991}}, {"type": "Feature", "geometry": {"type": "Point", "coordinates": [-72.01596129999999, -34.38103559909996]}, "properties": {"CUT_REG": "06", "CUT_PROV": "062", "CUT_COM": "06201", "REGION": "Libertador General Bernardo O'Higgins", "PROVINCIA": "Cardenal Caro", "COMUNA": "Pichilemu", "variable": "Sitios de Inter\u00e9s Poblacional", "Nombres": "La Puntilla - (viewpoint)", "POINT_X": -72.0159613, "POINT_Y": -34.3810355991}}, {"type": "Feature", "geometry": {"type": "Point", "coordinates": [-71.74709320000002, -34.33171389909998]}, "properties": {"CUT_REG": "06", "CUT_PROV": "062", "CUT_COM": "06204", "REGION": "Libertador General Bernardo O'Higgins", "PROVINCIA": "Cardenal Caro", "COMUNA": "Marchihue", "variable": "Sitios de Inter\u00e9s Poblacional", "Nombres": "Cruce Las Rosas - (bus_stop)", "POINT_X": -71.7470932, "POINT_Y": -34.3317138991}}, {"type": "Feature", "geometry": {"type": "Point", "coordinates": [-71.87972829999998, -34.31070269910003]}, "properties": {"CUT_REG": "06", "CUT_PROV": "062", "CUT_COM": "06201", "REGION": "Libertador General Bernardo O'Higgins", "PROVINCIA": "Cardenal Caro", "COMUNA": "Pichilemu", "variable": "Sitios de Inter\u00e9s Poblacional", "Nombres": "- (turning_circle)", "POINT_X": -71.8797283, "POINT_Y": -34.3107026991}}, {"type": "Feature", "geometry": {"type": "Point", "coordinates": [-71.85092590000002, -34.308228299100016]}, "properties": {"CUT_REG": "06", "CUT_PROV": "062", "CUT_COM": "06201", "REGION": "Libertador General Bernardo O'Higgins", "PROVINCIA": "Cardenal Caro", "COMUNA": "Pichilemu", "variable": "Sitios de Inter\u00e9s Poblacional", "Nombres": "Los Arrayanes - (bus_stop)", "POINT_X": -71.8509259, "POINT_Y": -34.3082282991}}, {"type": "Feature", "geometry": {"type": "Point", "coordinates": [-71.79073809999997, -34.30275729909996]}, "properties": {"CUT_REG": "06", "CUT_PROV": "062", "CUT_COM": "06204", "REGION": "Libertador General Bernardo O'Higgins", "PROVINCIA": "Cardenal Caro", "COMUNA": "Marchihue", "variable": "Sitios de Inter\u00e9s Poblacional", "Nombres": "ByR - (convenience)", "POINT_X": -71.7907381, "POINT_Y": -34.3027572991}}, {"type": "Feature", "geometry": {"type": "Point", "coordinates": [-71.65498460000003, -34.20664109910002]}, "properties": {"CUT_REG": "06", "CUT_PROV": "062", "CUT_COM": "06202", "REGION": "Libertador General Bernardo O'Higgins", "PROVINCIA": "Cardenal Caro", "COMUNA": "La Estrella", "variable": "Sitios de Inter\u00e9s Poblacional", "Nombres": "Restaurante La Estrella - (restaurant)", "POINT_X": -71.6549846, "POINT_Y": -34.2066410991}}, {"type": "Feature", "geometry": {"type": "Point", "coordinates": [-71.65461589999998, -34.20504279910003]}, "properties": {"CUT_REG": "06", "CUT_PROV": "062", "CUT_COM": "06202", "REGION": "Libertador General Bernardo O'Higgins", "PROVINCIA": "Cardenal Caro", "COMUNA": "La Estrella", "variable": "Sitios de Inter\u00e9s Poblacional", "Nombres": "- (fountain)", "POINT_X": -71.6546159, "POINT_Y": -34.2050427991}}, {"type": "Feature", "geometry": {"type": "Point", "coordinates": [-71.72820590000003, -34.11992589909997]}, "properties": {"CUT_REG": "06", "CUT_PROV": "062", "CUT_COM": "06203", "REGION": "Libertador General Bernardo O'Higgins", "PROVINCIA": "Cardenal Caro", "COMUNA": "Litueche", "variable": "Sitios de Inter\u00e9s Poblacional", "Nombres": "BancoEstado - (bank)", "POINT_X": -71.7282059, "POINT_Y": -34.1199258991}}, {"type": "Feature", "geometry": {"type": "Point", "coordinates": [-71.72856569999996, -34.119659099100005]}, "properties": {"CUT_REG": "06", "CUT_PROV": "062", "CUT_COM": "06203", "REGION": "Libertador General Bernardo O'Higgins", "PROVINCIA": "Cardenal Caro", "COMUNA": "Litueche", "variable": "Sitios de Inter\u00e9s Poblacional", "Nombres": "Biblioteca Municipal - (library)", "POINT_X": -71.7285657, "POINT_Y": -34.1196590991}}, {"type": "Feature", "geometry": {"type": "Point", "coordinates": [-71.72994810000003, -34.117220099099995]}, "properties": {"CUT_REG": "06", "CUT_PROV": "062", "CUT_COM": "06203", "REGION": "Libertador General Bernardo O'Higgins", "PROVINCIA": "Cardenal Caro", "COMUNA": "Litueche", "variable": "Sitios de Inter\u00e9s Poblacional", "Nombres": "Copec - (fuel)", "POINT_X": -71.7299481, "POINT_Y": -34.1172200991}}, {"type": "Feature", "geometry": {"type": "Point", "coordinates": [-71.72984629999996, -34.11693119909999]}, "properties": {"CUT_REG": "06", "CUT_PROV": "062", "CUT_COM": "06203", "REGION": "Libertador General Bernardo O'Higgins", "PROVINCIA": "Cardenal Caro", "COMUNA": "Litueche", "variable": "Sitios de Inter\u00e9s Poblacional", "Nombres": "Pizzeria Don Vitorio - (restaurant)", "POINT_X": -71.7298463, "POINT_Y": -34.1169311991}}, {"type": "Feature", "geometry": {"type": "Point", "coordinates": [-71.73068850000001, -34.11576759909999]}, "properties": {"CUT_REG": "06", "CUT_PROV": "062", "CUT_COM": "06203", "REGION": "Libertador General Bernardo O'Higgins", "PROVINCIA": "Cardenal Caro", "COMUNA": "Litueche", "variable": "Sitios de Inter\u00e9s Poblacional", "Nombres": "Supermercado La Foresta - (supermarket)", "POINT_X": -71.7306885, "POINT_Y": -34.1157675991}}, {"type": "Feature", "geometry": {"type": "Point", "coordinates": [-71.72670779999999, -34.11572149909999]}, "properties": {"CUT_REG": "06", "CUT_PROV": "062", "CUT_COM": "06203", "REGION": "Libertador General Bernardo O'Higgins", "PROVINCIA": "Cardenal Caro", "COMUNA": "Litueche", "variable": "Sitios de Inter\u00e9s Poblacional", "Nombres": "- (traffic_signals)", "POINT_X": -71.7267078, "POINT_Y": -34.1157214991}}, {"type": "Feature", "geometry": {"type": "Point", "coordinates": [-71.72925619999998, -34.11560329909998]}, "properties": {"CUT_REG": "06", "CUT_PROV": "062", "CUT_COM": "06203", "REGION": "Libertador General Bernardo O'Higgins", "PROVINCIA": "Cardenal Caro", "COMUNA": "Litueche", "variable": "Sitios de Inter\u00e9s Poblacional", "Nombres": "Hospital Litueche - (hospital)", "POINT_X": -71.7292562, "POINT_Y": -34.1156032991}}, {"type": "Feature", "geometry": {"type": "Point", "coordinates": [-71.73018420000002, -34.115363499100035]}, "properties": {"CUT_REG": "06", "CUT_PROV": "062", "CUT_COM": "06203", "REGION": "Libertador General Bernardo O'Higgins", "PROVINCIA": "Cardenal Caro", "COMUNA": "Litueche", "variable": "Sitios de Inter\u00e9s Poblacional", "Nombres": "Iglesia Litueche - (place_of_worship)", "POINT_X": -71.7301842, "POINT_Y": -34.1153634991}}, {"type": "Feature", "geometry": {"type": "Point", "coordinates": [-71.72641760000005, -34.115361099100014]}, "properties": {"CUT_REG": "06", "CUT_PROV": "062", "CUT_COM": "06203", "REGION": "Libertador General Bernardo O'Higgins", "PROVINCIA": "Cardenal Caro", "COMUNA": "Litueche", "variable": "Sitios de Inter\u00e9s Poblacional", "Nombres": "Don Juanito - (restaurant)", "POINT_X": -71.7264176, "POINT_Y": -34.1153610991}}, {"type": "Feature", "geometry": {"type": "Point", "coordinates": [-71.72908989999999, -34.11496819910001]}, "properties": {"CUT_REG": "06", "CUT_PROV": "062", "CUT_COM": "06203", "REGION": "Libertador General Bernardo O'Higgins", "PROVINCIA": "Cardenal Caro", "COMUNA": "Litueche", "variable": "Sitios de Inter\u00e9s Poblacional", "Nombres": "Pullman del Sur - (bus_station)", "POINT_X": -71.7290899, "POINT_Y": -34.1149681991}}, {"type": "Feature", "geometry": {"type": "Point", "coordinates": [-71.72654659999998, -34.11492119910003]}, "properties": {"CUT_REG": "06", "CUT_PROV": "062", "CUT_COM": "06203", "REGION": "Libertador General Bernardo O'Higgins", "PROVINCIA": "Cardenal Caro", "COMUNA": "Litueche", "variable": "Sitios de Inter\u00e9s Poblacional", "Nombres": "Ferreteria Agricola - (doityourself)", "POINT_X": -71.7265466, "POINT_Y": -34.1149211991}}, {"type": "Feature", "geometry": {"type": "Point", "coordinates": [-71.7264041, -34.114578399100004]}, "properties": {"CUT_REG": "06", "CUT_PROV": "062", "CUT_COM": "06203", "REGION": "Libertador General Bernardo O'Higgins", "PROVINCIA": "Cardenal Caro", "COMUNA": "Litueche", "variable": "Sitios de Inter\u00e9s Poblacional", "Nombres": "San Roberto - (supermarket)", "POINT_X": -71.7264041, "POINT_Y": -34.1145783991}}, {"type": "Feature", "geometry": {"type": "Point", "coordinates": [-71.90447689999999, -34.0827676991]}, "properties": {"CUT_REG": "06", "CUT_PROV": "062", "CUT_COM": "06205", "REGION": "Libertador General Bernardo O'Higgins", "PROVINCIA": "Cardenal Caro", "COMUNA": "Navidad", "variable": "Sitios de Inter\u00e9s Poblacional", "Nombres": "Escuela el Manzano - (school)", "POINT_X": -71.9044769, "POINT_Y": -34.0827676991}}, {"type": "Feature", "geometry": {"type": "Point", "coordinates": [-71.91738849999999, -34.06876009909999]}, "properties": {"CUT_REG": "06", "CUT_PROV": "062", "CUT_COM": "06205", "REGION": "Libertador General Bernardo O'Higgins", "PROVINCIA": "Cardenal Caro", "COMUNA": "Navidad", "variable": "Sitios de Inter\u00e9s Poblacional", "Nombres": "Ruca Lodge - (hotel)", "POINT_X": -71.9173885, "POINT_Y": -34.0687600991}}, {"type": "Feature", "geometry": {"type": "Point", "coordinates": [-71.58753449999998, -34.04064149910003]}, "properties": {"CUT_REG": "06", "CUT_PROV": "062", "CUT_COM": "06203", "REGION": "Libertador General Bernardo O'Higgins", "PROVINCIA": "Cardenal Caro", "COMUNA": "Litueche", "variable": "Sitios de Inter\u00e9s Poblacional", "Nombres": "Represa Rapel - (viewpoint)", "POINT_X": -71.5875345, "POINT_Y": -34.0406414991}}, {"type": "Feature", "geometry": {"type": "Point", "coordinates": [-71.58693539999996, -34.03662469910004]}, "properties": {"CUT_REG": "06", "CUT_PROV": "062", "CUT_COM": "06203", "REGION": "Libertador General Bernardo O'Higgins", "PROVINCIA": "Cardenal Caro", "COMUNA": "Litueche", "variable": "Sitios de Inter\u00e9s Poblacional", "Nombres": "Reten Represa Rapel - (police)", "POINT_X": -71.5869354, "POINT_Y": -34.0366246991}}, {"type": "Feature", "geometry": {"type": "Point", "coordinates": [-71.87524080000003, -33.96317469910003]}, "properties": {"CUT_REG": "06", "CUT_PROV": "062", "CUT_COM": "06205", "REGION": "Libertador General Bernardo O'Higgins", "PROVINCIA": "Cardenal Caro", "COMUNA": "Navidad", "variable": "Sitios de Inter\u00e9s Poblacional", "Nombres": "Marvento - (restaurant)", "POINT_X": -71.8752408, "POINT_Y": -33.9631746991}}, {"type": "Feature", "geometry": {"type": "Point", "coordinates": [-71.87658189999996, -33.96313909910001]}, "properties": {"CUT_REG": "06", "CUT_PROV": "062", "CUT_COM": "06205", "REGION": "Libertador General Bernardo O'Higgins", "PROVINCIA": "Cardenal Caro", "COMUNA": "Navidad", "variable": "Sitios de Inter\u00e9s Poblacional", "Nombres": "Olas de Matanzas - (chalet)", "POINT_X": -71.8765819, "POINT_Y": -33.9631390991}}, {"type": "Feature", "geometry": {"type": "Point", "coordinates": [-71.87499400000003, -33.96303229909997]}, "properties": {"CUT_REG": "06", "CUT_PROV": "062", "CUT_COM": "06205", "REGION": "Libertador General Bernardo O'Higgins", "PROVINCIA": "Cardenal Caro", "COMUNA": "Navidad", "variable": "Sitios de Inter\u00e9s Poblacional", "Nombres": "Olas de Mtanzas - (camp_site)", "POINT_X": -71.874994, "POINT_Y": -33.9630322991}}, {"type": "Feature", "geometry": {"type": "Point", "coordinates": [-71.87477429999997, -33.96279639909999]}, "properties": {"CUT_REG": "06", "CUT_PROV": "062", "CUT_COM": "06205", "REGION": "Libertador General Bernardo O'Higgins", "PROVINCIA": "Cardenal Caro", "COMUNA": "Navidad", "variable": "Sitios de Inter\u00e9s Poblacional", "Nombres": "OMZ Olas de Matanzas - (hotel)", "POINT_X": -71.8747743, "POINT_Y": -33.9627963991}}, {"type": "Feature", "geometry": {"type": "Point", "coordinates": [-71.87401910000001, -33.96217349909997]}, "properties": {"CUT_REG": "06", "CUT_PROV": "062", "CUT_COM": "06205", "REGION": "Libertador General Bernardo O'Higgins", "PROVINCIA": "Cardenal Caro", "COMUNA": "Navidad", "variable": "Sitios de Inter\u00e9s Poblacional", "Nombres": "Almacen Super Ahorro - (convenience)", "POINT_X": -71.8740191, "POINT_Y": -33.9621734991}}, {"type": "Feature", "geometry": {"type": "Point", "coordinates": [-71.8739245, -33.9619817991]}, "properties": {"CUT_REG": "06", "CUT_PROV": "062", "CUT_COM": "06205", "REGION": "Libertador General Bernardo O'Higgins", "PROVINCIA": "Cardenal Caro", "COMUNA": "Navidad", "variable": "Sitios de Inter\u00e9s Poblacional", "Nombres": "El Caf\u00e9 del Mar - (cafe)", "POINT_X": -71.8739245, "POINT_Y": -33.9619817991}}, {"type": "Feature", "geometry": {"type": "Point", "coordinates": [-71.87475409999999, -33.96197329910001]}, "properties": {"CUT_REG": "06", "CUT_PROV": "062", "CUT_COM": "06205", "REGION": "Libertador General Bernardo O'Higgins", "PROVINCIA": "Cardenal Caro", "COMUNA": "Navidad", "variable": "Sitios de Inter\u00e9s Poblacional", "Nombres": "Hotel Surazo - (hotel)", "POINT_X": -71.8747541, "POINT_Y": -33.9619732991}}, {"type": "Feature", "geometry": {"type": "Point", "coordinates": [-71.87447880000003, -33.96190599910004]}, "properties": {"CUT_REG": "06", "CUT_PROV": "062", "CUT_COM": "06205", "REGION": "Libertador General Bernardo O'Higgins", "PROVINCIA": "Cardenal Caro", "COMUNA": "Navidad", "variable": "Sitios de Inter\u00e9s Poblacional", "Nombres": "Capilla Matanzas - (place_of_worship)", "POINT_X": -71.8744788, "POINT_Y": -33.9619059991}}, {"type": "Feature", "geometry": {"type": "Point", "coordinates": [-71.87292699999998, -33.95968859909998]}, "properties": {"CUT_REG": "06", "CUT_PROV": "062", "CUT_COM": "06205", "REGION": "Libertador General Bernardo O'Higgins", "PROVINCIA": "Cardenal Caro", "COMUNA": "Navidad", "variable": "Sitios de Inter\u00e9s Poblacional", "Nombres": "Escuela Matanzas - (school)", "POINT_X": -71.872927, "POINT_Y": -33.9596885991}}, {"type": "Feature", "geometry": {"type": "Point", "coordinates": [-71.87218919999995, -33.95885419910004]}, "properties": {"CUT_REG": "06", "CUT_PROV": "062", "CUT_COM": "06205", "REGION": "Libertador General Bernardo O'Higgins", "PROVINCIA": "Cardenal Caro", "COMUNA": "Navidad", "variable": "Sitios de Inter\u00e9s Poblacional", "Nombres": "La Violeta - (restaurant)", "POINT_X": -71.8721892, "POINT_Y": -33.9588541991}}, {"type": "Feature", "geometry": {"type": "Point", "coordinates": [-71.8286033, -33.95625119909996]}, "properties": {"CUT_REG": "06", "CUT_PROV": "062", "CUT_COM": "06205", "REGION": "Libertador General Bernardo O'Higgins", "PROVINCIA": "Cardenal Caro", "COMUNA": "Navidad", "variable": "Sitios de Inter\u00e9s Poblacional", "Nombres": "Residencial La Querencia - (hostel)", "POINT_X": -71.8286033, "POINT_Y": -33.9562511991}}, {"type": "Feature", "geometry": {"type": "Point", "coordinates": [-71.8286784, -33.95613099909996]}, "properties": {"CUT_REG": "06", "CUT_PROV": "062", "CUT_COM": "06205", "REGION": "Libertador General Bernardo O'Higgins", "PROVINCIA": "Cardenal Caro", "COMUNA": "Navidad", "variable": "Sitios de Inter\u00e9s Poblacional", "Nombres": "La Querencia - (restaurant)", "POINT_X": -71.8286784, "POINT_Y": -33.9561309991}}, {"type": "Feature", "geometry": {"type": "Point", "coordinates": [-71.82940210000001, -33.9555796991]}, "properties": {"CUT_REG": "06", "CUT_PROV": "062", "CUT_COM": "06205", "REGION": "Libertador General Bernardo O'Higgins", "PROVINCIA": "Cardenal Caro", "COMUNA": "Navidad", "variable": "Sitios de Inter\u00e9s Poblacional", "Nombres": "Residencial de Turismo - (hostel)", "POINT_X": -71.8294021, "POINT_Y": -33.9555796991}}, {"type": "Feature", "geometry": {"type": "Point", "coordinates": [-71.82910759999999, -33.95557479910004]}, "properties": {"CUT_REG": "06", "CUT_PROV": "062", "CUT_COM": "06205", "REGION": "Libertador General Bernardo O'Higgins", "PROVINCIA": "Cardenal Caro", "COMUNA": "Navidad", "variable": "Sitios de Inter\u00e9s Poblacional", "Nombres": "Pan de Vida - (bakery)", "POINT_X": -71.8291076, "POINT_Y": -33.9555747991}}, {"type": "Feature", "geometry": {"type": "Point", "coordinates": [-71.82931139999997, -33.95529899909996]}, "properties": {"CUT_REG": "06", "CUT_PROV": "062", "CUT_COM": "06205", "REGION": "Libertador General Bernardo O'Higgins", "PROVINCIA": "Cardenal Caro", "COMUNA": "Navidad", "variable": "Sitios de Inter\u00e9s Poblacional", "Nombres": "Ferreteria Abarca - (doityourself)", "POINT_X": -71.8293114, "POINT_Y": -33.9552989991}}, {"type": "Feature", "geometry": {"type": "Point", "coordinates": [-71.83098509999999, -33.95377269909997]}, "properties": {"CUT_REG": "06", "CUT_PROV": "062", "CUT_COM": "06205", "REGION": "Libertador General Bernardo O'Higgins", "PROVINCIA": "Cardenal Caro", "COMUNA": "Navidad", "variable": "Sitios de Inter\u00e9s Poblacional", "Nombres": "Iglesia Navidad - (place_of_worship)", "POINT_X": -71.8309851, "POINT_Y": -33.9537726991}}, {"type": "Feature", "geometry": {"type": "Point", "coordinates": [-71.83022340000002, -33.95365259909998]}, "properties": {"CUT_REG": "06", "CUT_PROV": "062", "CUT_COM": "06205", "REGION": "Libertador General Bernardo O'Higgins", "PROVINCIA": "Cardenal Caro", "COMUNA": "Navidad", "variable": "Sitios de Inter\u00e9s Poblacional", "Nombres": "Consultorio Navidad - (hospital)", "POINT_X": -71.8302234, "POINT_Y": -33.9536525991}}, {"type": "Feature", "geometry": {"type": "Point", "coordinates": [-71.86833139999996, -33.95355489909998]}, "properties": {"CUT_REG": "06", "CUT_PROV": "062", "CUT_COM": "06205", "REGION": "Libertador General Bernardo O'Higgins", "PROVINCIA": "Cardenal Caro", "COMUNA": "Navidad", "variable": "Sitios de Inter\u00e9s Poblacional", "Nombres": "Mirador de Matanzas - (chalet)", "POINT_X": -71.8683314, "POINT_Y": -33.9535548991}}, {"type": "Feature", "geometry": {"type": "Point", "coordinates": [-71.83110800000003, -33.953225399099985]}, "properties": {"CUT_REG": "06", "CUT_PROV": "062", "CUT_COM": "06205", "REGION": "Libertador General Bernardo O'Higgins", "PROVINCIA": "Cardenal Caro", "COMUNA": "Navidad", "variable": "Sitios de Inter\u00e9s Poblacional", "Nombres": "Ferreteria Navidad - (doityourself)", "POINT_X": -71.831108, "POINT_Y": -33.9532253991}}, {"type": "Feature", "geometry": {"type": "Point", "coordinates": [-71.83033060000001, -33.95320759910002]}, "properties": {"CUT_REG": "06", "CUT_PROV": "062", "CUT_COM": "06205", "REGION": "Libertador General Bernardo O'Higgins", "PROVINCIA": "Cardenal Caro", "COMUNA": "Navidad", "variable": "Sitios de Inter\u00e9s Poblacional", "Nombres": "Municipalidad Navidad - (townhall)", "POINT_X": -71.8303306, "POINT_Y": -33.9532075991}}, {"type": "Feature", "geometry": {"type": "Point", "coordinates": [-71.83094759999999, -33.95311839910001]}, "properties": {"CUT_REG": "06", "CUT_PROV": "062", "CUT_COM": "06205", "REGION": "Libertador General Bernardo O'Higgins", "PROVINCIA": "Cardenal Caro", "COMUNA": "Navidad", "variable": "Sitios de Inter\u00e9s Poblacional", "Nombres": "Almacen Navidad - (convenience)", "POINT_X": -71.8309476, "POINT_Y": -33.9531183991}}, {"type": "Feature", "geometry": {"type": "Point", "coordinates": [-71.8307426, -33.953038999100016]}, "properties": {"CUT_REG": "06", "CUT_PROV": "062", "CUT_COM": "06205", "REGION": "Libertador General Bernardo O'Higgins", "PROVINCIA": "Cardenal Caro", "COMUNA": "Navidad", "variable": "Sitios de Inter\u00e9s Poblacional", "Nombres": "Juzgado Policia Local Navidad - (courthouse)", "POINT_X": -71.8307426, "POINT_Y": -33.9530389991}}, {"type": "Feature", "geometry": {"type": "Point", "coordinates": [-71.83193460000004, -33.95293619910004]}, "properties": {"CUT_REG": "06", "CUT_PROV": "062", "CUT_COM": "06205", "REGION": "Libertador General Bernardo O'Higgins", "PROVINCIA": "Cardenal Caro", "COMUNA": "Navidad", "variable": "Sitios de Inter\u00e9s Poblacional", "Nombres": "Carabineros Navidad - (police)", "POINT_X": -71.8319346, "POINT_Y": -33.9529361991}}, {"type": "Feature", "geometry": {"type": "Point", "coordinates": [-71.83326499999998, -33.95103609910003]}, "properties": {"CUT_REG": "06", "CUT_PROV": "062", "CUT_COM": "06205", "REGION": "Libertador General Bernardo O'Higgins", "PROVINCIA": "Cardenal Caro", "COMUNA": "Navidad", "variable": "Sitios de Inter\u00e9s Poblacional", "Nombres": "Bomberos Navidad - (fire_station)", "POINT_X": -71.833265, "POINT_Y": -33.9510360991}}, {"type": "Feature", "geometry": {"type": "Point", "coordinates": [-71.83346239999997, -33.94996859909999]}, "properties": {"CUT_REG": "06", "CUT_PROV": "062", "CUT_COM": "06205", "REGION": "Libertador General Bernardo O'Higgins", "PROVINCIA": "Cardenal Caro", "COMUNA": "Navidad", "variable": "Sitios de Inter\u00e9s Poblacional", "Nombres": "Terpel - (fuel)", "POINT_X": -71.8334624, "POINT_Y": -33.9499685991}}, {"type": "Feature", "geometry": {"type": "Point", "coordinates": [-71.83377459999994, -33.94984799909996]}, "properties": {"CUT_REG": "06", "CUT_PROV": "062", "CUT_COM": "06205", "REGION": "Libertador General Bernardo O'Higgins", "PROVINCIA": "Cardenal Caro", "COMUNA": "Navidad", "variable": "Sitios de Inter\u00e9s Poblacional", "Nombres": "Chilito - (car_repair)", "POINT_X": -71.8337746, "POINT_Y": -33.9498479991}}, {"type": "Feature", "geometry": {"type": "Point", "coordinates": [-71.73819540000002, -33.946785299100036]}, "properties": {"CUT_REG": "06", "CUT_PROV": "062", "CUT_COM": "06205", "REGION": "Libertador General Bernardo O'Higgins", "PROVINCIA": "Cardenal Caro", "COMUNA": "Navidad", "variable": "Sitios de Inter\u00e9s Poblacional", "Nombres": "Restaurant Rapel - (restaurant)", "POINT_X": -71.7381954, "POINT_Y": -33.9467852991}}, {"type": "Feature", "geometry": {"type": "Point", "coordinates": [-71.73833490000003, -33.946482699100045]}, "properties": {"CUT_REG": "06", "CUT_PROV": "062", "CUT_COM": "06205", "REGION": "Libertador General Bernardo O'Higgins", "PROVINCIA": "Cardenal Caro", "COMUNA": "Navidad", "variable": "Sitios de Inter\u00e9s Poblacional", "Nombres": "Mercado Rapel - (marketplace)", "POINT_X": -71.7383349, "POINT_Y": -33.9464826991}}, {"type": "Feature", "geometry": {"type": "Point", "coordinates": [-71.73823959999996, -33.9461665991]}, "properties": {"CUT_REG": "06", "CUT_PROV": "062", "CUT_COM": "06205", "REGION": "Libertador General Bernardo O'Higgins", "PROVINCIA": "Cardenal Caro", "COMUNA": "Navidad", "variable": "Sitios de Inter\u00e9s Poblacional", "Nombres": "Copec - (fuel)", "POINT_X": -71.7382396, "POINT_Y": -33.9461665991}}, {"type": "Feature", "geometry": {"type": "Point", "coordinates": [-71.73786819999995, -33.94602429910004]}, "properties": {"CUT_REG": "06", "CUT_PROV": "062", "CUT_COM": "06205", "REGION": "Libertador General Bernardo O'Higgins", "PROVINCIA": "Cardenal Caro", "COMUNA": "Navidad", "variable": "Sitios de Inter\u00e9s Poblacional", "Nombres": "Supermercado Central - (supermarket)", "POINT_X": -71.7378682, "POINT_Y": -33.9460242991}}, {"type": "Feature", "geometry": {"type": "Point", "coordinates": [-71.73772869999996, -33.94554809909999]}, "properties": {"CUT_REG": "06", "CUT_PROV": "062", "CUT_COM": "06205", "REGION": "Libertador General Bernardo O'Higgins", "PROVINCIA": "Cardenal Caro", "COMUNA": "Navidad", "variable": "Sitios de Inter\u00e9s Poblacional", "Nombres": "Posta Central Rapel - (hospital)", "POINT_X": -71.7377287, "POINT_Y": -33.9455480991}}, {"type": "Feature", "geometry": {"type": "Point", "coordinates": [-71.8548514, -33.94517989909998]}, "properties": {"CUT_REG": "06", "CUT_PROV": "062", "CUT_COM": "06205", "REGION": "Libertador General Bernardo O'Higgins", "PROVINCIA": "Cardenal Caro", "COMUNA": "Navidad", "variable": "Sitios de Inter\u00e9s Poblacional", "Nombres": "Mirador Matanzas-Navidad - (viewpoint)", "POINT_X": -71.8548514, "POINT_Y": -33.9451798991}}, {"type": "Feature", "geometry": {"type": "Point", "coordinates": [-71.7686769, -33.943443199099995]}, "properties": {"CUT_REG": "06", "CUT_PROV": "062", "CUT_COM": "06205", "REGION": "Libertador General Bernardo O'Higgins", "PROVINCIA": "Cardenal Caro", "COMUNA": "Navidad", "variable": "Sitios de Inter\u00e9s Poblacional", "Nombres": "Mirador Rucatalca - (viewpoint)", "POINT_X": -71.7686769, "POINT_Y": -33.9434431991}}, {"type": "Feature", "geometry": {"type": "Point", "coordinates": [-71.73841569999996, -33.9432800991]}, "properties": {"CUT_REG": "06", "CUT_PROV": "062", "CUT_COM": "06205", "REGION": "Libertador General Bernardo O'Higgins", "PROVINCIA": "Cardenal Caro", "COMUNA": "Navidad", "variable": "Sitios de Inter\u00e9s Poblacional", "Nombres": "Monumento a Josefa Rapelauken - (artwork)", "POINT_X": -71.7384157, "POINT_Y": -33.9432800991}}, {"type": "Feature", "geometry": {"type": "Point", "coordinates": [-71.73757829999995, -33.94298899909999]}, "properties": {"CUT_REG": "06", "CUT_PROV": "062", "CUT_COM": "06205", "REGION": "Libertador General Bernardo O'Higgins", "PROVINCIA": "Cardenal Caro", "COMUNA": "Navidad", "variable": "Sitios de Inter\u00e9s Poblacional", "Nombres": "Bomberos de Rapel - (fire_station)", "POINT_X": -71.7375783, "POINT_Y": -33.9429889991}}, {"type": "Feature", "geometry": {"type": "Point", "coordinates": [-71.7363776, -33.94171309910002]}, "properties": {"CUT_REG": "06", "CUT_PROV": "062", "CUT_COM": "06205", "REGION": "Libertador General Bernardo O'Higgins", "PROVINCIA": "Cardenal Caro", "COMUNA": "Navidad", "variable": "Sitios de Inter\u00e9s Poblacional", "Nombres": "Carabineros de Rapel - (police)", "POINT_X": -71.7363776, "POINT_Y": -33.9417130991}}, {"type": "Feature", "geometry": {"type": "Point", "coordinates": [-71.73671480000002, -33.941587399100015]}, "properties": {"CUT_REG": "06", "CUT_PROV": "062", "CUT_COM": "06205", "REGION": "Libertador General Bernardo O'Higgins", "PROVINCIA": "Cardenal Caro", "COMUNA": "Navidad", "variable": "Sitios de Inter\u00e9s Poblacional", "Nombres": "Supermercado San Roberto - (supermarket)", "POINT_X": -71.7367148, "POINT_Y": -33.9415873991}},