{"type": "FeatureCollection", "features": [{"type": "Feature", "geometry": {"type": "Point", "coordinates": [-71.59024450000001, -36.383944599100005]}, "properties": {"CUT_REG": "07", "CUT_PROV": "074", "CUT_COM": "07404", "REGION": "Maule", "PROVINCIA": "Linares", "COMUNA": "Parral", "variable": "Sitios de Inter\u00e9s Poblacional", "Nombres": "- (restaurant)", "POINT_X": -71.5902445, "POINT_Y": -36.3839445991}}, {"type": "Feature", "geometry": {"type": "Point", "coordinates": [-71.5907005, -36.3839316991]}, "properties": {"CUT_REG": "07", "CUT_PROV": "074", "CUT_COM": "07404", "REGION": "Maule", "PROVINCIA": "Linares", "COMUNA": "Parral", "variable": "Sitios de Inter\u00e9s Poblacional", "Nombres": "- (hotel)", "POINT_X": -71.5907005, "POINT_Y": -36.3839316991}}, {"type": "Feature", "geometry": {"type": "Point", "coordinates": [-71.31854850000002, -36.303231599099995]}, "properties": {"CUT_REG": "07", "CUT_PROV": "074", "CUT_COM": "07404", "REGION": "Maule", "PROVINCIA": "Linares", "COMUNA": "Parral", "variable": "Sitios de Inter\u00e9s Poblacional", "Nombres": "PSR Los Canelos - (hospital)", "POINT_X": -71.3185485, "POINT_Y": -36.3032315991}}, {"type": "Feature", "geometry": {"type": "Point", "coordinates": [-71.64979489999999, -36.29236499909999]}, "properties": {"CUT_REG": "07", "CUT_PROV": "074", "CUT_COM": "07404", "REGION": "Maule", "PROVINCIA": "Linares", "COMUNA": "Parral", "variable": "Sitios de Inter\u00e9s Poblacional", "Nombres": "Capilla Catillo - (place_of_worship)", "POINT_X": -71.6497949, "POINT_Y": -36.2923649991}}, {"type": "Feature", "geometry": {"type": "Point", "coordinates": [-71.74083549999997, -36.29008809909998]}, "properties": {"CUT_REG": "07", "CUT_PROV": "074", "CUT_COM": "07404", "REGION": "Maule", "PROVINCIA": "Linares", "COMUNA": "Parral", "variable": "Sitios de Inter\u00e9s Poblacional", "Nombres": "PSR Bajos de Huenutil - (hospital)", "POINT_X": -71.7408355, "POINT_Y": -36.2900880991}}, {"type": "Feature", "geometry": {"type": "Point", "coordinates": [-71.4148506, -36.28939629910003]}, "properties": {"CUT_REG": "07", "CUT_PROV": "074", "CUT_COM": "07404", "REGION": "Maule", "PROVINCIA": "Linares", "COMUNA": "Parral", "variable": "Sitios de Inter\u00e9s Poblacional", "Nombres": "PSR Bullileo - (hospital)", "POINT_X": -71.4148506, "POINT_Y": -36.2893962991}}, {"type": "Feature", "geometry": {"type": "Point", "coordinates": [-71.65159729999999, -36.287466099100016]}, "properties": {"CUT_REG": "07", "CUT_PROV": "074", "CUT_COM": "07404", "REGION": "Maule", "PROVINCIA": "Linares", "COMUNA": "Parral", "variable": "Sitios de Inter\u00e9s Poblacional", "Nombres": "- (fire_station)", "POINT_X": -71.6515973, "POINT_Y": -36.2874660991}}, {"type": "Feature", "geometry": {"type": "Point", "coordinates": [-71.65611370000002, -36.28654509910002]}, "properties": {"CUT_REG": "07", "CUT_PROV": "074", "CUT_COM": "07404", "REGION": "Maule", "PROVINCIA": "Linares", "COMUNA": "Parral", "variable": "Sitios de Inter\u00e9s Poblacional", "Nombres": "PSR Catillo - (hospital)", "POINT_X": -71.6561137, "POINT_Y": -36.2865450991}}, {"type": "Feature", "geometry": {"type": "Point", "coordinates": [-71.49722990000002, -36.245013999099996]}, "properties": {"CUT_REG": "07", "CUT_PROV": "074", "CUT_COM": "07404", "REGION": "Maule", "PROVINCIA": "Linares", "COMUNA": "Parral", "variable": "Sitios de Inter\u00e9s Poblacional", "Nombres": "PSR Digua - (hospital)", "POINT_X": -71.4972299, "POINT_Y": -36.2450139991}}, {"type": "Feature", "geometry": {"type": "Point", "coordinates": [-71.80791590000001, -36.23881829910002]}, "properties": {"CUT_REG": "07", "CUT_PROV": "074", "CUT_COM": "07404", "REGION": "Maule", "PROVINCIA": "Linares", "COMUNA": "Parral", "variable": "Sitios de Inter\u00e9s Poblacional", "Nombres": "Capilla de Talquita - (place_of_worship)", "POINT_X": -71.8079159, "POINT_Y": -36.2388182991}}, {"type": "Feature", "geometry": {"type": "Point", "coordinates": [-71.80868580000003, -36.23639549910001]}, "properties": {"CUT_REG": "07", "CUT_PROV": "074", "CUT_COM": "07404", "REGION": "Maule", "PROVINCIA": "Linares", "COMUNA": "Parral", "variable": "Sitios de Inter\u00e9s Poblacional", "Nombres": "PSR Talquita - (hospital)", "POINT_X": -71.8086858, "POINT_Y": -36.2363954991}}, {"type": "Feature", "geometry": {"type": "Point", "coordinates": [-71.54736760000002, -36.235061699099965]}, "properties": {"CUT_REG": "07", "CUT_PROV": "074", "CUT_COM": "07404", "REGION": "Maule", "PROVINCIA": "Linares", "COMUNA": "Parral", "variable": "Sitios de Inter\u00e9s Poblacional", "Nombres": "Carabineros - (police)", "POINT_X": -71.5473676, "POINT_Y": -36.2350616991}}, {"type": "Feature", "geometry": {"type": "Point", "coordinates": [-71.72504269999996, -36.232645799100005]}, "properties": {"CUT_REG": "07", "CUT_PROV": "074", "CUT_COM": "07404", "REGION": "Maule", "PROVINCIA": "Linares", "COMUNA": "Parral", "variable": "Sitios de Inter\u00e9s Poblacional", "Nombres": "PSR Los Carros - (hospital)", "POINT_X": -71.7250427, "POINT_Y": -36.2326457991}}, {"type": "Feature", "geometry": {"type": "Point", "coordinates": [-71.43937999999997, -36.224867799100025]}, "properties": {"CUT_REG": "07", "CUT_PROV": "074", "CUT_COM": "07403", "REGION": "Maule", "PROVINCIA": "Linares", "COMUNA": "Longav\u00ed", "variable": "Sitios de Inter\u00e9s Poblacional", "Nombres": "PSR Loma de Vasquez - (hospital)", "POINT_X": -71.43938, "POINT_Y": -36.2248677991}}, {"type": "Feature", "geometry": {"type": "Point", "coordinates": [-71.82640730000003, -36.19876609909996]}, "properties": {"CUT_REG": "07", "CUT_PROV": "074", "CUT_COM": "07404", "REGION": "Maule", "PROVINCIA": "Linares", "COMUNA": "Parral", "variable": "Sitios de Inter\u00e9s Poblacional", "Nombres": "Camila - (restaurant)", "POINT_X": -71.8264073, "POINT_Y": -36.1987660991}}, {"type": "Feature", "geometry": {"type": "Point", "coordinates": [-71.82286539999998, -36.17890589910003]}, "properties": {"CUT_REG": "07", "CUT_PROV": "074", "CUT_COM": "07404", "REGION": "Maule", "PROVINCIA": "Linares", "COMUNA": "Parral", "variable": "Sitios de Inter\u00e9s Poblacional", "Nombres": "Shell - (fuel)", "POINT_X": -71.8228654, "POINT_Y": -36.1789058991}}, {"type": "Feature", "geometry": {"type": "Point", "coordinates": [-71.73740229999996, -36.16130319910001]}, "properties": {"CUT_REG": "07", "CUT_PROV": "074", "CUT_COM": "07405", "REGION": "Maule", "PROVINCIA": "Linares", "COMUNA": "Retiro", "variable": "Sitios de Inter\u00e9s Poblacional", "Nombres": "PSR San Marcos - (hospital)", "POINT_X": -71.7374023, "POINT_Y": -36.1613031991}}, {"type": "Feature", "geometry": {"type": "Point", "coordinates": [-71.32072809999998, -36.154071999099976]}, "properties": {"CUT_REG": "07", "CUT_PROV": "074", "CUT_COM": "07401", "REGION": "Maule", "PROVINCIA": "Linares", "COMUNA": "Linares", "variable": "Sitios de Inter\u00e9s Poblacional", "Nombres": "PSR Los Hualles - (hospital)", "POINT_X": -71.3207281, "POINT_Y": -36.1540719991}}, {"type": "Feature", "geometry": {"type": "Point", "coordinates": [-71.58084709999999, -36.15104669910004]}, "properties": {"CUT_REG": "07", "CUT_PROV": "074", "CUT_COM": "07403", "REGION": "Maule", "PROVINCIA": "Linares", "COMUNA": "Longav\u00ed", "variable": "Sitios de Inter\u00e9s Poblacional", "Nombres": "PSR San Jos\u00e9 - (hospital)", "POINT_X": -71.5808471, "POINT_Y": -36.1510466991}}, {"type": "Feature", "geometry": {"type": "Point", "coordinates": [-71.82648690000003, -36.14708319910002]}, "properties": {"CUT_REG": "07", "CUT_PROV": "074", "CUT_COM": "07404", "REGION": "Maule", "PROVINCIA": "Linares", "COMUNA": "Parral", "variable": "Sitios de Inter\u00e9s Poblacional", "Nombres": "- (fuel)", "POINT_X": -71.8264869, "POINT_Y": -36.1470831991}}, {"type": "Feature", "geometry": {"type": "Point", "coordinates": [-71.81908989999997, -36.14687079910003]}, "properties": {"CUT_REG": "07", "CUT_PROV": "074", "CUT_COM": "07404", "REGION": "Maule", "PROVINCIA": "Linares", "COMUNA": "Parral", "variable": "Sitios de Inter\u00e9s Poblacional", "Nombres": "Piscina Municipal de Parral - (swimming_pool)", "POINT_X": -71.8190899, "POINT_Y": -36.1468707991}}, {"type": "Feature", "geometry": {"type": "Point", "coordinates": [-71.82793480000002, -36.14505909909996]}, "properties": {"CUT_REG": "07", "CUT_PROV": "074", "CUT_COM": "07404", "REGION": "Maule", "PROVINCIA": "Linares", "COMUNA": "Parral", "variable": "Sitios de Inter\u00e9s Poblacional", "Nombres": "- (bus_station)", "POINT_X": -71.8279348, "POINT_Y": -36.1450590991}}, {"type": "Feature", "geometry": {"type": "Point", "coordinates": [-71.82248549999998, -36.14434579910001]}, "properties": {"CUT_REG": "07", "CUT_PROV": "074", "CUT_COM": "07404", "REGION": "Maule", "PROVINCIA": "Linares", "COMUNA": "Parral", "variable": "Sitios de Inter\u00e9s Poblacional", "Nombres": "Carabineros de Chile - (police)", "POINT_X": -71.8224855, "POINT_Y": -36.1443457991}}, {"type": "Feature", "geometry": {"type": "Point", "coordinates": [-71.82708729999997, -36.1438980991]}, "properties": {"CUT_REG": "07", "CUT_PROV": "074", "CUT_COM": "07404", "REGION": "Maule", "PROVINCIA": "Linares", "COMUNA": "Parral", "variable": "Sitios de Inter\u00e9s Poblacional", "Nombres": "Parroquia - (place_of_worship)", "POINT_X": -71.8270873, "POINT_Y": -36.1438980991}}, {"type": "Feature", "geometry": {"type": "Point", "coordinates": [-71.80993139999998, -36.14330719909996]}, "properties": {"CUT_REG": "07", "CUT_PROV": "074", "CUT_COM": "07404", "REGION": "Maule", "PROVINCIA": "Linares", "COMUNA": "Parral", "variable": "Sitios de Inter\u00e9s Poblacional", "Nombres": "- (bus_stop)", "POINT_X": -71.8099314, "POINT_Y": -36.1433071991}}, {"type": "Feature", "geometry": {"type": "Point", "coordinates": [-71.8164786, -36.14295569910001]}, "properties": {"CUT_REG": "07", "CUT_PROV": "074", "CUT_COM": "07404", "REGION": "Maule", "PROVINCIA": "Linares", "COMUNA": "Parral", "variable": "Sitios de Inter\u00e9s Poblacional", "Nombres": "La Iglesia de Jesucristo de los Santos de los \u00da -", "POINT_X": -71.8164786, "POINT_Y": -36.1429556991}}, {"type": "Feature", "geometry": {"type": "Point", "coordinates": [-71.82364919999999, -36.14292709910004]}, "properties": {"CUT_REG": "07", "CUT_PROV": "074", "CUT_COM": "07404", "REGION": "Maule", "PROVINCIA": "Linares", "COMUNA": "Parral", "variable": "Sitios de Inter\u00e9s Poblacional", "Nombres": "Club Social - (restaurant)", "POINT_X": -71.8236492, "POINT_Y": -36.1429270991}}, {"type": "Feature", "geometry": {"type": "Point", "coordinates": [-71.82197749999996, -36.14241479910002]}, "properties": {"CUT_REG": "07", "CUT_PROV": "074", "CUT_COM": "07404", "REGION": "Maule", "PROVINCIA": "Linares", "COMUNA": "Parral", "variable": "Sitios de Inter\u00e9s Poblacional", "Nombres": "Escuela - (school)", "POINT_X": -71.8219775, "POINT_Y": -36.1424147991}}, {"type": "Feature", "geometry": {"type": "Point", "coordinates": [-71.8199147, -36.14239679910004]}, "properties": {"CUT_REG": "07", "CUT_PROV": "074", "CUT_COM": "07404", "REGION": "Maule", "PROVINCIA": "Linares", "COMUNA": "Parral", "variable": "Sitios de Inter\u00e9s Poblacional", "Nombres": "Copec - (fuel)", "POINT_X": -71.8199147, "POINT_Y": -36.1423967991}}, {"type": "Feature", "geometry": {"type": "Point", "coordinates": [-71.82274460000002, -36.14221989909997]}, "properties": {"CUT_REG": "07", "CUT_PROV": "074", "CUT_COM": "07404", "REGION": "Maule", "PROVINCIA": "Linares", "COMUNA": "Parral", "variable": "Sitios de Inter\u00e9s Poblacional", "Nombres": "- (post_office)", "POINT_X": -71.8227446, "POINT_Y": -36.1422198991}}, {"type": "Feature", "geometry": {"type": "Point", "coordinates": [-71.82165410000002, -36.14216219909999]}, "properties": {"CUT_REG": "07", "CUT_PROV": "074", "CUT_COM": "07404", "REGION": "Maule", "PROVINCIA": "Linares", "COMUNA": "Parral", "variable": "Sitios de Inter\u00e9s Poblacional", "Nombres": "- (traffic_signals)", "POINT_X": -71.8216541, "POINT_Y": -36.1421621991}}, {"type": "Feature", "geometry": {"type": "Point", "coordinates": [-71.82286429999996, -36.14210569910002]}, "properties": {"CUT_REG": "07", "CUT_PROV": "074", "CUT_COM": "07404", "REGION": "Maule", "PROVINCIA": "Linares", "COMUNA": "Parral", "variable": "Sitios de Inter\u00e9s Poblacional", "Nombres": "Municipalidad de Parral - (townhall)", "POINT_X": -71.8228643, "POINT_Y": -36.1421056991}}, {"type": "Feature", "geometry": {"type": "Point", "coordinates": [-71.8223237, -36.14195739910001]}, "properties": {"CUT_REG": "07", "CUT_PROV": "074", "CUT_COM": "07404", "REGION": "Maule", "PROVINCIA": "Linares", "COMUNA": "Parral", "variable": "Sitios de Inter\u00e9s Poblacional", "Nombres": "Plaza Parral - (parking)", "POINT_X": -71.8223237, "POINT_Y": -36.1419573991}}, {"type": "Feature", "geometry": {"type": "Point", "coordinates": [-71.8231427, -36.14187009909998]}, "properties": {"CUT_REG": "07", "CUT_PROV": "074", "CUT_COM": "07404", "REGION": "Maule", "PROVINCIA": "Linares", "COMUNA": "Parral", "variable": "Sitios de Inter\u00e9s Poblacional", "Nombres": "- (traffic_signals)", "POINT_X": -71.8231427, "POINT_Y": -36.1418700991}}, {"type": "Feature", "geometry": {"type": "Point", "coordinates": [-71.8144969, -36.14179469909996]}, "properties": {"CUT_REG": "07", "CUT_PROV": "074", "CUT_COM": "07404", "REGION": "Maule", "PROVINCIA": "Linares", "COMUNA": "Parral", "variable": "Sitios de Inter\u00e9s Poblacional", "Nombres": "Hospital de Parral - (hospital)", "POINT_X": -71.8144969, "POINT_Y": -36.1417946991}}, {"type": "Feature", "geometry": {"type": "Point", "coordinates": [-71.8233186, -36.141702299099954]}, "properties": {"CUT_REG": "07", "CUT_PROV": "074", "CUT_COM": "07404", "REGION": "Maule", "PROVINCIA": "Linares", "COMUNA": "Parral", "variable": "Sitios de Inter\u00e9s Poblacional", "Nombres": "Shell - (fuel)", "POINT_X": -71.8233186, "POINT_Y": -36.1417022991}}, {"type": "Feature", "geometry": {"type": "Point", "coordinates": [-71.82338299999999, -36.14163069909998]}, "properties": {"CUT_REG": "07", "CUT_PROV": "074", "CUT_COM": "07404", "REGION": "Maule", "PROVINCIA": "Linares", "COMUNA": "Parral", "variable": "Sitios de Inter\u00e9s Poblacional", "Nombres": "Shell - (car_wash)", "POINT_X": -71.823383, "POINT_Y": -36.1416306991}}, {"type": "Feature", "geometry": {"type": "Point", "coordinates": [-71.8182982, -36.14152849909996]}, "properties": {"CUT_REG": "07", "CUT_PROV": "074", "CUT_COM": "07404", "REGION": "Maule", "PROVINCIA": "Linares", "COMUNA": "Parral", "variable": "Sitios de Inter\u00e9s Poblacional", "Nombres": "- (traffic_signals)", "POINT_X": -71.8182982, "POINT_Y": -36.1415284991}}, {"type": "Feature", "geometry": {"type": "Point", "coordinates": [-71.81828909999996, -36.14152739909996]}, "properties": {"CUT_REG": "07", "CUT_PROV": "074", "CUT_COM": "07404", "REGION": "Maule", "PROVINCIA": "Linares", "COMUNA": "Parral", "variable": "Sitios de Inter\u00e9s Poblacional", "Nombres": "- (traffic_signals)", "POINT_X": -71.8182891, "POINT_Y": -36.1415273991}}, {"type": "Feature", "geometry": {"type": "Point", "coordinates": [-71.81827619999996, -36.1414849991]}, "properties": {"CUT_REG": "07", "CUT_PROV": "074", "CUT_COM": "07404", "REGION": "Maule", "PROVINCIA": "Linares", "COMUNA": "Parral", "variable": "Sitios de Inter\u00e9s Poblacional", "Nombres": "- (traffic_signals)", "POINT_X": -71.8182762, "POINT_Y": -36.1414849991}}, {"type": "Feature", "geometry": {"type": "Point", "coordinates": [-71.82497870000003, -36.141415999099976]}, "properties": {"CUT_REG": "07", "CUT_PROV": "074", "CUT_COM": "07404", "REGION": "Maule", "PROVINCIA": "Linares", "COMUNA": "Parral", "variable": "Sitios de Inter\u00e9s Poblacional", "Nombres": "- (fuel)", "POINT_X": -71.8249787, "POINT_Y": -36.1414159991}}, {"type": "Feature", "geometry": {"type": "Point", "coordinates": [-71.82733399999995, -36.14132489909999]}, "properties": {"CUT_REG": "07", "CUT_PROV": "074", "CUT_COM": "07404", "REGION": "Maule", "PROVINCIA": "Linares", "COMUNA": "Parral", "variable": "Sitios de Inter\u00e9s Poblacional", "Nombres": "Parroquia - (place_of_worship)", "POINT_X": -71.827334, "POINT_Y": -36.1413248991}}, {"type": "Feature", "geometry": {"type": "Point", "coordinates": [-71.8249922, -36.14129909909999]}, "properties": {"CUT_REG": "07", "CUT_PROV": "074", "CUT_COM": "07404", "REGION": "Maule", "PROVINCIA": "Linares", "COMUNA": "Parral", "variable": "Sitios de Inter\u00e9s Poblacional", "Nombres": "- (car_wash)", "POINT_X": -71.8249922, "POINT_Y": -36.1412990991}}, {"type": "Feature", "geometry": {"type": "Point", "coordinates": [-71.81981100000003, -36.141233599099984]}, "properties": {"CUT_REG": "07", "CUT_PROV": "074", "CUT_COM": "07404", "REGION": "Maule", "PROVINCIA": "Linares", "COMUNA": "Parral", "variable": "Sitios de Inter\u00e9s Poblacional", "Nombres": "- (traffic_signals)", "POINT_X": -71.819811, "POINT_Y": -36.1412335991}}, {"type": "Feature", "geometry": {"type": "Point", "coordinates": [-71.81979649999998, -36.14118619909997]}, "properties": {"CUT_REG": "07", "CUT_PROV": "074", "CUT_COM": "07404", "REGION": "Maule", "PROVINCIA": "Linares", "COMUNA": "Parral", "variable": "Sitios de Inter\u00e9s Poblacional", "Nombres": "- (traffic_signals)", "POINT_X": -71.8197965, "POINT_Y": -36.1411861991}}, {"type": "Feature", "geometry": {"type": "Point", "coordinates": [-71.82137209999996, -36.140983099099955]}, "properties": {"CUT_REG": "07", "CUT_PROV": "074", "CUT_COM": "07404", "REGION": "Maule", "PROVINCIA": "Linares", "COMUNA": "Parral", "variable": "Sitios de Inter\u00e9s Poblacional", "Nombres": "- (crossing)", "POINT_X": -71.8213721, "POINT_Y": -36.1409830991}}, {"type": "Feature", "geometry": {"type": "Point", "coordinates": [-71.82129990000003, -36.14094849910002]}, "properties": {"CUT_REG": "07", "CUT_PROV": "074", "CUT_COM": "07404", "REGION": "Maule", "PROVINCIA": "Linares", "COMUNA": "Parral", "variable": "Sitios de Inter\u00e9s Poblacional", "Nombres": "- (traffic_signals)", "POINT_X": -71.8212999, "POINT_Y": -36.1409484991}}, {"type": "Feature", "geometry": {"type": "Point", "coordinates": [-71.82044699999997, -36.1409234991]}, "properties": {"CUT_REG": "07", "CUT_PROV": "074", "CUT_COM": "07404", "REGION": "Maule", "PROVINCIA": "Linares", "COMUNA": "Parral", "variable": "Sitios de Inter\u00e9s Poblacional", "Nombres": "BancoChile - (bank)", "POINT_X": -71.820447, "POINT_Y": -36.1409234991}}, {"type": "Feature", "geometry": {"type": "Point", "coordinates": [-71.82128389999994, -36.140895199099965]}, "properties": {"CUT_REG": "07", "CUT_PROV": "074", "CUT_COM": "07404", "REGION": "Maule", "PROVINCIA": "Linares", "COMUNA": "Parral", "variable": "Sitios de Inter\u00e9s Poblacional", "Nombres": "- (traffic_signals)", "POINT_X": -71.8212839, "POINT_Y": -36.1408951991}}, {"type": "Feature", "geometry": {"type": "Point", "coordinates": [-71.82263730000003, -36.14085959910004]}, "properties": {"CUT_REG": "07", "CUT_PROV": "074", "CUT_COM": "07404", "REGION": "Maule", "PROVINCIA": "Linares", "COMUNA": "Parral", "variable": "Sitios de Inter\u00e9s Poblacional", "Nombres": "- (taxi)", "POINT_X": -71.8226373, "POINT_Y": -36.1408595991}}, {"type": "Feature", "geometry": {"type": "Point", "coordinates": [-71.82215989999995, -36.14082499910002]}, "properties": {"CUT_REG": "07", "CUT_PROV": "074", "CUT_COM": "07404", "REGION": "Maule", "PROVINCIA": "Linares", "COMUNA": "Parral", "variable": "Sitios de Inter\u00e9s Poblacional", "Nombres": "- (taxi)", "POINT_X": -71.8221599, "POINT_Y": -36.1408249991}}, {"type": "Feature", "geometry": {"type": "Point", "coordinates": [-71.82182729999997, -36.140677699099996]}, "properties": {"CUT_REG": "07", "CUT_PROV": "074", "CUT_COM": "07404", "REGION": "Maule", "PROVINCIA": "Linares", "COMUNA": "Parral", "variable": "Sitios de Inter\u00e9s Poblacional", "Nombres": "- (atm)", "POINT_X": -71.8218273, "POINT_Y": -36.1406776991}}, {"type": "Feature", "geometry": {"type": "Point", "coordinates": [-71.82279290000002, -36.14065209910001]}, "properties": {"CUT_REG": "07", "CUT_PROV": "074", "CUT_COM": "07404", "REGION": "Maule", "PROVINCIA": "Linares", "COMUNA": "Parral", "variable": "Sitios de Inter\u00e9s Poblacional", "Nombres": "- (traffic_signals)", "POINT_X": -71.8227929, "POINT_Y": -36.1406520991}}, {"type": "Feature", "geometry": {"type": "Point", "coordinates": [-71.82423060000005, -36.14064729909997]}, "properties": {"CUT_REG": "07", "CUT_PROV": "074", "CUT_COM": "07404", "REGION": "Maule", "PROVINCIA": "Linares", "COMUNA": "Parral", "variable": "Sitios de Inter\u00e9s Poblacional", "Nombres": "Pub El Pasillo - (pub)", "POINT_X": -71.8242306, "POINT_Y": -36.1406472991}}, {"type": "Feature", "geometry": {"type": "Point", "coordinates": [-71.82376049999996, -36.14060499910002]}, "properties": {"CUT_REG": "07", "CUT_PROV": "074", "CUT_COM": "07404", "REGION": "Maule", "PROVINCIA": "Linares", "COMUNA": "Parral", "variable": "Sitios de Inter\u00e9s Poblacional", "Nombres": "Farmacias SalcoBrand - (pharmacy)", "POINT_X": -71.8237605, "POINT_Y": -36.1406049991}}, {"type": "Feature", "geometry": {"type": "Point", "coordinates": [-71.82277749999999, -36.14060029909999]}, "properties": {"CUT_REG": "07", "CUT_PROV": "074", "CUT_COM": "07404", "REGION": "Maule", "PROVINCIA": "Linares", "COMUNA": "Parral", "variable": "Sitios de Inter\u00e9s Poblacional", "Nombres": "- (traffic_signals)", "POINT_X": -71.8227775, "POINT_Y": -36.1406002991}}, {"type": "Feature", "geometry": {"type": "Point", "coordinates": [-71.82362969999997, -36.14057799910001]}, "properties": {"CUT_REG": "07", "CUT_PROV": "074", "CUT_COM": "07404", "REGION": "Maule", "PROVINCIA": "Linares", "COMUNA": "Parral", "variable": "Sitios de Inter\u00e9s Poblacional", "Nombres": "- (atm)", "POINT_X": -71.8236297, "POINT_Y": -36.1405779991}}, {"type": "Feature", "geometry": {"type": "Point", "coordinates": [-71.82394089999997, -36.1405563991]}, "properties": {"CUT_REG": "07", "CUT_PROV": "074", "CUT_COM": "07404", "REGION": "Maule", "PROVINCIA": "Linares", "COMUNA": "Parral", "variable": "Sitios de Inter\u00e9s Poblacional", "Nombres": "- (atm)", "POINT_X": -71.8239409, "POINT_Y": -36.1405563991}}, {"type": "Feature", "geometry": {"type": "Point", "coordinates": [-71.82416079999996, -36.14052169909997]}, "properties": {"CUT_REG": "07", "CUT_PROV": "074", "CUT_COM": "07404", "REGION": "Maule", "PROVINCIA": "Linares", "COMUNA": "Parral", "variable": "Sitios de Inter\u00e9s Poblacional", "Nombres": "- (atm)", "POINT_X": -71.8241608, "POINT_Y": -36.1405216991}}, {"type": "Feature", "geometry": {"type": "Point", "coordinates": [-71.82445050000004, -36.1404436991]}, "properties": {"CUT_REG": "07", "CUT_PROV": "074", "CUT_COM": "07404", "REGION": "Maule", "PROVINCIA": "Linares", "COMUNA": "Parral", "variable": "Sitios de Inter\u00e9s Poblacional", "Nombres": "- (pharmacy)", "POINT_X": -71.8244505, "POINT_Y": -36.1404436991}}, {"type": "Feature", "geometry": {"type": "Point", "coordinates": [-71.8248743, -36.14036579910004]}, "properties": {"CUT_REG": "07", "CUT_PROV": "074", "CUT_COM": "07404", "REGION": "Maule", "PROVINCIA": "Linares", "COMUNA": "Parral", "variable": "Sitios de Inter\u00e9s Poblacional", "Nombres": "Farmacia Parral - (pharmacy)", "POINT_X": -71.8248743, "POINT_Y": -36.1403657991}}, {"type": "Feature", "geometry": {"type": "Point", "coordinates": [-71.82542679999999, -36.14033539910001]}, "properties": {"CUT_REG": "07", "CUT_PROV": "074", "CUT_COM": "07404", "REGION": "Maule", "PROVINCIA": "Linares", "COMUNA": "Parral", "variable": "Sitios de Inter\u00e9s Poblacional", "Nombres": "- (atm)", "POINT_X": -71.8254268, "POINT_Y": -36.1403353991}}, {"type": "Feature", "geometry": {"type": "Point", "coordinates": [-71.82551259999998, -36.140253099100036]}, "properties": {"CUT_REG": "07", "CUT_PROV": "074", "CUT_COM": "07404", "REGION": "Maule", "PROVINCIA": "Linares", "COMUNA": "Parral", "variable": "Sitios de Inter\u00e9s Poblacional", "Nombres": "Supermercado Italia - (supermarket)", "POINT_X": -71.8255126, "POINT_Y": -36.1402530991}}, {"type": "Feature", "geometry": {"type": "Point", "coordinates": [-71.82272840000002, -36.139880699099955]}, "properties": {"CUT_REG": "07", "CUT_PROV": "074", "CUT_COM": "07404", "REGION": "Maule", "PROVINCIA": "Linares", "COMUNA": "Parral", "variable": "Sitios de Inter\u00e9s Poblacional", "Nombres": "Carnes Balmaceda - (supermarket)", "POINT_X": -71.8227284, "POINT_Y": -36.1398806991}}, {"type": "Feature", "geometry": {"type": "Point", "coordinates": [-71.8249816, -36.13888409910001]}, "properties": {"CUT_REG": "07", "CUT_PROV": "074", "CUT_COM": "07404", "REGION": "Maule", "PROVINCIA": "Linares", "COMUNA": "Parral", "variable": "Sitios de Inter\u00e9s Poblacional", "Nombres": "Hotel - (hotel)", "POINT_X": -71.8249816, "POINT_Y": -36.1388840991}}, {"type": "Feature", "geometry": {"type": "Point", "coordinates": [-71.83365420000003, -36.13842969909998]}, "properties": {"CUT_REG": "07", "CUT_PROV": "074", "CUT_COM": "07404", "REGION": "Maule", "PROVINCIA": "Linares", "COMUNA": "Parral", "variable": "Sitios de Inter\u00e9s Poblacional", "Nombres": "Parral - (station)", "POINT_X": -71.8336542, "POINT_Y": -36.1384296991}}, {"type": "Feature", "geometry": {"type": "Point", "coordinates": [-71.83180260000003, -36.13605689910003]}, "properties": {"CUT_REG": "07", "CUT_PROV": "074", "CUT_COM": "07404", "REGION": "Maule", "PROVINCIA": "Linares", "COMUNA": "Parral", "variable": "Sitios de Inter\u00e9s Poblacional", "Nombres": "Terpel - (fuel)", "POINT_X": -71.8318026, "POINT_Y": -36.1360568991}}, {"type": "Feature", "geometry": {"type": "Point", "coordinates": [-71.8070236, -36.13409449910002]}, "properties": {"CUT_REG": "07", "CUT_PROV": "074", "CUT_COM": "07404", "REGION": "Maule", "PROVINCIA": "Linares", "COMUNA": "Parral", "variable": "Sitios de Inter\u00e9s Poblacional", "Nombres": "Petrobras - (fuel)", "POINT_X": -71.8070236, "POINT_Y": -36.1340944991}}, {"type": "Feature", "geometry": {"type": "Point", "coordinates": [-71.80772910000002, -36.13344079910002]}, "properties": {"CUT_REG": "07", "CUT_PROV": "074", "CUT_COM": "07404", "REGION": "Maule", "PROVINCIA": "Linares", "COMUNA": "Parral", "variable": "Sitios de Inter\u00e9s Poblacional", "Nombres": "Copec - (fuel)", "POINT_X": -71.8077291, "POINT_Y": -36.1334407991}}, {"type": "Feature", "geometry": {"type": "Point", "coordinates": [-71.8080348, -36.1331764991]}, "properties": {"CUT_REG": "07", "CUT_PROV": "074", "CUT_COM": "07404", "REGION": "Maule", "PROVINCIA": "Linares", "COMUNA": "Parral", "variable": "Sitios de Inter\u00e9s Poblacional", "Nombres": "pronto Copec Parral - (fast_food)", "POINT_X": -71.8080348, "POINT_Y": -36.1331764991}}, {"type": "Feature", "geometry": {"type": "Point", "coordinates": [-71.80539880000003, -36.12867669910001]}, "properties": {"CUT_REG": "07", "CUT_PROV": "074", "CUT_COM": "07404", "REGION": "Maule", "PROVINCIA": "Linares", "COMUNA": "Parral", "variable": "Sitios de Inter\u00e9s Poblacional", "Nombres": "Shell - (fuel)", "POINT_X": -71.8053988, "POINT_Y": -36.1286766991}}, {"type": "Feature", "geometry": {"type": "Point", "coordinates": [-71.22747499999997, -36.12189209909998]}, "properties": {"CUT_REG": "07", "CUT_PROV": "074", "CUT_COM": "07401", "REGION": "Maule", "PROVINCIA": "Linares", "COMUNA": "Linares", "variable": "Sitios de Inter\u00e9s Poblacional", "Nombres": "Jorge Sepulveda - (hostel)", "POINT_X": -71.227475, "POINT_Y": -36.1218920991}}, {"type": "Feature", "geometry": {"type": "Point", "coordinates": [-71.7078765, -36.10279539909998]}, "properties": {"CUT_REG": "07", "CUT_PROV": "074", "CUT_COM": "07405", "REGION": "Maule", "PROVINCIA": "Linares", "COMUNA": "Retiro", "variable": "Sitios de Inter\u00e9s Poblacional", "Nombres": "PSR Santa Delfina - (hospital)", "POINT_X": -71.7078765, "POINT_Y": -36.1027953991}}, {"type": "Feature", "geometry": {"type": "Point", "coordinates": [-71.79649289999998, -36.094541199100036]}, "properties": {"CUT_REG": "07", "CUT_PROV": "074", "CUT_COM": "07405", "REGION": "Maule", "PROVINCIA": "Linares", "COMUNA": "Retiro", "variable": "Sitios de Inter\u00e9s Poblacional", "Nombres": "Nueva Baviera - (restaurant)", "POINT_X": -71.7964929, "POINT_Y": -36.0945411991}}, {"type": "Feature", "geometry": {"type": "Point", "coordinates": [-71.97804359999998, -36.09339499909997]}, "properties": {"CUT_REG": "07", "CUT_PROV": "074", "CUT_COM": "07404", "REGION": "Maule", "PROVINCIA": "Linares", "COMUNA": "Parral", "variable": "Sitios de Inter\u00e9s Poblacional", "Nombres": "Titimbilo - (station)", "POINT_X": -71.9780436, "POINT_Y": -36.0933949991}}, {"type": "Feature", "geometry": {"type": "Point", "coordinates": [-71.80057370000003, -36.090450499099965]}, "properties": {"CUT_REG": "07", "CUT_PROV": "074", "CUT_COM": "07405", "REGION": "Maule", "PROVINCIA": "Linares", "COMUNA": "Retiro", "variable": "Sitios de Inter\u00e9s Poblacional", "Nombres": "PSR Copihue - (hospital)", "POINT_X": -71.8005737, "POINT_Y": -36.0904504991}}, {"type": "Feature", "geometry": {"type": "Point", "coordinates": [-71.66839439999995, -36.089756899100045]}, "properties": {"CUT_REG": "07", "CUT_PROV": "074", "CUT_COM": "07403", "REGION": "Maule", "PROVINCIA": "Linares", "COMUNA": "Longav\u00ed", "variable": "Sitios de Inter\u00e9s Poblacional", "Nombres": "PSR Lomas de la Tercera - (hospital)", "POINT_X": -71.6683944, "POINT_Y": -36.0897568991}}, {"type": "Feature", "geometry": {"type": "Point", "coordinates": [-71.38972890000001, -36.08792149909997]}, "properties": {"CUT_REG": "07", "CUT_PROV": "074", "CUT_COM": "07401", "REGION": "Maule", "PROVINCIA": "Linares", "COMUNA": "Linares", "variable": "Sitios de Inter\u00e9s Poblacional", "Nombres": "Aduana Pejerrey - (police)", "POINT_X": -71.3897289, "POINT_Y": -36.0879214991}}, {"type": "Feature", "geometry": {"type": "Point", "coordinates": [-71.78981169999997, -36.08503199909999]}, "properties": {"CUT_REG": "07", "CUT_PROV": "074", "CUT_COM": "07405", "REGION": "Maule", "PROVINCIA": "Linares", "COMUNA": "Retiro", "variable": "Sitios de Inter\u00e9s Poblacional", "Nombres": "Restaurante Villa Baviera - (restaurant)", "POINT_X": -71.7898117, "POINT_Y": -36.0850319991}}, {"type": "Feature", "geometry": {"type": "Point", "coordinates": [-72.01660189999996, -36.07966299910002]}, "properties": {"CUT_REG": "07", "CUT_PROV": "074", "CUT_COM": "07404", "REGION": "Maule", "PROVINCIA": "Linares", "COMUNA": "Parral", "variable": "Sitios de Inter\u00e9s Poblacional", "Nombres": "Unicav\u00e9n - (station)", "POINT_X": -72.0166019, "POINT_Y": -36.0796629991}}, {"type": "Feature", "geometry": {"type": "Point", "coordinates": [-72.07761350000004, -36.07638789910003]}, "properties": {"CUT_REG": "07", "CUT_PROV": "074", "CUT_COM": "07404", "REGION": "Maule", "PROVINCIA": "Linares", "COMUNA": "Parral", "variable": "Sitios de Inter\u00e9s Poblacional", "Nombres": "PSR Perquilauquen - (hospital)", "POINT_X": -72.0776135, "POINT_Y": -36.0763878991}}, {"type": "Feature", "geometry": {"type": "Point", "coordinates": [-72.07742469999995, -36.06116009910004]}, "properties": {"CUT_REG": "07", "CUT_PROV": "074", "CUT_COM": "07404", "REGION": "Maule", "PROVINCIA": "Linares", "COMUNA": "Parral", "variable": "Sitios de Inter\u00e9s Poblacional", "Nombres": "Puente Perquilauqu\u00e9n - Monumento Nacional - (monu", "POINT_X": -72.0774247, "POINT_Y": -36.0611600991}}, {"type": "Feature", "geometry": {"type": "Point", "coordinates": [-71.76334200000002, -36.05703919909996]}, "properties": {"CUT_REG": "07", "CUT_PROV": "074", "CUT_COM": "07405", "REGION": "Maule", "PROVINCIA": "Linares", "COMUNA": "Retiro", "variable": "Sitios de Inter\u00e9s Poblacional", "Nombres": "Iglesia de Jesucristo de los Santos de los \u00dalti -", "POINT_X": -71.763342, "POINT_Y": -36.0570391991}}, {"type": "Feature", "geometry": {"type": "Point", "coordinates": [-71.76429760000005, -36.05608909910004]}, "properties": {"CUT_REG": "07", "CUT_PROV": "074", "CUT_COM": "07405", "REGION": "Maule", "PROVINCIA": "Linares", "COMUNA": "Retiro", "variable": "Sitios de Inter\u00e9s Poblacional", "Nombres": "Carabineros de El Retiro - (police)", "POINT_X": -71.7642976, "POINT_Y": -36.0560890991}}, {"type": "Feature", "geometry": {"type": "Point", "coordinates": [-71.76431150000005, -36.055240399099986]}, "properties": {"CUT_REG": "07", "CUT_PROV": "074", "CUT_COM": "07405", "REGION": "Maule", "PROVINCIA": "Linares", "COMUNA": "Retiro", "variable": "Sitios de Inter\u00e9s Poblacional", "Nombres": "Bomberos de El Retiro - (fire_station)", "POINT_X": -71.7643115, "POINT_Y": -36.0552403991}}, {"type": "Feature", "geometry": {"type": "Point", "coordinates": [-71.40012149999995, -36.05358829909998]}, "properties": {"CUT_REG": "07", "CUT_PROV": "074", "CUT_COM": "07401", "REGION": "Maule", "PROVINCIA": "Linares", "COMUNA": "Linares", "variable": "Sitios de Inter\u00e9s Poblacional", "Nombres": "PSR El Pejerrey - (hospital)", "POINT_X": -71.4001215, "POINT_Y": -36.0535882991}}, {"type": "Feature", "geometry": {"type": "Point", "coordinates": [-71.76118410000001, -36.05176659909998]}, "properties": {"CUT_REG": "07", "CUT_PROV": "074", "CUT_COM": "07405", "REGION": "Maule", "PROVINCIA": "Linares", "COMUNA": "Retiro", "variable": "Sitios de Inter\u00e9s Poblacional", "Nombres": "Cesfam - (hospital)", "POINT_X": -71.7611841, "POINT_Y": -36.0517665991}}, {"type": "Feature", "geometry": {"type": "Point", "coordinates": [-71.63076229999996, -36.02091359909999]}, "properties": {"CUT_REG": "07", "CUT_PROV": "074", "CUT_COM": "07403", "REGION": "Maule", "PROVINCIA": "Linares", "COMUNA": "Longav\u00ed", "variable": "Sitios de Inter\u00e9s Poblacional", "Nombres": "- (fuel)", "POINT_X": -71.6307623, "POINT_Y": -36.0209135991}}, {"type": "Feature", "geometry": {"type": "Point", "coordinates": [-71.65054160000003, -36.01300799910002]}, "properties": {"CUT_REG": "07", "CUT_PROV": "074", "CUT_COM": "07403", "REGION": "Maule", "PROVINCIA": "Linares", "COMUNA": "Longav\u00ed", "variable": "Sitios de Inter\u00e9s Poblacional", "Nombres": "PSR Los Cristales - (hospital)", "POINT_X": -71.6505416, "POINT_Y": -36.0130079991}}, {"type": "Feature", "geometry": {"type": "Point", "coordinates": [-71.843489, -36.010647499100024]}, "properties": {"CUT_REG": "07", "CUT_PROV": "074", "CUT_COM": "07405", "REGION": "Maule", "PROVINCIA": "Linares", "COMUNA": "Retiro", "variable": "Sitios de Inter\u00e9s Poblacional", "Nombres": "PSR San Ramon - (hospital)", "POINT_X": -71.843489, "POINT_Y": -36.0106474991}}, {"type": "Feature", "geometry": {"type": "Point", "coordinates": [-71.77156289999996, -35.973980399100014]}, "properties": {"CUT_REG": "07", "CUT_PROV": "074", "CUT_COM": "07405", "REGION": "Maule", "PROVINCIA": "Linares", "COMUNA": "Retiro", "variable": "Sitios de Inter\u00e9s Poblacional", "Nombres": "PSR Piguchen - (hospital)", "POINT_X": -71.7715629, "POINT_Y": -35.9739803991}}, {"type": "Feature", "geometry": {"type": "Point", "coordinates": [-71.68352069999999, -35.96697359909998]}, "properties": {"CUT_REG": "07", "CUT_PROV": "074", "CUT_COM": "07403", "REGION": "Maule", "PROVINCIA": "Linares", "COMUNA": "Longav\u00ed", "variable": "Sitios de Inter\u00e9s Poblacional", "Nombres": "Petrobras - (fuel)", "POINT_X": -71.6835207, "POINT_Y": -35.9669735991}}, {"type": "Feature", "geometry": {"type": "Point", "coordinates": [-71.6817528, -35.96674909909997]}, "properties": {"CUT_REG": "07", "CUT_PROV": "074", "CUT_COM": "07403", "REGION": "Maule", "PROVINCIA": "Linares", "COMUNA": "Longav\u00ed", "variable": "Sitios de Inter\u00e9s Poblacional", "Nombres": "La Iglesia de Jesucristo de los Santos de los \u00da -", "POINT_X": -71.6817528, "POINT_Y": -35.9667490991}}, {"type": "Feature", "geometry": {"type": "Point", "coordinates": [-71.68590569999998, -35.96626499909997]}, "properties": {"CUT_REG": "07", "CUT_PROV": "074", "CUT_COM": "07403", "REGION": "Maule", "PROVINCIA": "Linares", "COMUNA": "Longav\u00ed", "variable": "Sitios de Inter\u00e9s Poblacional", "Nombres": "Bomberos - (fire_station)", "POINT_X": -71.6859057, "POINT_Y": -35.9662649991}}, {"type": "Feature", "geometry": {"type": "Point", "coordinates": [-71.6838697, -35.966091399099994]}, "properties": {"CUT_REG": "07", "CUT_PROV": "074", "CUT_COM": "07403", "REGION": "Maule", "PROVINCIA": "Linares", "COMUNA": "Longav\u00ed", "variable": "Sitios de Inter\u00e9s Poblacional", "Nombres": "BancoEstado - (bank)", "POINT_X": -71.6838697, "POINT_Y": -35.9660913991}}, {"type": "Feature", "geometry": {"type": "Point", "coordinates": [-71.68735670000004, -35.96494589909999]}, "properties": {"CUT_REG": "07", "CUT_PROV": "074", "CUT_COM": "07403", "REGION": "Maule", "PROVINCIA": "Linares", "COMUNA": "Longav\u00ed", "variable": "Sitios de Inter\u00e9s Poblacional", "Nombres": "Municipalidad de Longavi - (townhall)", "POINT_X": -71.6873567, "POINT_Y": -35.9649458991}}, {"type": "Feature", "geometry": {"type": "Point", "coordinates": [-71.43243489999999, -35.964649599099985]}, "properties": {"CUT_REG": "07", "CUT_PROV": "074", "CUT_COM": "07401", "REGION": "Maule", "PROVINCIA": "Linares", "COMUNA": "Linares", "variable": "Sitios de Inter\u00e9s Poblacional", "Nombres": "Escuela Los Mogotes - (school)", "POINT_X": -71.4324349, "POINT_Y": -35.9646495991}}, {"type": "Feature", "geometry": {"type": "Point", "coordinates": [-71.6873874, -35.9645166991]}, "properties": {"CUT_REG": "07", "CUT_PROV": "074", "CUT_COM": "07403", "REGION": "Maule", "PROVINCIA": "Linares", "COMUNA": "Longav\u00ed", "variable": "Sitios de Inter\u00e9s Poblacional", "Nombres": "Terminal de Buses - (bus_station)", "POINT_X": -71.6873874, "POINT_Y": -35.9645166991}}, {"type": "Feature", "geometry": {"type": "Point", "coordinates": [-71.48535139999996, -35.9615216991]}, "properties": {"CUT_REG": "07", "CUT_PROV": "074", "CUT_COM": "07401", "REGION": "Maule", "PROVINCIA": "Linares", "COMUNA": "Linares", "variable": "Sitios de Inter\u00e9s Poblacional", "Nombres": "PSR Vegas de Salas - (hospital)", "POINT_X": -71.4853514, "POINT_Y": -35.9615216991}}, {"type": "Feature", "geometry": {"type": "Point", "coordinates": [-71.67924460000003, -35.95305409909998]}, "properties": {"CUT_REG": "07", "CUT_PROV": "074", "CUT_COM": "07403", "REGION": "Maule", "PROVINCIA": "Linares", "COMUNA": "Longav\u00ed", "variable": "Sitios de Inter\u00e9s Poblacional", "Nombres": "Hn - (fuel)", "POINT_X": -71.6792446, "POINT_Y": -35.9530540991}}, {"type": "Feature", "geometry": {"type": "Point", "coordinates": [-71.67962699999995, -35.953036199100005]}, "properties": {"CUT_REG": "07", "CUT_PROV": "074", "CUT_COM": "07403", "REGION": "Maule", "PROVINCIA": "Linares", "COMUNA": "Longav\u00ed", "variable": "Sitios de Inter\u00e9s Poblacional", "Nombres": "Los Paleros - (restaurant)", "POINT_X": -71.679627, "POINT_Y": -35.9530361991}}, {"type": "Feature", "geometry": {"type": "Point", "coordinates": [-71.62145149999998, -35.94693199909996]}, "properties": {"CUT_REG": "07", "CUT_PROV": "074", "CUT_COM": "07403", "REGION": "Maule", "PROVINCIA": "Linares", "COMUNA": "Longav\u00ed", "variable": "Sitios de Inter\u00e9s Poblacional", "Nombres": "- (kindergarten)", "POINT_X": -71.6214515, "POINT_Y": -35.9469319991}}, {"type": "Feature", "geometry": {"type": "Point", "coordinates": [-71.62234200000003, -35.946089499099976]}, "properties": {"CUT_REG": "07", "CUT_PROV": "074", "CUT_COM": "07403", "REGION": "Maule", "PROVINCIA": "Linares", "COMUNA": "Longav\u00ed", "variable": "Sitios de Inter\u00e9s Poblacional", "Nombres": "Escuela Villa San Luis - (school)", "POINT_X": -71.622342, "POINT_Y": -35.9460894991}}, {"type": "Feature", "geometry": {"type": "Point", "coordinates": [-71.65699429999995, -35.91930939910001]}, "properties": {"CUT_REG": "07", "CUT_PROV": "074", "CUT_COM": "07403", "REGION": "Maule", "PROVINCIA": "Linares", "COMUNA": "Longav\u00ed", "variable": "Sitios de Inter\u00e9s Poblacional", "Nombres": "Hosteria Alcazar - (restaurant)", "POINT_X": -71.6569943, "POINT_Y": -35.9193093991}}, {"type": "Feature", "geometry": {"type": "Point", "coordinates": [-71.64489940000001, -35.91900709910004]}, "properties": {"CUT_REG": "07", "CUT_PROV": "074", "CUT_COM": "07403", "REGION": "Maule", "PROVINCIA": "Linares", "COMUNA": "Longav\u00ed", "variable": "Sitios de Inter\u00e9s Poblacional", "Nombres": "Capilla Miraflores - (place_of_worship)", "POINT_X": -71.6448994, "POINT_Y": -35.9190070991}}, {"type": "Feature", "geometry": {"type": "Point", "coordinates": [-71.64465099999998, -35.91895779909996]}, "properties": {"CUT_REG": "07", "CUT_PROV": "074", "CUT_COM": "07403", "REGION": "Maule", "PROVINCIA": "Linares", "COMUNA": "Longav\u00ed", "variable": "Sitios de Inter\u00e9s Poblacional", "Nombres": "- (kindergarten)", "POINT_X": -71.644651, "POINT_Y": -35.9189577991}}, {"type": "Feature", "geometry": {"type": "Point", "coordinates": [-71.64502280000002, -35.91879859910002]}, "properties": {"CUT_REG": "07", "CUT_PROV": "074", "CUT_COM": "07403", "REGION": "Maule", "PROVINCIA": "Linares", "COMUNA": "Longav\u00ed", "variable": "Sitios de Inter\u00e9s Poblacional", "Nombres": "Escuela Miraflores - (school)", "POINT_X": -71.6450228, "POINT_Y": -35.9187985991}}, {"type": "Feature", "geometry": {"type": "Point", "coordinates": [-71.64712560000001, -35.91782109909997]}, "properties": {"CUT_REG": "07", "CUT_PROV": "074", "CUT_COM": "07403", "REGION": "Maule", "PROVINCIA": "Linares", "COMUNA": "Longav\u00ed", "variable": "Sitios de Inter\u00e9s Poblacional", "Nombres": "- (place_of_worship)", "POINT_X": -71.6471256, "POINT_Y": -35.9178210991}}, {"type": "Feature", "geometry": {"type": "Point", "coordinates": [-71.6473927, -35.89672899909998]}, "properties": {"CUT_REG": "07", "CUT_PROV": "074", "CUT_COM": "07403", "REGION": "Maule", "PROVINCIA": "Linares", "COMUNA": "Longav\u00ed", "variable": "Sitios de Inter\u00e9s Poblacional", "Nombres": "Restaurant Alcazar - (restaurant)", "POINT_X": -71.6473927, "POINT_Y": -35.8967289991}}, {"type": "Feature", "geometry": {"type": "Point", "coordinates": [-71.99290209999995, -35.8877776991]}, "properties": {"CUT_REG": "07", "CUT_PROV": "074", "CUT_COM": "07405", "REGION": "Maule", "PROVINCIA": "Linares", "COMUNA": "Retiro", "variable": "Sitios de Inter\u00e9s Poblacional", "Nombres": "PSR Talhuenes - (hospital)", "POINT_X": -71.9929021, "POINT_Y": -35.8877776991}}, {"type": "Feature", "geometry": {"type": "Point", "coordinates": [-71.80829839999996, -35.872362499099964]}, "properties": {"CUT_REG": "07", "CUT_PROV": "074", "CUT_COM": "07405", "REGION": "Maule", "PROVINCIA": "Linares", "COMUNA": "Retiro", "variable": "Sitios de Inter\u00e9s Poblacional", "Nombres": "PSR Villaseca - (hospital)", "POINT_X": -71.8082984, "POINT_Y": -35.8723624991}}, {"type": "Feature", "geometry": {"type": "Point", "coordinates": [-71.23470330000004, -35.86334039909998]}, "properties": {"CUT_REG": "07", "CUT_PROV": "074", "CUT_COM": "07401", "REGION": "Maule", "PROVINCIA": "Linares", "COMUNA": "Linares", "variable": "Sitios de Inter\u00e9s Poblacional", "Nombres": "PSR Chupallar - (hospital)", "POINT_X": -71.2347033, "POINT_Y": -35.8633403991}}, {"type": "Feature", "geometry": {"type": "Point", "coordinates": [-71.58144770000003, -35.85774569909999]}, "properties": {"CUT_REG": "07", "CUT_PROV": "074", "CUT_COM": "07401", "REGION": "Maule", "PROVINCIA": "Linares", "COMUNA": "Linares", "variable": "Sitios de Inter\u00e9s Poblacional", "Nombres": "Escuela 35 - (school)", "POINT_X": -71.5814477, "POINT_Y": -35.8577456991}}, {"type": "Feature", "geometry": {"type": "Point", "coordinates": [-71.57913569999997, -35.85764259909999]}, "properties": {"CUT_REG": "07", "CUT_PROV": "074", "CUT_COM": "07401", "REGION": "Maule", "PROVINCIA": "Linares", "COMUNA": "Linares", "variable": "Sitios de Inter\u00e9s Poblacional", "Nombres": "- (fuel)", "POINT_X": -71.5791357, "POINT_Y": -35.8576425991}}, {"type": "Feature", "geometry": {"type": "Point", "coordinates": [-71.5808925, -35.857488199100004]}, "properties": {"CUT_REG": "07", "CUT_PROV": "074", "CUT_COM": "07401", "REGION": "Maule", "PROVINCIA": "Linares", "COMUNA": "Linares", "variable": "Sitios de Inter\u00e9s Poblacional", "Nombres": "- (traffic_signals)", "POINT_X": -71.5808925, "POINT_Y": -35.8574881991}}, {"type": "Feature", "geometry": {"type": "Point", "coordinates": [-71.58635909999997, -35.85502979909999]}, "properties": {"CUT_REG": "07", "CUT_PROV": "074", "CUT_COM": "07401", "REGION": "Maule", "PROVINCIA": "Linares", "COMUNA": "Linares", "variable": "Sitios de Inter\u00e9s Poblacional", "Nombres": "- (traffic_signals)", "POINT_X": -71.5863591, "POINT_Y": -35.8550297991}}, {"type": "Feature", "geometry": {"type": "Point", "coordinates": [-71.60280969999997, -35.85471529909999]}, "properties": {"CUT_REG": "07", "CUT_PROV": "074", "CUT_COM": "07401", "REGION": "Maule", "PROVINCIA": "Linares", "COMUNA": "Linares", "variable": "Sitios de Inter\u00e9s Poblacional", "Nombres": "Parroquia - (place_of_worship)", "POINT_X": -71.6028097, "POINT_Y": -35.8547152991}}, {"type": "Feature", "geometry": {"type": "Point", "coordinates": [-71.59223710000003, -35.854057699100025]}, "properties": {"CUT_REG": "07", "CUT_PROV": "074", "CUT_COM": "07401", "REGION": "Maule", "PROVINCIA": "Linares", "COMUNA": "Linares", "variable": "Sitios de Inter\u00e9s Poblacional", "Nombres": "Socorro - (fuel)", "POINT_X": -71.5922371, "POINT_Y": -35.8540576991}}, {"type": "Feature", "geometry": {"type": "Point", "coordinates": [-71.59533839999996, -35.85314179910001]}, "properties": {"CUT_REG": "07", "CUT_PROV": "074", "CUT_COM": "07401", "REGION": "Maule", "PROVINCIA": "Linares", "COMUNA": "Linares", "variable": "Sitios de Inter\u00e9s Poblacional", "Nombres": "- (traffic_signals)", "POINT_X": -71.5953384, "POINT_Y": -35.8531417991}}, {"type": "Feature", "geometry": {"type": "Point", "coordinates": [-71.58544579999999, -35.8526628991]}, "properties": {"CUT_REG": "07", "CUT_PROV": "074", "CUT_COM": "07401", "REGION": "Maule", "PROVINCIA": "Linares", "COMUNA": "Linares", "variable": "Sitios de Inter\u00e9s Poblacional", "Nombres": "- (traffic_signals)", "POINT_X": -71.5854458, "POINT_Y": -35.8526628991}}, {"type": "Feature", "geometry": {"type": "Point", "coordinates": [-71.57933510000002, -35.85248169910001]}, "properties": {"CUT_REG": "07", "CUT_PROV": "074", "CUT_COM": "07401", "REGION": "Maule", "PROVINCIA": "Linares", "COMUNA": "Linares", "variable": "Sitios de Inter\u00e9s Poblacional", "Nombres": "Escuela Agricola Salesianos - (veterinary)", "POINT_X": -71.5793351, "POINT_Y": -35.8524816991}}, {"type": "Feature", "geometry": {"type": "Point", "coordinates": [-71.5816127, -35.85217799910002]}, "properties": {"CUT_REG": "07", "CUT_PROV": "074", "CUT_COM": "07401", "REGION": "Maule", "PROVINCIA": "Linares", "COMUNA": "Linares", "variable": "Sitios de Inter\u00e9s Poblacional", "Nombres": "Iglesia Salesianos - (place_of_worship)", "POINT_X": -71.5816127, "POINT_Y": -35.8521779991}}, {"type": "Feature", "geometry": {"type": "Point", "coordinates": [-71.59363570000002, -35.85209349909996]}, "properties": {"CUT_REG": "07", "CUT_PROV": "074", "CUT_COM": "07401", "REGION": "Maule", "PROVINCIA": "Linares", "COMUNA": "Linares", "variable": "Sitios de Inter\u00e9s Poblacional", "Nombres": "Parroquia - (place_of_worship)", "POINT_X": -71.5936357, "POINT_Y": -35.8520934991}}, {"type": "Feature", "geometry": {"type": "Point", "coordinates": [-71.58995309999997, -35.85171059909998]}, "properties": {"CUT_REG": "07", "CUT_PROV": "074", "CUT_COM": "07401", "REGION": "Maule", "PROVINCIA": "Linares", "COMUNA": "Linares", "variable": "Sitios de Inter\u00e9s Poblacional", "Nombres": "- (traffic_signals)", "POINT_X": -71.5899531, "POINT_Y": -35.8517105991}}, {"type": "Feature", "geometry": {"type": "Point", "coordinates": [-71.59332989999996, -35.851575999100035]}, "properties": {"CUT_REG": "07", "CUT_PROV": "074", "CUT_COM": "07401", "REGION": "Maule", "PROVINCIA": "Linares", "COMUNA": "Linares", "variable": "Sitios de Inter\u00e9s Poblacional", "Nombres": "Parroquia El Rosario - (place_of_worship)", "POINT_X": -71.5933299, "POINT_Y": -35.8515759991}}, {"type": "Feature", "geometry": {"type": "Point", "coordinates": [-71.58535830000002, -35.85155479909997]}, "properties": {"CUT_REG": "07", "CUT_PROV": "074", "CUT_COM": "07401", "REGION": "Maule", "PROVINCIA": "Linares", "COMUNA": "Linares", "variable": "Sitios de Inter\u00e9s Poblacional", "Nombres": "Cuarta Compa\u00f1\u00eda de Bomberos - (fire_station)", "POINT_X": -71.5853583, "POINT_Y": -35.8515547991}}, {"type": "Feature", "geometry": {"type": "Point", "coordinates": [-71.5902507, -35.85134559909998]}, "properties": {"CUT_REG": "07", "CUT_PROV": "074", "CUT_COM": "07401", "REGION": "Maule", "PROVINCIA": "Linares", "COMUNA": "Linares", "variable": "Sitios de Inter\u00e9s Poblacional", "Nombres": "Consultorio San Juan de Dios - (hospital)", "POINT_X": -71.5902507, "POINT_Y": -35.8513455991}}, {"type": "Feature", "geometry": {"type": "Point", "coordinates": [-71.58864090000003, -35.8509099991]}, "properties": {"CUT_REG": "07", "CUT_PROV": "074", "CUT_COM": "07401", "REGION": "Maule", "PROVINCIA": "Linares", "COMUNA": "Linares", "variable": "Sitios de Inter\u00e9s Poblacional", "Nombres": "La Iglesia de Jesucristo de los Santos de los \u00da -", "POINT_X": -71.5886409, "POINT_Y": -35.8509099991}}, {"type": "Feature", "geometry": {"type": "Point", "coordinates": [-71.60047, -35.8505042991]}, "properties": {"CUT_REG": "07", "CUT_PROV": "074", "CUT_COM": "07401", "REGION": "Maule", "PROVINCIA": "Linares", "COMUNA": "Linares", "variable": "Sitios de Inter\u00e9s Poblacional", "Nombres": "Piscina Instituto Linares - (swimming_pool)", "POINT_X": -71.60047, "POINT_Y": -35.8505042991}}, {"type": "Feature", "geometry": {"type": "Point", "coordinates": [-71.59080329999998, -35.850112999099956]}, "properties": {"CUT_REG": "07", "CUT_PROV": "074", "CUT_COM": "07401", "REGION": "Maule", "PROVINCIA": "Linares", "COMUNA": "Linares", "variable": "Sitios de Inter\u00e9s Poblacional", "Nombres": "El Oriente - (restaurant)", "POINT_X": -71.5908033, "POINT_Y": -35.8501129991}}, {"type": "Feature", "geometry": {"type": "Point", "coordinates": [-71.59945609999995, -35.85008529909997]}, "properties": {"CUT_REG": "07", "CUT_PROV": "074", "CUT_COM": "07401", "REGION": "Maule", "PROVINCIA": "Linares", "COMUNA": "Linares", "variable": "Sitios de Inter\u00e9s Poblacional", "Nombres": "San Miguel Arc\u00e1ngel - (school)", "POINT_X": -71.5994561, "POINT_Y": -35.8500852991}}, {"type": "Feature", "geometry": {"type": "Point", "coordinates": [-71.59391590000004, -35.8495638991]}, "properties": {"CUT_REG": "07", "CUT_PROV": "074", "CUT_COM": "07401", "REGION": "Maule", "PROVINCIA": "Linares", "COMUNA": "Linares", "variable": "Sitios de Inter\u00e9s Poblacional", "Nombres": "- (traffic_signals)", "POINT_X": -71.5939159, "POINT_Y": -35.8495638991}}, {"type": "Feature", "geometry": {"type": "Point", "coordinates": [-71.58901589999996, -35.84929609909996]}, "properties": {"CUT_REG": "07", "CUT_PROV": "074", "CUT_COM": "07401", "REGION": "Maule", "PROVINCIA": "Linares", "COMUNA": "Linares", "variable": "Sitios de Inter\u00e9s Poblacional", "Nombres": "- (traffic_signals)", "POINT_X": -71.5890159, "POINT_Y": -35.8492960991}}, {"type": "Feature", "geometry": {"type": "Point", "coordinates": [-71.59911809999997, -35.84926719909996]}, "properties": {"CUT_REG": "07", "CUT_PROV": "074", "CUT_COM": "07401", "REGION": "Maule", "PROVINCIA": "Linares", "COMUNA": "Linares", "variable": "Sitios de Inter\u00e9s Poblacional", "Nombres": "Prefectura Carabineros - (police)", "POINT_X": -71.5991181, "POINT_Y": -35.8492671991}}, {"type": "Feature", "geometry": {"type": "Point", "coordinates": [-71.59638759999999, -35.84913229909999]}, "properties": {"CUT_REG": "07", "CUT_PROV": "074", "CUT_COM": "07401", "REGION": "Maule", "PROVINCIA": "Linares", "COMUNA": "Linares", "variable": "Sitios de Inter\u00e9s Poblacional", "Nombres": "Estacionamientos Valentin Letelier - (parking)", "POINT_X": -71.5963876, "POINT_Y": -35.8491322991}}, {"type": "Feature", "geometry": {"type": "Point", "coordinates": [-71.5932983, -35.84909099910004]}, "properties": {"CUT_REG": "07", "CUT_PROV": "074", "CUT_COM": "07401", "REGION": "Maule", "PROVINCIA": "Linares", "COMUNA": "Linares", "variable": "Sitios de Inter\u00e9s Poblacional", "Nombres": "Santa Isabel - (supermarket)", "POINT_X": -71.5932983, "POINT_Y": -35.8490909991}}, {"type": "Feature", "geometry": {"type": "Point", "coordinates": [-71.59356649999998, -35.84903009909998]}, "properties": {"CUT_REG": "07", "CUT_PROV": "074", "CUT_COM": "07401", "REGION": "Maule", "PROVINCIA": "Linares", "COMUNA": "Linares", "variable": "Sitios de Inter\u00e9s Poblacional", "Nombres": "Estacionamiento Santa Isabel - (parking)", "POINT_X": -71.5935665, "POINT_Y": -35.8490300991}}, {"type": "Feature", "geometry": {"type": "Point", "coordinates": [-71.59778240000003, -35.84881049910001]}, "properties": {"CUT_REG": "07", "CUT_PROV": "074", "CUT_COM": "07401", "REGION": "Maule", "PROVINCIA": "Linares", "COMUNA": "Linares", "variable": "Sitios de Inter\u00e9s Poblacional", "Nombres": "Estacionamientos Valentin Letelier - (parking)", "POINT_X": -71.5977824, "POINT_Y": -35.8488104991}}, {"type": "Feature", "geometry": {"type": "Point", "coordinates": [-71.59230609999997, -35.848764699100045]}, "properties": {"CUT_REG": "07", "CUT_PROV": "074", "CUT_COM": "07401", "REGION": "Maule", "PROVINCIA": "Linares", "COMUNA": "Linares", "variable": "Sitios de Inter\u00e9s Poblacional", "Nombres": "Ropa Germania - (clothes)", "POINT_X": -71.5923061, "POINT_Y": -35.8487646991}}, {"type": "Feature", "geometry": {"type": "Point", "coordinates": [-71.59264939999996, -35.84869949909998]}, "properties": {"CUT_REG": "07", "CUT_PROV": "074", "CUT_COM": "07401", "REGION": "Maule", "PROVINCIA": "Linares", "COMUNA": "Linares", "variable": "Sitios de Inter\u00e9s Poblacional", "Nombres": "Ferreteria El Sol - (doityourself)", "POINT_X": -71.5926494, "POINT_Y": -35.8486994991}}, {"type": "Feature", "geometry": {"type": "Point", "coordinates": [-71.59165620000002, -35.848667599100004]}, "properties": {"CUT_REG": "07", "CUT_PROV": "074", "CUT_COM": "07401", "REGION": "Maule", "PROVINCIA": "Linares", "COMUNA": "Linares", "variable": "Sitios de Inter\u00e9s Poblacional", "Nombres": "Floreria - (garden_centre)", "POINT_X": -71.5916562, "POINT_Y": -35.8486675991}}, {"type": "Feature", "geometry": {"type": "Point", "coordinates": [-71.59293379999995, -35.848651899100034]}, "properties": {"CUT_REG": "07", "CUT_PROV": "074", "CUT_COM": "07401", "REGION": "Maule", "PROVINCIA": "Linares", "COMUNA": "Linares", "variable": "Sitios de Inter\u00e9s Poblacional", "Nombres": "San Sebastian - (restaurant)", "POINT_X": -71.5929338, "POINT_Y": -35.8486518991}}, {"type": "Feature", "geometry": {"type": "Point", "coordinates": [-71.59167389999999, -35.8485000991]}, "properties": {"CUT_REG": "07", "CUT_PROV": "074", "CUT_COM": "07401", "REGION": "Maule", "PROVINCIA": "Linares", "COMUNA": "Linares", "variable": "Sitios de Inter\u00e9s Poblacional", "Nombres": "Pescaderia El Chilote - (seafood)", "POINT_X": -71.5916739, "POINT_Y": -35.8485000991}}, {"type": "Feature", "geometry": {"type": "Point", "coordinates": [-71.59249389999997, -35.84845599909999]}, "properties": {"CUT_REG": "07", "CUT_PROV": "074", "CUT_COM": "07401", "REGION": "Maule", "PROVINCIA": "Linares", "COMUNA": "Linares", "variable": "Sitios de Inter\u00e9s Poblacional", "Nombres": "Calzado El Gallo Azul - (clothes)", "POINT_X": -71.5924939, "POINT_Y": -35.8484559991}}, {"type": "Feature", "geometry": {"type": "Point", "coordinates": [-71.59220419999998, -35.84843439909998]}, "properties": {"CUT_REG": "07", "CUT_PROV": "074", "CUT_COM": "07401", "REGION": "Maule", "PROVINCIA": "Linares", "COMUNA": "Linares", "variable": "Sitios de Inter\u00e9s Poblacional", "Nombres": "Galeria Alee - (gift)", "POINT_X": -71.5922042, "POINT_Y": -35.8484343991}}, {"type": "Feature", "geometry": {"type": "Point", "coordinates": [-71.59426409999998, -35.84837329909999]}, "properties": {"CUT_REG": "07", "CUT_PROV": "074", "CUT_COM": "07401", "REGION": "Maule", "PROVINCIA": "Linares", "COMUNA": "Linares", "variable": "Sitios de Inter\u00e9s Poblacional", "Nombres": "Panaderia La Palmilla - (bakery)", "POINT_X": -71.5942641, "POINT_Y": -35.8483732991}}, {"type": "Feature", "geometry": {"type": "Point", "coordinates": [-71.59310010000004, -35.84837329909999]}, "properties": {"CUT_REG": "07", "CUT_PROV": "074", "CUT_COM": "07401", "REGION": "Maule", "PROVINCIA": "Linares", "COMUNA": "Linares", "variable": "Sitios de Inter\u00e9s Poblacional", "Nombres": "Panaderia La Republica - (bakery)", "POINT_X": -71.5931001, "POINT_Y": -35.8483732991}}, {"type": "Feature", "geometry": {"type": "Point", "coordinates": [-71.59344040000003, -35.848362999100026]}, "properties": {"CUT_REG": "07", "CUT_PROV": "074", "CUT_COM": "07401", "REGION": "Maule", "PROVINCIA": "Linares", "COMUNA": "Linares", "variable": "Sitios de Inter\u00e9s Poblacional", "Nombres": "- (traffic_signals)", "POINT_X": -71.5934404, "POINT_Y": -35.8483629991}}, {"type": "Feature", "geometry": {"type": "Point", "coordinates": [-71.59459669999995, -35.84831249910002]}, "properties": {"CUT_REG": "07", "CUT_PROV": "074", "CUT_COM": "07401", "REGION": "Maule", "PROVINCIA": "Linares", "COMUNA": "Linares", "variable": "Sitios de Inter\u00e9s Poblacional", "Nombres": "Feria del Calzado - (clothes)", "POINT_X": -71.5945967, "POINT_Y": -35.8483124991}}, {"type": "Feature", "geometry": {"type": "Point", "coordinates": [-71.59329320000003, -35.8482950991]}, "properties": {"CUT_REG": "07", "CUT_PROV": "074", "CUT_COM": "07401", "REGION": "Maule", "PROVINCIA": "Linares", "COMUNA": "Linares", "variable": "Sitios de Inter\u00e9s Poblacional", "Nombres": "Comercial Meicy\u00b4s - (clothes)", "POINT_X": -71.5932932, "POINT_Y": -35.8482950991}}, {"type": "Feature", "geometry": {"type": "Point", "coordinates": [-71.59545500000002, -35.84825179909997]}, "properties": {"CUT_REG": "07", "CUT_PROV": "074", "CUT_COM": "07401", "REGION": "Maule", "PROVINCIA": "Linares", "COMUNA": "Linares", "variable": "Sitios de Inter\u00e9s Poblacional", "Nombres": "Unimarc - (supermarket)", "POINT_X": -71.595455, "POINT_Y": -35.8482517991}}, {"type": "Feature", "geometry": {"type": "Point", "coordinates": [-71.59788970000002, -35.84817579909999]}, "properties": {"CUT_REG": "07", "CUT_PROV": "074", "CUT_COM": "07401", "REGION": "Maule", "PROVINCIA": "Linares", "COMUNA": "Linares", "variable": "Sitios de Inter\u00e9s Poblacional", "Nombres": "Escuela Espa\u00f1a - (school)", "POINT_X": -71.5978897, "POINT_Y": -35.8481757991}}, {"type": "Feature", "geometry": {"type": "Point", "coordinates": [-71.5941667, -35.848113099099955]}, "properties": {"CUT_REG": "07", "CUT_PROV": "074", "CUT_COM": "07401", "REGION": "Maule", "PROVINCIA": "Linares", "COMUNA": "Linares", "variable": "Sitios de Inter\u00e9s Poblacional", "Nombres": "Carnes de Solis - (butcher)", "POINT_X": -71.5941667, "POINT_Y": -35.8481130991}}, {"type": "Feature", "geometry": {"type": "Point", "coordinates": [-71.59597539999999, -35.84809959909999]}, "properties": {"CUT_REG": "07", "CUT_PROV": "074", "CUT_COM": "07401", "REGION": "Maule", "PROVINCIA": "Linares", "COMUNA": "Linares", "variable": "Sitios de Inter\u00e9s Poblacional", "Nombres": "Banco Condell - (bank)", "POINT_X": -71.5959754, "POINT_Y": -35.8480995991}}, {"type": "Feature", "geometry": {"type": "Point", "coordinates": [-71.59447329999998, -35.84808219909997]}, "properties": {"CUT_REG": "07", "CUT_PROV": "074", "CUT_COM": "07401", "REGION": "Maule", "PROVINCIA": "Linares", "COMUNA": "Linares", "variable": "Sitios de Inter\u00e9s Poblacional", "Nombres": "Zapateria Benito Vasquez - (clothes)", "POINT_X": -71.5944733, "POINT_Y": -35.8480821991}}, {"type": "Feature", "geometry": {"type": "Point", "coordinates": [-71.59492280000003, -35.848053599100005]}, "properties": {"CUT_REG": "07", "CUT_PROV": "074", "CUT_COM": "07401", "REGION": "Maule", "PROVINCIA": "Linares", "COMUNA": "Linares", "variable": "Sitios de Inter\u00e9s Poblacional", "Nombres": "- (traffic_signals)", "POINT_X": -71.5949228, "POINT_Y": -35.8480535991}}, {"type": "Feature", "geometry": {"type": "Point", "coordinates": [-71.59482739999996, -35.84801239909997]}, "properties": {"CUT_REG": "07", "CUT_PROV": "074", "CUT_COM": "07401", "REGION": "Maule", "PROVINCIA": "Linares", "COMUNA": "Linares", "variable": "Sitios de Inter\u00e9s Poblacional", "Nombres": "Carnes de Solis - (butcher)", "POINT_X": -71.5948274, "POINT_Y": -35.8480123991}}, {"type": "Feature", "geometry": {"type": "Point", "coordinates": [-71.60009389999996, -35.847997099100034]}, "properties": {"CUT_REG": "07", "CUT_PROV": "074", "CUT_COM": "07401", "REGION": "Maule", "PROVINCIA": "Linares", "COMUNA": "Linares", "variable": "Sitios de Inter\u00e9s Poblacional", "Nombres": "Cuerpo de Bomberos de Linares - (fire_station)", "POINT_X": -71.6000939, "POINT_Y": -35.8479970991}}, {"type": "Feature", "geometry": {"type": "Point", "coordinates": [-71.59511170000003, -35.84794309910001]}, "properties": {"CUT_REG": "07", "CUT_PROV": "074", "CUT_COM": "07401", "REGION": "Maule", "PROVINCIA": "Linares", "COMUNA": "Linares", "variable": "Sitios de Inter\u00e9s Poblacional", "Nombres": "Carnes Diaz - (butcher)", "POINT_X": -71.5951117, "POINT_Y": -35.8479430991}}, {"type": "Feature", "geometry": {"type": "Point", "coordinates": [-71.60183760000001, -35.8477497991]}, "properties": {"CUT_REG": "07", "CUT_PROV": "074", "CUT_COM": "07401", "REGION": "Maule", "PROVINCIA": "Linares", "COMUNA": "Linares", "variable": "Sitios de Inter\u00e9s Poblacional", "Nombres": "Bomberos - (fire_station)", "POINT_X": -71.6018376, "POINT_Y": -35.8477497991}}, {"type": "Feature", "geometry": {"type": "Point", "coordinates": [-71.5964275, -35.8477325991]}, "properties": {"CUT_REG": "07", "CUT_PROV": "074", "CUT_COM": "07401", "REGION": "Maule", "PROVINCIA": "Linares", "COMUNA": "Linares", "variable": "Sitios de Inter\u00e9s Poblacional", "Nombres": "- (traffic_signals)", "POINT_X": -71.5964275, "POINT_Y": -35.8477325991}}, {"type": "Feature", "geometry": {"type": "Point", "coordinates": [-71.60469709999998, -35.84763229909996]}, "properties": {"CUT_REG": "07", "CUT_PROV": "074", "CUT_COM": "07401", "REGION": "Maule", "PROVINCIA": "Linares", "COMUNA": "Linares", "variable": "Sitios de Inter\u00e9s Poblacional", "Nombres": "Escuela Ram\u00f3n Belmar Sald\u00edas - (school)", "POINT_X": -71.6046971, "POINT_Y": -35.8476322991}}, {"type": "Feature", "geometry": {"type": "Point", "coordinates": [-71.591818, -35.8476080991]}, "properties": {"CUT_REG": "07", "CUT_PROV": "074", "CUT_COM": "07401", "REGION": "Maule", "PROVINCIA": "Linares", "COMUNA": "Linares", "variable": "Sitios de Inter\u00e9s Poblacional", "Nombres": "Banco Express BBVA - (bank)", "POINT_X": -71.591818, "POINT_Y": -35.8476080991}}, {"type": "Feature", "geometry": {"type": "Point", "coordinates": [-71.59113640000001, -35.84755609909996]}, "properties": {"CUT_REG": "07", "CUT_PROV": "074", "CUT_COM": "07401", "REGION": "Maule", "PROVINCIA": "Linares", "COMUNA": "Linares", "variable": "Sitios de Inter\u00e9s Poblacional", "Nombres": "Estacionamiento Estacion trenes de Linares - (par*", "POINT_X": -71.5911364, "POINT_Y": -35.8475560991}}, {"type": "Feature", "geometry": {"type": "Point", "coordinates": [-71.59049639999998, -35.84750189910001]}, "properties": {"CUT_REG": "07", "CUT_PROV": "074", "CUT_COM": "07401", "REGION": "Maule", "PROVINCIA": "Linares", "COMUNA": "Linares", "variable": "Sitios de Inter\u00e9s Poblacional", "Nombres": "Linares - (station)", "POINT_X": -71.5904964, "POINT_Y": -35.8475018991}}, {"type": "Feature", "geometry": {"type": "Point", "coordinates": [-71.59137239999998, -35.847480599100024]}, "properties": {"CUT_REG": "07", "CUT_PROV": "074", "CUT_COM": "07401", "REGION": "Maule", "PROVINCIA": "Linares", "COMUNA": "Linares", "variable": "Sitios de Inter\u00e9s Poblacional", "Nombres": "- (traffic_signals)", "POINT_X": -71.5913724, "POINT_Y": -35.8474805991}}, {"type": "Feature", "geometry": {"type": "Point", "coordinates": [-71.59235439999998, -35.84747759910004]}, "properties": {"CUT_REG": "07", "CUT_PROV": "074", "CUT_COM": "07401", "REGION": "Maule", "PROVINCIA": "Linares", "COMUNA": "Linares", "variable": "Sitios de Inter\u00e9s Poblacional", "Nombres": "Centro Artesanal El Galpon - (gift)", "POINT_X": -71.5923544, "POINT_Y": -35.8474775991}}, {"type": "Feature", "geometry": {"type": "Point", "coordinates": [-71.59147849999998, -35.84745869909999]}, "properties": {"CUT_REG": "07", "CUT_PROV": "074", "CUT_COM": "07401", "REGION": "Maule", "PROVINCIA": "Linares", "COMUNA": "Linares", "variable": "Sitios de Inter\u00e9s Poblacional", "Nombres": "- (traffic_signals)", "POINT_X": -71.5914785, "POINT_Y": -35.8474586991}}, {"type": "Feature", "geometry": {"type": "Point", "coordinates": [-71.59791499999999, -35.84743789910004]}, "properties": {"CUT_REG": "07", "CUT_PROV": "074", "CUT_COM": "07401", "REGION": "Maule", "PROVINCIA": "Linares", "COMUNA": "Linares", "variable": "Sitios de Inter\u00e9s Poblacional", "Nombres": "- (traffic_signals)", "POINT_X": -71.597915, "POINT_Y": -35.8474378991}}, {"type": "Feature", "geometry": {"type": "Point", "coordinates": [-71.59264939999996, -35.84741669909997]}, "properties": {"CUT_REG": "07", "CUT_PROV": "074", "CUT_COM": "07401", "REGION": "Maule", "PROVINCIA": "Linares", "COMUNA": "Linares", "variable": "Sitios de Inter\u00e9s Poblacional", "Nombres": "Calzado Las Indias - (clothes)", "POINT_X": -71.5926494, "POINT_Y": -35.8474166991}}, {"type": "Feature", "geometry": {"type": "Point", "coordinates": [-71.591775, -35.84732539909997]}, "properties": {"CUT_REG": "07", "CUT_PROV": "074", "CUT_COM": "07401", "REGION": "Maule", "PROVINCIA": "Linares", "COMUNA": "Linares", "variable": "Sitios de Inter\u00e9s Poblacional", "Nombres": "Florida - (clothes)", "POINT_X": -71.591775, "POINT_Y": -35.8473253991}}, {"type": "Feature", "geometry": {"type": "Point", "coordinates": [-71.5912136, -35.8472977991]}, "properties": {"CUT_REG": "07", "CUT_PROV": "074", "CUT_COM": "07401", "REGION": "Maule", "PROVINCIA": "Linares", "COMUNA": "Linares", "variable": "Sitios de Inter\u00e9s Poblacional", "Nombres": "Verduleria Estacion - (greengrocer)", "POINT_X": -71.5912136, "POINT_Y": -35.8472977991}}, {"type": "Feature", "geometry": {"type": "Point", "coordinates": [-71.59194619999995, -35.84729109909998]}, "properties": {"CUT_REG": "07", "CUT_PROV": "074", "CUT_COM": "07401", "REGION": "Maule", "PROVINCIA": "Linares", "COMUNA": "Linares", "variable": "Sitios de Inter\u00e9s Poblacional", "Nombres": "FOS - (clothes)", "POINT_X": -71.5919462, "POINT_Y": -35.8472910991}}, {"type": "Feature", "geometry": {"type": "Point", "coordinates": [-71.59216070000002, -35.84723429909998]}, "properties": {"CUT_REG": "07", "CUT_PROV": "074", "CUT_COM": "07401", "REGION": "Maule", "PROVINCIA": "Linares", "COMUNA": "Linares", "variable": "Sitios de Inter\u00e9s Poblacional", "Nombres": "Zapateria La bota Roja - (clothes)", "POINT_X": -71.5921607, "POINT_Y": -35.8472342991}}, {"type": "Feature", "geometry": {"type": "Point", "coordinates": [-71.59380229999996, -35.84722999909998]}, "properties": {"CUT_REG": "07", "CUT_PROV": "074", "CUT_COM": "07401", "REGION": "Maule", "PROVINCIA": "Linares", "COMUNA": "Linares", "variable": "Sitios de Inter\u00e9s Poblacional", "Nombres": "Multicentro - (department_store)", "POINT_X": -71.5938023, "POINT_Y": -35.8472299991}}, {"type": "Feature", "geometry": {"type": "Point", "coordinates": [-71.59241290000003, -35.84717799910003]}, "properties": {"CUT_REG": "07", "CUT_PROV": "074", "CUT_COM": "07401", "REGION": "Maule", "PROVINCIA": "Linares", "COMUNA": "Linares", "variable": "Sitios de Inter\u00e9s Poblacional", "Nombres": "Family Shop - (clothes)", "POINT_X": -71.5924129, "POINT_Y": -35.8471779991}}, {"type": "Feature", "geometry": {"type": "Point", "coordinates": [-71.592971, -35.84715039909997]}, "properties": {"CUT_REG": "07", "CUT_PROV": "074", "CUT_COM": "07401", "REGION": "Maule", "PROVINCIA": "Linares", "COMUNA": "Linares", "variable": "Sitios de Inter\u00e9s Poblacional", "Nombres": "- (traffic_signals)", "POINT_X": -71.592971, "POINT_Y": -35.8471503991}}, {"type": "Feature", "geometry": {"type": "Point", "coordinates": [-71.59439770000002, -35.84713869909998]}, "properties": {"CUT_REG": "07", "CUT_PROV": "074", "CUT_COM": "07401", "REGION": "Maule", "PROVINCIA": "Linares", "COMUNA": "Linares", "variable": "Sitios de Inter\u00e9s Poblacional", "Nombres": "Multihogar - (department_store)", "POINT_X": -71.5943977, "POINT_Y": -35.8471386991}}, {"type": "Feature", "geometry": {"type": "Point", "coordinates": [-71.5926274, -35.847130199099986]}, "properties": {"CUT_REG": "07", "CUT_PROV": "074", "CUT_COM": "07401", "REGION": "Maule", "PROVINCIA": "Linares", "COMUNA": "Linares", "variable": "Sitios de Inter\u00e9s Poblacional", "Nombres": "Fashion\u00b4s Park - (clothes)", "POINT_X": -71.5926274, "POINT_Y": -35.8471301991}}, {"type": "Feature", "geometry": {"type": "Point", "coordinates": [-71.59612569999999, -35.847112599100036]}, "properties": {"CUT_REG": "07", "CUT_PROV": "074", "CUT_COM": "07401", "REGION": "Maule", "PROVINCIA": "Linares", "COMUNA": "Linares", "variable": "Sitios de Inter\u00e9s Poblacional", "Nombres": "Cafe Suiza - (cafe)", "POINT_X": -71.5961257, "POINT_Y": -35.8471125991}}, {"type": "Feature", "geometry": {"type": "Point", "coordinates": [-71.59919779999998, -35.8470820991]}, "properties": {"CUT_REG": "07", "CUT_PROV": "074", "CUT_COM": "07401", "REGION": "Maule", "PROVINCIA": "Linares", "COMUNA": "Linares", "variable": "Sitios de Inter\u00e9s Poblacional", "Nombres": "Petrobras - (fuel)", "POINT_X": -71.5991978, "POINT_Y": -35.8470820991}}, {"type": "Feature", "geometry": {"type": "Point", "coordinates": [-71.5928313, -35.8470777991]}, "properties": {"CUT_REG": "07", "CUT_PROV": "074", "CUT_COM": "07401", "REGION": "Maule", "PROVINCIA": "Linares", "COMUNA": "Linares", "variable": "Sitios de Inter\u00e9s Poblacional", "Nombres": "Fachy - (supermarket)", "POINT_X": -71.5928313, "POINT_Y": -35.8470777991}}, {"type": "Feature", "geometry": {"type": "Point", "coordinates": [-71.58903839999996, -35.8470756991]}, "properties": {"CUT_REG": "07", "CUT_PROV": "074", "CUT_COM": "07401", "REGION": "Maule", "PROVINCIA": "Linares", "COMUNA": "Linares", "variable": "Sitios de Inter\u00e9s Poblacional", "Nombres": "Terminal de Buses de Linares - (bus_station)", "POINT_X": -71.5890384, "POINT_Y": -35.8470756991}}, {"type": "Feature", "geometry": {"type": "Point", "coordinates": [-71.59488590000001, -35.847012599100026]}, "properties": {"CUT_REG": "07", "CUT_PROV": "074", "CUT_COM": "07401", "REGION": "Maule", "PROVINCIA": "Linares", "COMUNA": "Linares", "variable": "Sitios de Inter\u00e9s Poblacional", "Nombres": "Corona - (department_store)", "POINT_X": -71.5948859, "POINT_Y": -35.8470125991}}, {"type": "Feature", "geometry": {"type": "Point", "coordinates": [-71.59335220000003, -35.84700359909999]}, "properties": {"CUT_REG": "07", "CUT_PROV": "074", "CUT_COM": "07401", "REGION": "Maule", "PROVINCIA": "Linares", "COMUNA": "Linares", "variable": "Sitios de Inter\u00e9s Poblacional", "Nombres": "Multicentro - (department_store)", "POINT_X": -71.5933522, "POINT_Y": -35.8470035991}}, {"type": "Feature", "geometry": {"type": "Point", "coordinates": [-71.59155459999997, -35.8469907991]}, "properties": {"CUT_REG": "07", "CUT_PROV": "074", "CUT_COM": "07401", "REGION": "Maule", "PROVINCIA": "Linares", "COMUNA": "Linares", "variable": "Sitios de Inter\u00e9s Poblacional", "Nombres": "La Casa de las Bicicletas - (bicycle)", "POINT_X": -71.5915546, "POINT_Y": -35.8469907991}}, {"type": "Feature", "geometry": {"type": "Point", "coordinates": [-71.60193980000003, -35.84692829909998]}, "properties": {"CUT_REG": "07", "CUT_PROV": "074", "CUT_COM": "07401", "REGION": "Maule", "PROVINCIA": "Linares", "COMUNA": "Linares", "variable": "Sitios de Inter\u00e9s Poblacional", "Nombres": "Parroquia Coraz\u00f3n de Maria - (place_of_worship)", "POINT_X": -71.6019398, "POINT_Y": -35.8469282991}}, {"type": "Feature", "geometry": {"type": "Point", "coordinates": [-71.59921020000004, -35.846920399100036]}, "properties": {"CUT_REG": "07", "CUT_PROV": "074", "CUT_COM": "07401", "REGION": "Maule", "PROVINCIA": "Linares", "COMUNA": "Linares", "variable": "Sitios de Inter\u00e9s Poblacional", "Nombres": "- (atm)", "POINT_X": -71.5992102, "POINT_Y": -35.8469203991}}, {"type": "Feature", "geometry": {"type": "Point", "coordinates": [-71.59945629999997, -35.846912999099956]}, "properties": {"CUT_REG": "07", "CUT_PROV": "074", "CUT_COM": "07401", "REGION": "Maule", "PROVINCIA": "Linares", "COMUNA": "Linares", "variable": "Sitios de Inter\u00e9s Poblacional", "Nombres": "Basica - (clothes)", "POINT_X": -71.5994563, "POINT_Y": -35.8469129991}}, {"type": "Feature", "geometry": {"type": "Point", "coordinates": [-71.59096949999997, -35.84691089909996]}, "properties": {"CUT_REG": "07", "CUT_PROV": "074", "CUT_COM": "07401", "REGION": "Maule", "PROVINCIA": "Linares", "COMUNA": "Linares", "variable": "Sitios de Inter\u00e9s Poblacional", "Nombres": "Terpel - (fuel)", "POINT_X": -71.5909695, "POINT_Y": -35.8469108991}}, {"type": "Feature", "geometry": {"type": "Point", "coordinates": [-71.59626509999998, -35.84689079909998]}, "properties": {"CUT_REG": "07", "CUT_PROV": "074", "CUT_COM": "07401", "REGION": "Maule", "PROVINCIA": "Linares", "COMUNA": "Linares", "variable": "Sitios de Inter\u00e9s Poblacional", "Nombres": "Nueva Francesa - (pharmacy)", "POINT_X": -71.5962651, "POINT_Y": -35.8468907991}}, {"type": "Feature", "geometry": {"type": "Point", "coordinates": [-71.5987107, -35.8468866991]}, "properties": {"CUT_REG": "07", "CUT_PROV": "074", "CUT_COM": "07401", "REGION": "Maule", "PROVINCIA": "Linares", "COMUNA": "Linares", "variable": "Sitios de Inter\u00e9s Poblacional", "Nombres": "Hotel Curapalihue - (hotel)", "POINT_X": -71.5987107, "POINT_Y": -35.8468866991}}, {"type": "Feature", "geometry": {"type": "Point", "coordinates": [-71.59535310000001, -35.84686449910003]}, "properties": {"CUT_REG": "07", "CUT_PROV": "074", "CUT_COM": "07401", "REGION": "Maule", "PROVINCIA": "Linares", "COMUNA": "Linares", "variable": "Sitios de Inter\u00e9s Poblacional", "Nombres": "ABCDin - (department_store)", "POINT_X": -71.5953531, "POINT_Y": -35.8468644991}}, {"type": "Feature", "geometry": {"type": "Point", "coordinates": [-71.59402760000003, -35.846860399100045]}, "properties": {"CUT_REG": "07", "CUT_PROV": "074", "CUT_COM": "07401", "REGION": "Maule", "PROVINCIA": "Linares", "COMUNA": "Linares", "variable": "Sitios de Inter\u00e9s Poblacional", "Nombres": "Germani - (department_store)", "POINT_X": -71.5940276, "POINT_Y": -35.8468603991}}, {"type": "Feature", "geometry": {"type": "Point", "coordinates": [-71.59151159999996, -35.84685189909996]}, "properties": {"CUT_REG": "07", "CUT_PROV": "074", "CUT_COM": "07401", "REGION": "Maule", "PROVINCIA": "Linares", "COMUNA": "Linares", "variable": "Sitios de Inter\u00e9s Poblacional", "Nombres": "El Caracol - (clothes)", "POINT_X": -71.5915116, "POINT_Y": -35.8468518991}}, {"type": "Feature", "geometry": {"type": "Point", "coordinates": [-71.59549260000001, -35.84682969909999]}, "properties": {"CUT_REG": "07", "CUT_PROV": "074", "CUT_COM": "07401", "REGION": "Maule", "PROVINCIA": "Linares", "COMUNA": "Linares", "variable": "Sitios de Inter\u00e9s Poblacional", "Nombres": "Farmacia del Doctor Simi - (pharmacy)", "POINT_X": -71.5954926, "POINT_Y": -35.8468296991}}, {"type": "Feature", "geometry": {"type": "Point", "coordinates": [-71.59430699999997, -35.84679929909996]}, "properties": {"CUT_REG": "07", "CUT_PROV": "074", "CUT_COM": "07401", "REGION": "Maule", "PROVINCIA": "Linares", "COMUNA": "Linares", "variable": "Sitios de Inter\u00e9s Poblacional", "Nombres": "Farmacias Ahumada - (pharmacy)", "POINT_X": -71.594307, "POINT_Y": -35.8467992991}}, {"type": "Feature", "geometry": {"type": "Point", "coordinates": [-71.59567469999999, -35.84678209909996]}, "properties": {"CUT_REG": "07", "CUT_PROV": "074", "CUT_COM": "07401", "REGION": "Maule", "PROVINCIA": "Linares", "COMUNA": "Linares", "variable": "Sitios de Inter\u00e9s Poblacional", "Nombres": "Teatro Municipal - (theatre)", "POINT_X": -71.5956747, "POINT_Y": -35.8467820991}}, {"type": "Feature", "geometry": {"type": "Point", "coordinates": [-71.59498830000004, -35.84673839909998]}, "properties": {"CUT_REG": "07", "CUT_PROV": "074", "CUT_COM": "07401", "REGION": "Maule", "PROVINCIA": "Linares", "COMUNA": "Linares", "variable": "Sitios de Inter\u00e9s Poblacional", "Nombres": "Informacion Turistica - (information)", "POINT_X": -71.5949883, "POINT_Y": -35.8467383991}}, {"type": "Feature", "geometry": {"type": "Point", "coordinates": [-71.5959325, -35.846733999099975]}, "properties": {"CUT_REG": "07", "CUT_PROV": "074", "CUT_COM": "07401", "REGION": "Maule", "PROVINCIA": "Linares", "COMUNA": "Linares", "variable": "Sitios de Inter\u00e9s Poblacional", "Nombres": "Veronica Arias - (clothes)", "POINT_X": -71.5959325, "POINT_Y": -35.8467339991}}, {"type": "Feature", "geometry": {"type": "Point", "coordinates": [-71.59479519999996, -35.846725399099974]}, "properties": {"CUT_REG": "07", "CUT_PROV": "074", "CUT_COM": "07401", "REGION": "Maule", "PROVINCIA": "Linares", "COMUNA": "Linares", "variable": "Sitios de Inter\u00e9s Poblacional", "Nombres": "Johnson - (department_store)", "POINT_X": -71.5947952, "POINT_Y": -35.8467253991}}, {"type": "Feature", "geometry": {"type": "Point", "coordinates": [-71.59620069999998, -35.8466644991]}, "properties": {"CUT_REG": "07", "CUT_PROV": "074", "CUT_COM": "07401", "REGION": "Maule", "PROVINCIA": "Linares", "COMUNA": "Linares", "variable": "Sitios de Inter\u00e9s Poblacional", "Nombres": "BCI Nova - (bank)", "POINT_X": -71.5962007, "POINT_Y": -35.8466644991}}, {"type": "Feature", "geometry": {"type": "Point", "coordinates": [-71.59505810000005, -35.84665579909999]}, "properties": {"CUT_REG": "07", "CUT_PROV": "074", "CUT_COM": "07401", "REGION": "Maule", "PROVINCIA": "Linares", "COMUNA": "Linares", "variable": "Sitios de Inter\u00e9s Poblacional", "Nombres": "Santander - (bank)", "POINT_X": -71.5950581, "POINT_Y": -35.8466557991}}, {"type": "Feature", "geometry": {"type": "Point", "coordinates": [-71.59521900000003, -35.846642699099974]}, "properties": {"CUT_REG": "07", "CUT_PROV": "074", "CUT_COM": "07401", "REGION": "Maule", "PROVINCIA": "Linares", "COMUNA": "Linares", "variable": "Sitios de Inter\u00e9s Poblacional", "Nombres": "Cruz Verde - (pharmacy)", "POINT_X": -71.595219, "POINT_Y": -35.8466426991}}, {"type": "Feature", "geometry": {"type": "Point", "coordinates": [-71.59100790000002, -35.846625299099955]}, "properties": {"CUT_REG": "07", "CUT_PROV": "074", "CUT_COM": "07401", "REGION": "Maule", "PROVINCIA": "Linares", "COMUNA": "Linares", "variable": "Sitios de Inter\u00e9s Poblacional", "Nombres": "El Carmen - (pharmacy)", "POINT_X": -71.5910079, "POINT_Y": -35.8466252991}}, {"type": "Feature", "geometry": {"type": "Point", "coordinates": [-71.59141030000002, -35.84660359910002]}, "properties": {"CUT_REG": "07", "CUT_PROV": "074", "CUT_COM": "07401", "REGION": "Maule", "PROVINCIA": "Linares", "COMUNA": "Linares", "variable": "Sitios de Inter\u00e9s Poblacional", "Nombres": "La Papa - (restaurant)", "POINT_X": -71.5914103, "POINT_Y": -35.8466035991}}, {"type": "Feature", "geometry": {"type": "Point", "coordinates": [-71.59540619999997, -35.84659509910003]}, "properties": {"CUT_REG": "07", "CUT_PROV": "074", "CUT_COM": "07401", "REGION": "Maule", "PROVINCIA": "Linares", "COMUNA": "Linares", "variable": "Sitios de Inter\u00e9s Poblacional", "Nombres": "Dijon - (clothes)", "POINT_X": -71.5954062, "POINT_Y": -35.8465950991}}, {"type": "Feature", "geometry": {"type": "Point", "coordinates": [-71.59664589999997, -35.84658639910002]}, "properties": {"CUT_REG": "07", "CUT_PROV": "074", "CUT_COM": "07401", "REGION": "Maule", "PROVINCIA": "Linares", "COMUNA": "Linares", "variable": "Sitios de Inter\u00e9s Poblacional", "Nombres": "Capri - (cafe)", "POINT_X": -71.5966459, "POINT_Y": -35.8465863991}}, {"type": "Feature", "geometry": {"type": "Point", "coordinates": [-71.59532090000002, -35.84657749909999]}, "properties": {"CUT_REG": "07", "CUT_PROV": "074", "CUT_COM": "07401", "REGION": "Maule", "PROVINCIA": "Linares", "COMUNA": "Linares", "variable": "Sitios de Inter\u00e9s Poblacional", "Nombres": "Centro Medico Nova Medic - (hospital)", "POINT_X": -71.5953209, "POINT_Y": -35.8465774991}}, {"type": "Feature", "geometry": {"type": "Point", "coordinates": [-71.59553499999997, -35.84656049910001]}, "properties": {"CUT_REG": "07", "CUT_PROV": "074", "CUT_COM": "07401", "REGION": "Maule", "PROVINCIA": "Linares", "COMUNA": "Linares", "variable": "Sitios de Inter\u00e9s Poblacional", "Nombres": "Santander Banefe - (bank)", "POINT_X": -71.595535, "POINT_Y": -35.8465604991}}, {"type": "Feature", "geometry": {"type": "Point", "coordinates": [-71.59594919999995, -35.84653519909996]}, "properties": {"CUT_REG": "07", "CUT_PROV": "074", "CUT_COM": "07401", "REGION": "Maule", "PROVINCIA": "Linares", "COMUNA": "Linares", "variable": "Sitios de Inter\u00e9s Poblacional", "Nombres": "- (traffic_signals)", "POINT_X": -71.5959492, "POINT_Y": -35.8465351991}}, {"type": "Feature", "geometry": {"type": "Point", "coordinates": [-71.59097040000003, -35.84652969910004]}, "properties": {"CUT_REG": "07", "CUT_PROV": "074", "CUT_COM": "07401", "REGION": "Maule", "PROVINCIA": "Linares", "COMUNA": "Linares", "variable": "Sitios de Inter\u00e9s Poblacional", "Nombres": "Panaderia El Almendro - (bakery)", "POINT_X": -71.5909704, "POINT_Y": -35.8465296991}}, {"type": "Feature", "geometry": {"type": "Point", "coordinates": [-71.59577639999996, -35.84651269909996]}, "properties": {"CUT_REG": "07", "CUT_PROV": "074", "CUT_COM": "07401", "REGION": "Maule", "PROVINCIA": "Linares", "COMUNA": "Linares", "variable": "Sitios de Inter\u00e9s Poblacional", "Nombres": "Farmacias Ahumada - (pharmacy)", "POINT_X": -71.5957764, "POINT_Y": -35.8465126991}}, {"type": "Feature", "geometry": {"type": "Point", "coordinates": [-71.59707989999998, -35.84650379910003]}, "properties": {"CUT_REG": "07", "CUT_PROV": "074", "CUT_COM": "07401", "REGION": "Maule", "PROVINCIA": "Linares", "COMUNA": "Linares", "variable": "Sitios de Inter\u00e9s Poblacional", "Nombres": "Tricot - (department_store)", "POINT_X": -71.5970799, "POINT_Y": -35.8465037991}}, {"type": "Feature", "geometry": {"type": "Point", "coordinates": [-71.5961256, -35.84645599909998]}, "properties": {"CUT_REG": "07", "CUT_PROV": "074", "CUT_COM": "07401", "REGION": "Maule", "PROVINCIA": "Linares", "COMUNA": "Linares", "variable": "Sitios de Inter\u00e9s Poblacional", "Nombres": "Salco Brand - (pharmacy)", "POINT_X": -71.5961256, "POINT_Y": -35.8464559991}}, {"type": "Feature", "geometry": {"type": "Point", "coordinates": [-71.59743990000001, -35.84643829910002]}, "properties": {"CUT_REG": "07", "CUT_PROV": "074", "CUT_COM": "07401", "REGION": "Maule", "PROVINCIA": "Linares", "COMUNA": "Linares", "variable": "Sitios de Inter\u00e9s Poblacional", "Nombres": "Banco Estado - (bank)", "POINT_X": -71.5974399, "POINT_Y": -35.8464382991}}, {"type": "Feature", "geometry": {"type": "Point", "coordinates": [-71.59633479999998, -35.84640359909999]}, "properties": {"CUT_REG": "07", "CUT_PROV": "074", "CUT_COM": "07401", "REGION": "Maule", "PROVINCIA": "Linares", "COMUNA": "Linares", "variable": "Sitios de Inter\u00e9s Poblacional", "Nombres": "Zapatos Poloni - (clothes)", "POINT_X": -71.5963348, "POINT_Y": -35.8464035991}}, {"type": "Feature", "geometry": {"type": "Point", "coordinates": [-71.59923119999999, -35.84638229910001]}, "properties": {"CUT_REG": "07", "CUT_PROV": "074", "CUT_COM": "07401", "REGION": "Maule", "PROVINCIA": "Linares", "COMUNA": "Linares", "variable": "Sitios de Inter\u00e9s Poblacional", "Nombres": "El Conventillo - (gift)", "POINT_X": -71.5992312, "POINT_Y": -35.8463822991}}, {"type": "Feature", "geometry": {"type": "Point", "coordinates": [-71.59774399999995, -35.84637769909998]}, "properties": {"CUT_REG": "07", "CUT_PROV": "074", "CUT_COM": "07401", "REGION": "Maule", "PROVINCIA": "Linares", "COMUNA": "Linares", "variable": "Sitios de Inter\u00e9s Poblacional", "Nombres": "Credi Chile - (bank)", "POINT_X": -71.597744, "POINT_Y": -35.8463776991}}, {"type": "Feature", "geometry": {"type": "Point", "coordinates": [-71.59647429999998, -35.846368799099956]}, "properties": {"CUT_REG": "07", "CUT_PROV": "074", "CUT_COM": "07401", "REGION": "Maule", "PROVINCIA": "Linares", "COMUNA": "Linares", "variable": "Sitios de Inter\u00e9s Poblacional", "Nombres": "Banco Paris - (bank)", "POINT_X": -71.5964743, "POINT_Y": -35.8463687991}}, {"type": "Feature", "geometry": {"type": "Point", "coordinates": [-71.59667279999996, -35.84633399910001]}, "properties": {"CUT_REG": "07", "CUT_PROV": "074", "CUT_COM": "07401", "REGION": "Maule", "PROVINCIA": "Linares", "COMUNA": "Linares", "variable": "Sitios de Inter\u00e9s Poblacional", "Nombres": "Fuente de Soda Santa Ana - (fast_food)", "POINT_X": -71.5966728, "POINT_Y": -35.8463339991}}, {"type": "Feature", "geometry": {"type": "Point", "coordinates": [-71.59793829999995, -35.84631679910001]}, "properties": {"CUT_REG": "07", "CUT_PROV": "074", "CUT_COM": "07401", "REGION": "Maule", "PROVINCIA": "Linares", "COMUNA": "Linares", "variable": "Sitios de Inter\u00e9s Poblacional", "Nombres": "BCI - (bank)", "POINT_X": -71.5979383, "POINT_Y": -35.8463167991}}, {"type": "Feature", "geometry": {"type": "Point", "coordinates": [-71.59691949999996, -35.846281799099955]}, "properties": {"CUT_REG": "07", "CUT_PROV": "074", "CUT_COM": "07401", "REGION": "Maule", "PROVINCIA": "Linares", "COMUNA": "Linares", "variable": "Sitios de Inter\u00e9s Poblacional", "Nombres": "Victoria Said - (fast_food)", "POINT_X": -71.5969195, "POINT_Y": -35.8462817991}}, {"type": "Feature", "geometry": {"type": "Point", "coordinates": [-71.59708050000003, -35.84626459910004]}, "properties": {"CUT_REG": "07", "CUT_PROV": "074", "CUT_COM": "07401", "REGION": "Maule", "PROVINCIA": "Linares", "COMUNA": "Linares", "variable": "Sitios de Inter\u00e9s Poblacional", "Nombres": "Bellota - (clothes)", "POINT_X": -71.5970805, "POINT_Y": -35.8462645991}}, {"type": "Feature", "geometry": {"type": "Point", "coordinates": [-71.59844790000002, -35.84625619909997]}, "properties": {"CUT_REG": "07", "CUT_PROV": "074", "CUT_COM": "07401", "REGION": "Maule", "PROVINCIA": "Linares", "COMUNA": "Linares", "variable": "Sitios de Inter\u00e9s Poblacional", "Nombres": "Enigma - (bar)", "POINT_X": -71.5984479, "POINT_Y": -35.8462561991}}, {"type": "Feature", "geometry": {"type": "Point", "coordinates": [-71.59744750000003, -35.846225799100026]}, "properties": {"CUT_REG": "07", "CUT_PROV": "074", "CUT_COM": "07401", "REGION": "Maule", "PROVINCIA": "Linares", "COMUNA": "Linares", "variable": "Sitios de Inter\u00e9s Poblacional", "Nombres": "- (traffic_signals)", "POINT_X": -71.5974475, "POINT_Y": -35.8462257991}}, {"type": "Feature", "geometry": {"type": "Point", "coordinates": [-71.59882340000001, -35.84621269910001]}, "properties": {"CUT_REG": "07", "CUT_PROV": "074", "CUT_COM": "07401", "REGION": "Maule", "PROVINCIA": "Linares", "COMUNA": "Linares", "variable": "Sitios de Inter\u00e9s Poblacional", "Nombres": "BBVA - (bank)", "POINT_X": -71.5988234, "POINT_Y": -35.8462126991}}, {"type": "Feature", "geometry": {"type": "Point", "coordinates": [-71.59730519999998, -35.84618219909997]}, "properties": {"CUT_REG": "07", "CUT_PROV": "074", "CUT_COM": "07401", "REGION": "Maule", "PROVINCIA": "Linares", "COMUNA": "Linares", "variable": "Sitios de Inter\u00e9s Poblacional", "Nombres": "Roca - (convenience)", "POINT_X": -71.5973052, "POINT_Y": -35.8461821991}}, {"type": "Feature", "geometry": {"type": "Point", "coordinates": [-71.59569210000001, -35.8461803991]}, "properties": {"CUT_REG": "07", "CUT_PROV": "074", "CUT_COM": "07401", "REGION": "Maule", "PROVINCIA": "Linares", "COMUNA": "Linares", "variable": "Sitios de Inter\u00e9s Poblacional", "Nombres": "Helados Artesanales - (fast_food)", "POINT_X": -71.5956921, "POINT_Y": -35.8461803991}}, {"type": "Feature", "geometry": {"type": "Point", "coordinates": [-71.59728379999999, -35.8461169991]}, "properties": {"CUT_REG": "07", "CUT_PROV": "074", "CUT_COM": "07401", "REGION": "Maule", "PROVINCIA": "Linares", "COMUNA": "Linares", "variable": "Sitios de Inter\u00e9s Poblacional", "Nombres": "Victoria Said - (fast_food)", "POINT_X": -71.5972838, "POINT_Y": -35.8461169991}}, {"type": "Feature", "geometry": {"type": "Point", "coordinates": [-71.5991884, -35.8460730991]}, "properties": {"CUT_REG": "07", "CUT_PROV": "074", "CUT_COM": "07401", "REGION": "Maule", "PROVINCIA": "Linares", "COMUNA": "Linares", "variable": "Sitios de Inter\u00e9s Poblacional", "Nombres": "Pasteleria La Papa - (cafe)", "POINT_X": -71.5991884, "POINT_Y": -35.8460730991}}, {"type": "Feature", "geometry": {"type": "Point", "coordinates": [-71.59308839999996, -35.8460107991]}, "properties": {"CUT_REG": "07", "CUT_PROV": "074", "CUT_COM": "07401", "REGION": "Maule", "PROVINCIA": "Linares", "COMUNA": "Linares", "variable": "Sitios de Inter\u00e9s Poblacional", "Nombres": "Polic\u00eda de Investigaciones - (police)", "POINT_X": -71.5930884, "POINT_Y": -35.8460107991}}, {"type": "Feature", "geometry": {"type": "Point", "coordinates": [-71.5972571, -35.845986499100036]}, "properties": {"CUT_REG": "07", "CUT_PROV": "074", "CUT_COM": "07401", "REGION": "Maule", "PROVINCIA": "Linares", "COMUNA": "Linares", "variable": "Sitios de Inter\u00e9s Poblacional", "Nombres": "Hotel Turismo Linares - (hotel)", "POINT_X": -71.5972571, "POINT_Y": -35.8459864991}}, {"type": "Feature", "geometry": {"type": "Point", "coordinates": [-71.59633019999995, -35.84592799909999]}, "properties": {"CUT_REG": "07", "CUT_PROV": "074", "CUT_COM": "07401", "REGION": "Maule", "PROVINCIA": "Linares", "COMUNA": "Linares", "variable": "Sitios de Inter\u00e9s Poblacional", "Nombres": "Estacionamiento Pagado Sotomayor - (parking)", "POINT_X": -71.5963302, "POINT_Y": -35.8459279991}}, {"type": "Feature", "geometry": {"type": "Point", "coordinates": [-71.59891409999996, -35.8459227991]}, "properties": {"CUT_REG": "07", "CUT_PROV": "074", "CUT_COM": "07401", "REGION": "Maule", "PROVINCIA": "Linares", "COMUNA": "Linares", "variable": "Sitios de Inter\u00e9s Poblacional", "Nombres": "- (traffic_signals)", "POINT_X": -71.5989141, "POINT_Y": -35.8459227991}}, {"type": "Feature", "geometry": {"type": "Point", "coordinates": [-71.59612629999995, -35.84591079909999]}, "properties": {"CUT_REG": "07", "CUT_PROV": "074", "CUT_COM": "07401", "REGION": "Maule", "PROVINCIA": "Linares", "COMUNA": "Linares", "variable": "Sitios de Inter\u00e9s Poblacional", "Nombres": "5 Minutos - (restaurant)", "POINT_X": -71.5961263, "POINT_Y": -35.8459107991}}, {"type": "Feature", "geometry": {"type": "Point", "coordinates": [-71.59646970000003, -35.84584969909999]}, "properties": {"CUT_REG": "07", "CUT_PROV": "074", "CUT_COM": "07401", "REGION": "Maule", "PROVINCIA": "Linares", "COMUNA": "Linares", "variable": "Sitios de Inter\u00e9s Poblacional", "Nombres": "El Padrino - (cafe)", "POINT_X": -71.5964697, "POINT_Y": -35.8458496991}}, {"type": "Feature", "geometry": {"type": "Point", "coordinates": [-71.59657690000003, -35.845832299099975]}, "properties": {"CUT_REG": "07", "CUT_PROV": "074", "CUT_COM": "07401", "REGION": "Maule", "PROVINCIA": "Linares", "COMUNA": "Linares", "variable": "Sitios de Inter\u00e9s Poblacional", "Nombres": "Brown - (cafe)", "POINT_X": -71.5965769, "POINT_Y": -35.8458322991}}, {"type": "Feature", "geometry": {"type": "Point", "coordinates": [-71.5971175, -35.84582999909996]}, "properties": {"CUT_REG": "07", "CUT_PROV": "074", "CUT_COM": "07401", "REGION": "Maule", "PROVINCIA": "Linares", "COMUNA": "Linares", "variable": "Sitios de Inter\u00e9s Poblacional", "Nombres": "Panaderia Francesa - (cafe)", "POINT_X": -71.5971175, "POINT_Y": -35.8458299991}}, {"type": "Feature", "geometry": {"type": "Point", "coordinates": [-71.59056289999998, -35.84581379909996]}, "properties": {"CUT_REG": "07", "CUT_PROV": "074", "CUT_COM": "07401", "REGION": "Maule", "PROVINCIA": "Linares", "COMUNA": "Linares", "variable": "Sitios de Inter\u00e9s Poblacional", "Nombres": "Mayorista 10 - (supermarket)", "POINT_X": -71.5905629, "POINT_Y": -35.8458137991}}, {"type": "Feature", "geometry": {"type": "Point", "coordinates": [-71.5991689, -35.845741499100015]}, "properties": {"CUT_REG": "07", "CUT_PROV": "074", "CUT_COM": "07401", "REGION": "Maule", "PROVINCIA": "Linares", "COMUNA": "Linares", "variable": "Sitios de Inter\u00e9s Poblacional", "Nombres": "Catedral de Linares - (place_of_worship)", "POINT_X": -71.5991689, "POINT_Y": -35.8457414991}}, {"type": "Feature", "geometry": {"type": "Point", "coordinates": [-71.58901779999995, -35.84567769909997]}, "properties": {"CUT_REG": "07", "CUT_PROV": "074", "CUT_COM": "07401", "REGION": "Maule", "PROVINCIA": "Linares", "COMUNA": "Linares", "variable": "Sitios de Inter\u00e9s Poblacional", "Nombres": "- (traffic_signals)", "POINT_X": -71.5890178, "POINT_Y": -35.8456776991}}, {"type": "Feature", "geometry": {"type": "Point", "coordinates": [-71.60071789999999, -35.84566799909997]}, "properties": {"CUT_REG": "07", "CUT_PROV": "074", "CUT_COM": "07401", "REGION": "Maule", "PROVINCIA": "Linares", "COMUNA": "Linares", "variable": "Sitios de Inter\u00e9s Poblacional", "Nombres": "Nueva Yufa - (restaurant)", "POINT_X": -71.6007179, "POINT_Y": -35.8456679991}}, {"type": "Feature", "geometry": {"type": "Point", "coordinates": [-71.58753669999997, -35.84566379909998]}, "properties": {"CUT_REG": "07", "CUT_PROV": "074", "CUT_COM": "07401", "REGION": "Maule", "PROVINCIA": "Linares", "COMUNA": "Linares", "variable": "Sitios de Inter\u00e9s Poblacional", "Nombres": "Socorro - (fuel)", "POINT_X": -71.5875367, "POINT_Y": -35.8456637991}}, {"type": "Feature", "geometry": {"type": "Point", "coordinates": [-71.5939906, -35.84564609910002]}, "properties": {"CUT_REG": "07", "CUT_PROV": "074", "CUT_COM": "07401", "REGION": "Maule", "PROVINCIA": "Linares", "COMUNA": "Linares", "variable": "Sitios de Inter\u00e9s Poblacional", "Nombres": "- (traffic_signals)", "POINT_X": -71.5939906, "POINT_Y": -35.8456460991}}, {"type": "Feature", "geometry": {"type": "Point", "coordinates": [-71.60043429999997, -35.845608799099956]}, "properties": {"CUT_REG": "07", "CUT_PROV": "074", "CUT_COM": "07401", "REGION": "Maule", "PROVINCIA": "Linares", "COMUNA": "Linares", "variable": "Sitios de Inter\u00e9s Poblacional", "Nombres": "- (traffic_signals)", "POINT_X": -71.6004343, "POINT_Y": -35.8456087991}}, {"type": "Feature", "geometry": {"type": "Point", "coordinates": [-71.59097040000003, -35.845503699099964]}, "properties": {"CUT_REG": "07", "CUT_PROV": "074", "CUT_COM": "07401", "REGION": "Maule", "PROVINCIA": "Linares", "COMUNA": "Linares", "variable": "Sitios de Inter\u00e9s Poblacional", "Nombres": "Ferreteria Comercial Servandino - (doityourself)", "POINT_X": -71.5909704, "POINT_Y": -35.8455036991}}, {"type": "Feature", "geometry": {"type": "Point", "coordinates": [-71.60167790000003, -35.84548979909997]}, "properties": {"CUT_REG": "07", "CUT_PROV": "074", "CUT_COM": "07401", "REGION": "Maule", "PROVINCIA": "Linares", "COMUNA": "Linares", "variable": "Sitios de Inter\u00e9s Poblacional", "Nombres": "- (atm)", "POINT_X": -71.6016779, "POINT_Y": -35.8454897991}}, {"type": "Feature", "geometry": {"type": "Point", "coordinates": [-71.5980301, -35.84548109909996]}, "properties": {"CUT_REG": "07", "CUT_PROV": "074", "CUT_COM": "07401", "REGION": "Maule", "PROVINCIA": "Linares", "COMUNA": "Linares", "variable": "Sitios de Inter\u00e9s Poblacional", "Nombres": "Pileta Plaza de Linares - (fountain)", "POINT_X": -71.5980301, "POINT_Y": -35.8454810991}}, {"type": "Feature", "geometry": {"type": "Point", "coordinates": [-71.60179610000003, -35.845472399099954]}, "properties": {"CUT_REG": "07", "CUT_PROV": "074", "CUT_COM": "07401", "REGION": "Maule", "PROVINCIA": "Linares", "COMUNA": "Linares", "variable": "Sitios de Inter\u00e9s Poblacional", "Nombres": "Banco de Chile - (bank)", "POINT_X": -71.6017961, "POINT_Y": -35.8454723991}}, {"type": "Feature", "geometry": {"type": "Point", "coordinates": [-71.5925833, -35.84538099910003]}, "properties": {"CUT_REG": "07", "CUT_PROV": "074", "CUT_COM": "07401", "REGION": "Maule", "PROVINCIA": "Linares", "COMUNA": "Linares", "variable": "Sitios de Inter\u00e9s Poblacional", "Nombres": "Estacionamiento Yumbel - (parking)", "POINT_X": -71.5925833, "POINT_Y": -35.8453809991}}, {"type": "Feature", "geometry": {"type": "Point", "coordinates": [-71.59594509999997, -35.84534119910002]}, "properties": {"CUT_REG": "07", "CUT_PROV": "074", "CUT_COM": "07401", "REGION": "Maule", "PROVINCIA": "Linares", "COMUNA": "Linares", "variable": "Sitios de Inter\u00e9s Poblacional", "Nombres": "Copec - (fuel)", "POINT_X": -71.5959451, "POINT_Y": -35.8453411991}}, {"type": "Feature", "geometry": {"type": "Point", "coordinates": [-71.59548339999996, -35.84533949909997]}, "properties": {"CUT_REG": "07", "CUT_PROV": "074", "CUT_COM": "07401", "REGION": "Maule", "PROVINCIA": "Linares", "COMUNA": "Linares", "variable": "Sitios de Inter\u00e9s Poblacional", "Nombres": "- (traffic_signals)", "POINT_X": -71.5954834, "POINT_Y": -35.8453394991}}, {"type": "Feature", "geometry": {"type": "Point", "coordinates": [-71.58998250000002, -35.84523849909996]}, "properties": {"CUT_REG": "07", "CUT_PROV": "074", "CUT_COM": "07401", "REGION": "Maule", "PROVINCIA": "Linares", "COMUNA": "Linares", "variable": "Sitios de Inter\u00e9s Poblacional", "Nombres": "Parroquia - (place_of_worship)", "POINT_X": -71.5899825, "POINT_Y": -35.8452384991}}, {"type": "Feature", "geometry": {"type": "Point", "coordinates": [-71.59211210000001, -35.8452367991]}, "properties": {"CUT_REG": "07", "CUT_PROV": "074", "CUT_COM": "07401", "REGION": "Maule", "PROVINCIA": "Linares", "COMUNA": "Linares", "variable": "Sitios de Inter\u00e9s Poblacional", "Nombres": "Escuela Alto Vitacura - (school)", "POINT_X": -71.5921121, "POINT_Y": -35.8452367991}}, {"type": "Feature", "geometry": {"type": "Point", "coordinates": [-71.59686509999997, -35.84523199909996]}, "properties": {"CUT_REG": "07", "CUT_PROV": "074", "CUT_COM": "07401", "REGION": "Maule", "PROVINCIA": "Linares", "COMUNA": "Linares", "variable": "Sitios de Inter\u00e9s Poblacional", "Nombres": "Biblioteca Municipal - (library)", "POINT_X": -71.5968651, "POINT_Y": -35.8452319991}}, {"type": "Feature", "geometry": {"type": "Point", "coordinates": [-71.60379060000002, -35.84518229910002]}, "properties": {"CUT_REG": "07", "CUT_PROV": "074", "CUT_COM": "07401", "REGION": "Maule", "PROVINCIA": "Linares", "COMUNA": "Linares", "variable": "Sitios de Inter\u00e9s Poblacional", "Nombres": "Terminal de Buses Los Libertadores de Linares - (*", "POINT_X": -71.6037906, "POINT_Y": -35.8451822991}}, {"type": "Feature", "geometry": {"type": "Point", "coordinates": [-71.59632509999997, -35.845089099100036]}, "properties": {"CUT_REG": "07", "CUT_PROV": "074", "CUT_COM": "07401", "REGION": "Maule", "PROVINCIA": "Linares", "COMUNA": "Linares", "variable": "Sitios de Inter\u00e9s Poblacional", "Nombres": "Don Agapito - (restaurant)", "POINT_X": -71.5963251, "POINT_Y": -35.8450890991}}, {"type": "Feature", "geometry": {"type": "Point", "coordinates": [-71.59699929999998, -35.845086799100024]}, "properties": {"CUT_REG": "07", "CUT_PROV": "074", "CUT_COM": "07401", "REGION": "Maule", "PROVINCIA": "Linares", "COMUNA": "Linares", "variable": "Sitios de Inter\u00e9s Poblacional", "Nombres": "- (traffic_signals)", "POINT_X": -71.5969993, "POINT_Y": -35.8450867991}}, {"type": "Feature", "geometry": {"type": "Point", "coordinates": [-71.59048700000001, -35.845084799100036]},