{"type": "FeatureCollection", "features": [{"type": "Feature", "geometry": {"type": "Point", "coordinates": [-74.12224800000001, -43.36249600000003]}, "properties": {"CUT_REG": "10", "CUT_PROV": "102", "CUT_COM": "10208", "REGION": "Los Lagos", "PROVINCIA": "Chilo\u00e9", "COMUNA": "Quell\u00f3n", "variable": "Servicios de Salud", "Nombres": "Servicio de Salud Chilo\u00e9 - Posta de Salud Rural Inio", "POINT_X": -74.122248, "POINT_Y": -43.362496}}, {"type": "Feature", "geometry": {"type": "Point", "coordinates": [-73.695295, -43.24874000000002]}, "properties": {"CUT_REG": "10", "CUT_PROV": "102", "CUT_COM": "10208", "REGION": "Los Lagos", "PROVINCIA": "Chilo\u00e9", "COMUNA": "Quell\u00f3n", "variable": "Servicios de Salud", "Nombres": "Servicio de Salud Chilo\u00e9 - Posta de Salud Rural Piedras Blancas", "POINT_X": -73.695295, "POINT_Y": -43.24874}}, {"type": "Feature", "geometry": {"type": "Point", "coordinates": [-73.61991300000001, -43.21894599999999]}, "properties": {"CUT_REG": "10", "CUT_PROV": "102", "CUT_COM": "10208", "REGION": "Los Lagos", "PROVINCIA": "Chilo\u00e9", "COMUNA": "Quell\u00f3n", "variable": "Servicios de Salud", "Nombres": "Servicio de Salud Chilo\u00e9 - Posta de Salud Rural Punta Liles o Laitec", "POINT_X": -73.619913, "POINT_Y": -43.218946}}, {"type": "Feature", "geometry": {"type": "Point", "coordinates": [-73.69269699999998, -43.18891499999998]}, "properties": {"CUT_REG": "10", "CUT_PROV": "102", "CUT_COM": "10208", "REGION": "Los Lagos", "PROVINCIA": "Chilo\u00e9", "COMUNA": "Quell\u00f3n", "variable": "Servicios de Salud", "Nombres": "Servicio de Salud Chilo\u00e9 - Posta de Salud Rural Punta Paula o Coldita", "POINT_X": -73.692697, "POINT_Y": -43.188915}}, {"type": "Feature", "geometry": {"type": "Point", "coordinates": [-73.55183499999995, -43.15041999999999]}, "properties": {"CUT_REG": "10", "CUT_PROV": "102", "CUT_COM": "10208", "REGION": "Los Lagos", "PROVINCIA": "Chilo\u00e9", "COMUNA": "Quell\u00f3n", "variable": "Servicios de Salud", "Nombres": "Servicio de Salud Chilo\u00e9 - Posta de Salud Rural Pelu", "POINT_X": -73.551835, "POINT_Y": -43.15042}}, {"type": "Feature", "geometry": {"type": "Point", "coordinates": [-73.61469400000001, -43.11946799999998]}, "properties": {"CUT_REG": "10", "CUT_PROV": "102", "CUT_COM": "10208", "REGION": "Los Lagos", "PROVINCIA": "Chilo\u00e9", "COMUNA": "Quell\u00f3n", "variable": "Servicios de Salud", "Nombres": "SEREMI De Los Lagos - Laboratorio Biolab Ltda", "POINT_X": -73.614694, "POINT_Y": -43.119468}}, {"type": "Feature", "geometry": {"type": "Point", "coordinates": [-73.61470600000004, -43.11885100000001]}, "properties": {"CUT_REG": "10", "CUT_PROV": "102", "CUT_COM": "10208", "REGION": "Los Lagos", "PROVINCIA": "Chilo\u00e9", "COMUNA": "Quell\u00f3n", "variable": "Servicios de Salud", "Nombres": "SEREMI De Los Lagos - Laboratorio Cl\u00ednico Corcovado", "POINT_X": -73.614706, "POINT_Y": -43.118851}}, {"type": "Feature", "geometry": {"type": "Point", "coordinates": [-73.61437999999998, -43.11838999999996]}, "properties": {"CUT_REG": "10", "CUT_PROV": "102", "CUT_COM": "10208", "REGION": "Los Lagos", "PROVINCIA": "Chilo\u00e9", "COMUNA": "Quell\u00f3n", "variable": "Servicios de Salud", "Nombres": "SEREMI De Los Lagos - Policl\u00ednico de la AChS Quell\u00f3n", "POINT_X": -73.61438, "POINT_Y": -43.11839}}, {"type": "Feature", "geometry": {"type": "Point", "coordinates": [-73.61713400000002, -43.11836600000002]}, "properties": {"CUT_REG": "10", "CUT_PROV": "102", "CUT_COM": "10208", "REGION": "Los Lagos", "PROVINCIA": "Chilo\u00e9", "COMUNA": "Quell\u00f3n", "variable": "Servicios de Salud", "Nombres": "SEREMI De Los Lagos - Policl\u00ednico de la Mutual de Seguridad CChC Quell\u00f3n", "POINT_X": -73.617134, "POINT_Y": -43.118366}}, {"type": "Feature", "geometry": {"type": "Point", "coordinates": [-73.60234500000001, -43.117660999999956]}, "properties": {"CUT_REG": "10", "CUT_PROV": "102", "CUT_COM": "10208", "REGION": "Los Lagos", "PROVINCIA": "Chilo\u00e9", "COMUNA": "Quell\u00f3n", "variable": "Servicios de Salud", "Nombres": "Servicio de Salud Chilo\u00e9 - Centro Comunitario de Salud Familiar Vista Hermosa", "POINT_X": -73.602345, "POINT_Y": -43.117661}}, {"type": "Feature", "geometry": {"type": "Point", "coordinates": [-73.63137999999995, -43.11759599999999]}, "properties": {"CUT_REG": "10", "CUT_PROV": "102", "CUT_COM": "10208", "REGION": "Los Lagos", "PROVINCIA": "Chilo\u00e9", "COMUNA": "Quell\u00f3n", "variable": "Servicios de Salud", "Nombres": "Servicio de Salud Chilo\u00e9 - Centro Comunitario de Salud Familiar Rukalaf", "POINT_X": -73.63138, "POINT_Y": -43.117596}}, {"type": "Feature", "geometry": {"type": "Point", "coordinates": [-73.62035100000001, -43.117229]}, "properties": {"CUT_REG": "10", "CUT_PROV": "102", "CUT_COM": "10208", "REGION": "Los Lagos", "PROVINCIA": "Chilo\u00e9", "COMUNA": "Quell\u00f3n", "variable": "Servicios de Salud", "Nombres": "SEREMI De Los Lagos - Laboratorio Cl\u00ednico MasterLab", "POINT_X": -73.620351, "POINT_Y": -43.117229}}, {"type": "Feature", "geometry": {"type": "Point", "coordinates": [-73.618541, -43.11547000000003]}, "properties": {"CUT_REG": "10", "CUT_PROV": "102", "CUT_COM": "10208", "REGION": "Los Lagos", "PROVINCIA": "Chilo\u00e9", "COMUNA": "Quell\u00f3n", "variable": "Servicios de Salud", "Nombres": "Servicio de Salud Chilo\u00e9 - Centro Comunitario de Salud Familiar Villa Aytue", "POINT_X": -73.618541, "POINT_Y": -43.11547}}, {"type": "Feature", "geometry": {"type": "Point", "coordinates": [-73.61706100000002, -43.115088999999955]}, "properties": {"CUT_REG": "10", "CUT_PROV": "102", "CUT_COM": "10208", "REGION": "Los Lagos", "PROVINCIA": "Chilo\u00e9", "COMUNA": "Quell\u00f3n", "variable": "Servicios de Salud", "Nombres": "Servicio de Salud Chilo\u00e9 - Hospital de Quell\u00f3n", "POINT_X": -73.617061, "POINT_Y": -43.115089}}, {"type": "Feature", "geometry": {"type": "Point", "coordinates": [-73.61241500000001, -43.114653000000025]}, "properties": {"CUT_REG": "10", "CUT_PROV": "102", "CUT_COM": "10208", "REGION": "Los Lagos", "PROVINCIA": "Chilo\u00e9", "COMUNA": "Quell\u00f3n", "variable": "Servicios de Salud", "Nombres": "Servicio de Salud Chilo\u00e9 - Centro de Salud Familiar Quell\u00f3n", "POINT_X": -73.612415, "POINT_Y": -43.114653}}, {"type": "Feature", "geometry": {"type": "Point", "coordinates": [-73.708902, -43.11152400000003]}, "properties": {"CUT_REG": "10", "CUT_PROV": "102", "CUT_COM": "10208", "REGION": "Los Lagos", "PROVINCIA": "Chilo\u00e9", "COMUNA": "Quell\u00f3n", "variable": "Servicios de Salud", "Nombres": "Servicio de Salud Chilo\u00e9 - Posta de Salud Rural Yaldad", "POINT_X": -73.708902, "POINT_Y": -43.111524}}, {"type": "Feature", "geometry": {"type": "Point", "coordinates": [-73.56213800000003, -43.063522]}, "properties": {"CUT_REG": "10", "CUT_PROV": "102", "CUT_COM": "10208", "REGION": "Los Lagos", "PROVINCIA": "Chilo\u00e9", "COMUNA": "Quell\u00f3n", "variable": "Servicios de Salud", "Nombres": "Servicio de Salud Chilo\u00e9 - Posta de Salud Rural Candelaria (Quell\u00f3n)", "POINT_X": -73.562138, "POINT_Y": -43.063522}}, {"type": "Feature", "geometry": {"type": "Point", "coordinates": [-73.46084499999995, -43.04120200000003]}, "properties": {"CUT_REG": "10", "CUT_PROV": "102", "CUT_COM": "10208", "REGION": "Los Lagos", "PROVINCIA": "Chilo\u00e9", "COMUNA": "Quell\u00f3n", "variable": "Servicios de Salud", "Nombres": "Servicio de Salud Chilo\u00e9 - Posta de Salud Rural Chaull\u00edn", "POINT_X": -73.460845, "POINT_Y": -43.041202}}, {"type": "Feature", "geometry": {"type": "Point", "coordinates": [-73.64047999999998, -43.039332000000016]}, "properties": {"CUT_REG": "10", "CUT_PROV": "102", "CUT_COM": "10208", "REGION": "Los Lagos", "PROVINCIA": "Chilo\u00e9", "COMUNA": "Quell\u00f3n", "variable": "Servicios de Salud", "Nombres": "Servicio de Salud Chilo\u00e9 - Posta de Salud Rural Coinco", "POINT_X": -73.64048, "POINT_Y": -43.039332}}, {"type": "Feature", "geometry": {"type": "Point", "coordinates": [-73.56828399999999, -43.03515799999998]}, "properties": {"CUT_REG": "10", "CUT_PROV": "102", "CUT_COM": "10208", "REGION": "Los Lagos", "PROVINCIA": "Chilo\u00e9", "COMUNA": "Quell\u00f3n", "variable": "Servicios de Salud", "Nombres": "Servicio de Salud Chilo\u00e9 - Posta de Salud Rural Curanue", "POINT_X": -73.568284, "POINT_Y": -43.035158}}, {"type": "Feature", "geometry": {"type": "Point", "coordinates": [-73.538893, -43.028950999999964]}, "properties": {"CUT_REG": "10", "CUT_PROV": "102", "CUT_COM": "10208", "REGION": "Los Lagos", "PROVINCIA": "Chilo\u00e9", "COMUNA": "Quell\u00f3n", "variable": "Servicios de Salud", "Nombres": "Servicio de Salud Chilo\u00e9 - Posta de Salud Rural Auchac", "POINT_X": -73.538893, "POINT_Y": -43.028951}}, {"type": "Feature", "geometry": {"type": "Point", "coordinates": [-73.48043999999997, -42.978486999999966]}, "properties": {"CUT_REG": "10", "CUT_PROV": "102", "CUT_COM": "10207", "REGION": "Los Lagos", "PROVINCIA": "Chilo\u00e9", "COMUNA": "Queil\u00e9n", "variable": "Servicios de Salud", "Nombres": "Servicio de Salud Chilo\u00e9 - Posta de Salud Rural Alqui", "POINT_X": -73.48044, "POINT_Y": -42.978487}}, {"type": "Feature", "geometry": {"type": "Point", "coordinates": [-73.582706, -42.971816000000004]}, "properties": {"CUT_REG": "10", "CUT_PROV": "102", "CUT_COM": "10208", "REGION": "Los Lagos", "PROVINCIA": "Chilo\u00e9", "COMUNA": "Quell\u00f3n", "variable": "Servicios de Salud", "Nombres": "Servicio de Salud Chilo\u00e9 - Posta de Salud Rural San Juan de Chadmo", "POINT_X": -73.582706, "POINT_Y": -42.971816}}, {"type": "Feature", "geometry": {"type": "Point", "coordinates": [-73.52998199999998, -42.94342000000001]}, "properties": {"CUT_REG": "10", "CUT_PROV": "102", "CUT_COM": "10207", "REGION": "Los Lagos", "PROVINCIA": "Chilo\u00e9", "COMUNA": "Queil\u00e9n", "variable": "Servicios de Salud", "Nombres": "Servicio de Salud Chilo\u00e9 - Posta de Salud Rural Nep\u00fae", "POINT_X": -73.529982, "POINT_Y": -42.94342}}, {"type": "Feature", "geometry": {"type": "Point", "coordinates": [-73.58580699999999, -42.92722600000002]}, "properties": {"CUT_REG": "10", "CUT_PROV": "102", "CUT_COM": "10207", "REGION": "Los Lagos", "PROVINCIA": "Chilo\u00e9", "COMUNA": "Queil\u00e9n", "variable": "Servicios de Salud", "Nombres": "Servicio de Salud Chilo\u00e9 - Posta de Salud Rural San Jos\u00e9", "POINT_X": -73.585807, "POINT_Y": -42.927226}}, {"type": "Feature", "geometry": {"type": "Point", "coordinates": [-73.68546800000004, -42.92163599999998]}, "properties": {"CUT_REG": "10", "CUT_PROV": "102", "CUT_COM": "10208", "REGION": "Los Lagos", "PROVINCIA": "Chilo\u00e9", "COMUNA": "Quell\u00f3n", "variable": "Servicios de Salud", "Nombres": "Servicio de Salud Chilo\u00e9 - Posta de Salud Rural Chadmo Central", "POINT_X": -73.685468, "POINT_Y": -42.921636}}, {"type": "Feature", "geometry": {"type": "Point", "coordinates": [-73.47314100000001, -42.89023700000002]}, "properties": {"CUT_REG": "10", "CUT_PROV": "102", "CUT_COM": "10207", "REGION": "Los Lagos", "PROVINCIA": "Chilo\u00e9", "COMUNA": "Queil\u00e9n", "variable": "Servicios de Salud", "Nombres": "Servicio de Salud Chilo\u00e9 - Hospital Comunitario de Queil\u00e9n", "POINT_X": -73.473141, "POINT_Y": -42.890237}}, {"type": "Feature", "geometry": {"type": "Point", "coordinates": [-73.69855100000001, -42.877684000000016]}, "properties": {"CUT_REG": "10", "CUT_PROV": "102", "CUT_COM": "10208", "REGION": "Los Lagos", "PROVINCIA": "Chilo\u00e9", "COMUNA": "Quell\u00f3n", "variable": "Servicios de Salud", "Nombres": "Servicio de Salud Chilo\u00e9 - Posta de Salud Rural Compu", "POINT_X": -73.698551, "POINT_Y": -42.877684}}, {"type": "Feature", "geometry": {"type": "Point", "coordinates": [-73.66595, -42.858633999999974]}, "properties": {"CUT_REG": "10", "CUT_PROV": "102", "CUT_COM": "10207", "REGION": "Los Lagos", "PROVINCIA": "Chilo\u00e9", "COMUNA": "Queil\u00e9n", "variable": "Servicios de Salud", "Nombres": "Servicio de Salud Chilo\u00e9 - Posta de Salud Rural Pureo", "POINT_X": -73.66595, "POINT_Y": -42.858634}}, {"type": "Feature", "geometry": {"type": "Point", "coordinates": [-73.74953199999999, -42.84143499999996]}, "properties": {"CUT_REG": "10", "CUT_PROV": "102", "CUT_COM": "10203", "REGION": "Los Lagos", "PROVINCIA": "Chilo\u00e9", "COMUNA": "Chonchi", "variable": "Servicios de Salud", "Nombres": "Servicio de Salud Chilo\u00e9 - Posta de Salud Rural Natri", "POINT_X": -73.749532, "POINT_Y": -42.841435}}, {"type": "Feature", "geometry": {"type": "Point", "coordinates": [-73.60460599999996, -42.835262]}, "properties": {"CUT_REG": "10", "CUT_PROV": "102", "CUT_COM": "10207", "REGION": "Los Lagos", "PROVINCIA": "Chilo\u00e9", "COMUNA": "Queil\u00e9n", "variable": "Servicios de Salud", "Nombres": "Servicio de Salud Chilo\u00e9 - Posta de Salud Rural de CONTUY", "POINT_X": -73.604606, "POINT_Y": -42.835262}}, {"type": "Feature", "geometry": {"type": "Point", "coordinates": [-73.61858100000002, -42.83417600000003]}, "properties": {"CUT_REG": "10", "CUT_PROV": "102", "CUT_COM": "10207", "REGION": "Los Lagos", "PROVINCIA": "Chilo\u00e9", "COMUNA": "Queil\u00e9n", "variable": "Servicios de Salud", "Nombres": "Servicio de Salud Chilo\u00e9 - Posta de Salud Rural Apeche", "POINT_X": -73.618581, "POINT_Y": -42.834176}}, {"type": "Feature", "geometry": {"type": "Point", "coordinates": [-73.54212100000001, -42.81525100000002]}, "properties": {"CUT_REG": "10", "CUT_PROV": "102", "CUT_COM": "10207", "REGION": "Los Lagos", "PROVINCIA": "Chilo\u00e9", "COMUNA": "Queil\u00e9n", "variable": "Servicios de Salud", "Nombres": "Servicio de Salud Chilo\u00e9 - Posta de Salud Rural P\u00edo - P\u00edo", "POINT_X": -73.542121, "POINT_Y": -42.815251}}, {"type": "Feature", "geometry": {"type": "Point", "coordinates": [-73.60536599999995, -42.77173200000001]}, "properties": {"CUT_REG": "10", "CUT_PROV": "102", "CUT_COM": "10207", "REGION": "Los Lagos", "PROVINCIA": "Chilo\u00e9", "COMUNA": "Queil\u00e9n", "variable": "Servicios de Salud", "Nombres": "Servicio de Salud Chilo\u00e9 - Posta de Salud Rural Agoni Alto", "POINT_X": -73.605366, "POINT_Y": -42.771732}}, {"type": "Feature", "geometry": {"type": "Point", "coordinates": [-73.78890199999998, -42.76054399999997]}, "properties": {"CUT_REG": "10", "CUT_PROV": "102", "CUT_COM": "10203", "REGION": "Los Lagos", "PROVINCIA": "Chilo\u00e9", "COMUNA": "Chonchi", "variable": "Servicios de Salud", "Nombres": "Servicio de Salud Chilo\u00e9 - Posta de Salud Rural Pulpito", "POINT_X": -73.788902, "POINT_Y": -42.760544}}, {"type": "Feature", "geometry": {"type": "Point", "coordinates": [-73.66288599999996, -42.719175000000035]}, "properties": {"CUT_REG": "10", "CUT_PROV": "102", "CUT_COM": "10203", "REGION": "Los Lagos", "PROVINCIA": "Chilo\u00e9", "COMUNA": "Chonchi", "variable": "Servicios de Salud", "Nombres": "Servicio de Salud Chilo\u00e9 - Posta de Salud Rural Terao", "POINT_X": -73.662886, "POINT_Y": -42.719175}}, {"type": "Feature", "geometry": {"type": "Point", "coordinates": [-73.55595900000003, -42.68489100000002]}, "properties": {"CUT_REG": "10", "CUT_PROV": "102", "CUT_COM": "10206", "REGION": "Los Lagos", "PROVINCIA": "Chilo\u00e9", "COMUNA": "Puqueld\u00f3n", "variable": "Servicios de Salud", "Nombres": "Servicio de Salud Chilo\u00e9 - Posta de Salud Rural Detif", "POINT_X": -73.555959, "POINT_Y": -42.684891}}, {"type": "Feature", "geometry": {"type": "Point", "coordinates": [-73.89806899999999, -42.67532200000001]}, "properties": {"CUT_REG": "10", "CUT_PROV": "102", "CUT_COM": "10203", "REGION": "Los Lagos", "PROVINCIA": "Chilo\u00e9", "COMUNA": "Chonchi", "variable": "Servicios de Salud", "Nombres": "Servicio de Salud Chilo\u00e9 - Centro Comunitario de Salud Familiar Huillinco", "POINT_X": -73.898069, "POINT_Y": -42.675322}}, {"type": "Feature", "geometry": {"type": "Point", "coordinates": [-73.605635, -42.64740600000002]}, "properties": {"CUT_REG": "10", "CUT_PROV": "102", "CUT_COM": "10206", "REGION": "Los Lagos", "PROVINCIA": "Chilo\u00e9", "COMUNA": "Puqueld\u00f3n", "variable": "Servicios de Salud", "Nombres": "Servicio de Salud Chilo\u00e9 - Posta de Salud Rural Liucura (Puqueld\u00f3n)", "POINT_X": -73.605635, "POINT_Y": -42.647406}}, {"type": "Feature", "geometry": {"type": "Point", "coordinates": [-74.10989900000001, -42.63792999999997]}, "properties": {"CUT_REG": "10", "CUT_PROV": "102", "CUT_COM": "10203", "REGION": "Los Lagos", "PROVINCIA": "Chilo\u00e9", "COMUNA": "Chonchi", "variable": "Servicios de Salud", "Nombres": "Servicio de Salud Chilo\u00e9 - Posta de Salud Rural Cucao", "POINT_X": -74.109899, "POINT_Y": -42.63793}}, {"type": "Feature", "geometry": {"type": "Point", "coordinates": [-73.30499, -42.63139000000001]}, "properties": {"CUT_REG": "10", "CUT_PROV": "102", "CUT_COM": "10210", "REGION": "Los Lagos", "PROVINCIA": "Chilo\u00e9", "COMUNA": "Quinchao", "variable": "Servicios de Salud", "Nombres": "Servicio de Salud Chilo\u00e9 - Posta de Salud Rural Capilla Antig\u00fca", "POINT_X": -73.30499, "POINT_Y": -42.63139}}, {"type": "Feature", "geometry": {"type": "Point", "coordinates": [-73.29826300000003, -42.62831299999998]}, "properties": {"CUT_REG": "10", "CUT_PROV": "102", "CUT_COM": "10210", "REGION": "Los Lagos", "PROVINCIA": "Chilo\u00e9", "COMUNA": "Quinchao", "variable": "Servicios de Salud", "Nombres": "Servicio de Salud Chilo\u00e9 - Posta de Salud Rural Chaulinec La Villa", "POINT_X": -73.298263, "POINT_Y": -42.628313}}, {"type": "Feature", "geometry": {"type": "Point", "coordinates": [-73.77791699999995, -42.62284000000002]}, "properties": {"CUT_REG": "10", "CUT_PROV": "102", "CUT_COM": "10203", "REGION": "Los Lagos", "PROVINCIA": "Chilo\u00e9", "COMUNA": "Chonchi", "variable": "Servicios de Salud", "Nombres": "Servicio de Salud Chilo\u00e9 - Centro de Salud Familiar Chonchi", "POINT_X": -73.777917, "POINT_Y": -42.62284}}, {"type": "Feature", "geometry": {"type": "Point", "coordinates": [-73.77795135899996, -42.62275214000003]}, "properties": {"CUT_REG": "10", "CUT_PROV": "102", "CUT_COM": "10203", "REGION": "Los Lagos", "PROVINCIA": "Chilo\u00e9", "COMUNA": "Chonchi", "variable": "Servicios de Salud", "Nombres": "Servicio de Salud Chilo\u00e9 - SUR Chonchi", "POINT_X": -73.777951359, "POINT_Y": -42.62275214}}, {"type": "Feature", "geometry": {"type": "Point", "coordinates": [-73.891272, -42.62094899999997]}, "properties": {"CUT_REG": "10", "CUT_PROV": "102", "CUT_COM": "10203", "REGION": "Los Lagos", "PROVINCIA": "Chilo\u00e9", "COMUNA": "Chonchi", "variable": "Servicios de Salud", "Nombres": "Servicio de Salud Chilo\u00e9 - Posta de Salud Rural Petanes Bajos", "POINT_X": -73.891272, "POINT_Y": -42.620949}}, {"type": "Feature", "geometry": {"type": "Point", "coordinates": [-73.71893099999997, -42.616164999999995]}, "properties": {"CUT_REG": "10", "CUT_PROV": "102", "CUT_COM": "10206", "REGION": "Los Lagos", "PROVINCIA": "Chilo\u00e9", "COMUNA": "Puqueld\u00f3n", "variable": "Servicios de Salud", "Nombres": "Servicio de Salud Chilo\u00e9 - Posta de Salud Rural Ichuac", "POINT_X": -73.718931, "POINT_Y": -42.616165}}, {"type": "Feature", "geometry": {"type": "Point", "coordinates": [-73.49468000000003, -42.61353499999999]}, "properties": {"CUT_REG": "10", "CUT_PROV": "102", "CUT_COM": "10201", "REGION": "Los Lagos", "PROVINCIA": "Chilo\u00e9", "COMUNA": "Castro", "variable": "Servicios de Salud", "Nombres": "Servicio de Salud Chilo\u00e9 - Posta de Salud Rural Quehui", "POINT_X": -73.49468, "POINT_Y": -42.613535}}, {"type": "Feature", "geometry": {"type": "Point", "coordinates": [-74.12018099999997, -42.602661999999995]}, "properties": {"CUT_REG": "10", "CUT_PROV": "102", "CUT_COM": "10203", "REGION": "Los Lagos", "PROVINCIA": "Chilo\u00e9", "COMUNA": "Chonchi", "variable": "Servicios de Salud", "Nombres": "Servicio de Salud Chilo\u00e9 - Posta de Salud Rural Chanqu\u00edn", "POINT_X": -74.120181, "POINT_Y": -42.602662}}, {"type": "Feature", "geometry": {"type": "Point", "coordinates": [-73.29795099999998, -42.600454]}, "properties": {"CUT_REG": "10", "CUT_PROV": "102", "CUT_COM": "10210", "REGION": "Los Lagos", "PROVINCIA": "Chilo\u00e9", "COMUNA": "Quinchao", "variable": "Servicios de Salud", "Nombres": "Servicio de Salud Chilo\u00e9 - Posta de Salud Rural Isla Alao", "POINT_X": -73.297951, "POINT_Y": -42.600454}}, {"type": "Feature", "geometry": {"type": "Point", "coordinates": [-73.67656700000003, -42.598831000000004]}, "properties": {"CUT_REG": "10", "CUT_PROV": "102", "CUT_COM": "10206", "REGION": "Los Lagos", "PROVINCIA": "Chilo\u00e9", "COMUNA": "Puqueld\u00f3n", "variable": "Servicios de Salud", "Nombres": "Servicio de Salud Chilo\u00e9 - SUR Puqueld\u00f3n", "POINT_X": -73.676567, "POINT_Y": -42.598831}}, {"type": "Feature", "geometry": {"type": "Point", "coordinates": [-73.67649600000003, -42.59879499999995]}, "properties": {"CUT_REG": "10", "CUT_PROV": "102", "CUT_COM": "10206", "REGION": "Los Lagos", "PROVINCIA": "Chilo\u00e9", "COMUNA": "Puqueld\u00f3n", "variable": "Servicios de Salud", "Nombres": "Servicio de Salud Chilo\u00e9 - Centro de Salud Familiar Puqueld\u00f3n", "POINT_X": -73.676496, "POINT_Y": -42.598795}}, {"type": "Feature", "geometry": {"type": "Point", "coordinates": [-73.21151099999996, -42.59759800000003]}, "properties": {"CUT_REG": "10", "CUT_PROV": "102", "CUT_COM": "10210", "REGION": "Los Lagos", "PROVINCIA": "Chilo\u00e9", "COMUNA": "Quinchao", "variable": "Servicios de Salud", "Nombres": "Servicio de Salud Chilo\u00e9 - Centro Comunitario de Salud Familiar Carlina Paillacar", "POINT_X": -73.211511, "POINT_Y": -42.597598}}, {"type": "Feature", "geometry": {"type": "Point", "coordinates": [-73.797055, -42.59481699999998]}, "properties": {"CUT_REG": "10", "CUT_PROV": "102", "CUT_COM": "10203", "REGION": "Los Lagos", "PROVINCIA": "Chilo\u00e9", "COMUNA": "Chonchi", "variable": "Servicios de Salud", "Nombres": "Servicio de Salud Chilo\u00e9 - Posta de Salud Rural Curaco de Vilupulli", "POINT_X": -73.797055, "POINT_Y": -42.594817}}, {"type": "Feature", "geometry": {"type": "Point", "coordinates": [-73.51912, -42.58518899999996]}, "properties": {"CUT_REG": "10", "CUT_PROV": "102", "CUT_COM": "10201", "REGION": "Los Lagos", "PROVINCIA": "Chilo\u00e9", "COMUNA": "Castro", "variable": "Servicios de Salud", "Nombres": "Servicio de Salud Chilo\u00e9 - Posta de Salud Rural Chel\u00edn", "POINT_X": -73.51912, "POINT_Y": -42.585189}}, {"type": "Feature", "geometry": {"type": "Point", "coordinates": [-73.61162999999999, -42.58297000000003]}, "properties": {"CUT_REG": "10", "CUT_PROV": "102", "CUT_COM": "10206", "REGION": "Los Lagos", "PROVINCIA": "Chilo\u00e9", "COMUNA": "Puqueld\u00f3n", "variable": "Servicios de Salud", "Nombres": "Servicio de Salud Chilo\u00e9 - Posta de Salud Rural Aldachildo", "POINT_X": -73.61163, "POINT_Y": -42.58297}}, {"type": "Feature", "geometry": {"type": "Point", "coordinates": [-73.68133199999994, -42.550054999999965]}, "properties": {"CUT_REG": "10", "CUT_PROV": "102", "CUT_COM": "10201", "REGION": "Los Lagos", "PROVINCIA": "Chilo\u00e9", "COMUNA": "Castro", "variable": "Servicios de Salud", "Nombres": "Servicio de Salud Chilo\u00e9 - Posta de Salud Rural Curahue", "POINT_X": -73.681332, "POINT_Y": -42.550055}}, {"type": "Feature", "geometry": {"type": "Point", "coordinates": [-73.79598300000004, -42.546454]}, "properties": {"CUT_REG": "10", "CUT_PROV": "102", "CUT_COM": "10203", "REGION": "Los Lagos", "PROVINCIA": "Chilo\u00e9", "COMUNA": "Chonchi", "variable": "Servicios de Salud", "Nombres": "Servicio de Salud Chilo\u00e9 - Posta de Salud Rural Rauco", "POINT_X": -73.795983, "POINT_Y": -42.546454}}, {"type": "Feature", "geometry": {"type": "Point", "coordinates": [-73.42243299999998, -42.539586]}, "properties": {"CUT_REG": "10", "CUT_PROV": "102", "CUT_COM": "10210", "REGION": "Los Lagos", "PROVINCIA": "Chilo\u00e9", "COMUNA": "Quinchao", "variable": "Servicios de Salud", "Nombres": "Servicio de Salud Chilo\u00e9 - Posta de Salud Rural Quinchao", "POINT_X": -73.422433, "POINT_Y": -42.539586}}, {"type": "Feature", "geometry": {"type": "Point", "coordinates": [-73.84049299999997, -42.529885999999976]}, "properties": {"CUT_REG": "10", "CUT_PROV": "102", "CUT_COM": "10203", "REGION": "Los Lagos", "PROVINCIA": "Chilo\u00e9", "COMUNA": "Chonchi", "variable": "Servicios de Salud", "Nombres": "Servicio de Salud Chilo\u00e9 - Posta de Salud Rural Nalhuitad", "POINT_X": -73.840493, "POINT_Y": -42.529886}}, {"type": "Feature", "geometry": {"type": "Point", "coordinates": [-73.62747199999998, -42.52040800000002]}, "properties": {"CUT_REG": "10", "CUT_PROV": "102", "CUT_COM": "10201", "REGION": "Los Lagos", "PROVINCIA": "Chilo\u00e9", "COMUNA": "Castro", "variable": "Servicios de Salud", "Nombres": "Servicio de Salud Chilo\u00e9 - Centro Comunitario de Salud Familiar Ril\u00e1n", "POINT_X": -73.627472, "POINT_Y": -42.520408}}, {"type": "Feature", "geometry": {"type": "Point", "coordinates": [-73.75288600000002, -42.51785899999997]}, "properties": {"CUT_REG": "10", "CUT_PROV": "102", "CUT_COM": "10201", "REGION": "Los Lagos", "PROVINCIA": "Chilo\u00e9", "COMUNA": "Castro", "variable": "Servicios de Salud", "Nombres": "Servicio de Salud Chilo\u00e9 - Posta de Salud Rural Yutuy", "POINT_X": -73.752886, "POINT_Y": -42.517859}}, {"type": "Feature", "geometry": {"type": "Point", "coordinates": [-73.26619499999998, -42.50980000000001]}, "properties": {"CUT_REG": "10", "CUT_PROV": "102", "CUT_COM": "10210", "REGION": "Los Lagos", "PROVINCIA": "Chilo\u00e9", "COMUNA": "Quinchao", "variable": "Servicios de Salud", "Nombres": "Servicio de Salud Chilo\u00e9 - Posta de Salud Rural Isla Cahuach", "POINT_X": -73.266195, "POINT_Y": -42.5098}}, {"type": "Feature", "geometry": {"type": "Point", "coordinates": [-73.72288200000003, -42.50873300000001]}, "properties": {"CUT_REG": "10", "CUT_PROV": "102", "CUT_COM": "10201", "REGION": "Los Lagos", "PROVINCIA": "Chilo\u00e9", "COMUNA": "Castro", "variable": "Servicios de Salud", "Nombres": "Servicio de Salud Chilo\u00e9 - Posta de Salud Rural Puy\u00e1n", "POINT_X": -73.722882, "POINT_Y": -42.508733}}, {"type": "Feature", "geometry": {"type": "Point", "coordinates": [-73.76844, -42.481582999999986]}, "properties": {"CUT_REG": "10", "CUT_PROV": "102", "CUT_COM": "10201", "REGION": "Los Lagos", "PROVINCIA": "Chilo\u00e9", "COMUNA": "Castro", "variable": "Servicios de Salud", "Nombres": "SEREMI De Los Lagos - Laboratorio Cl\u00ednico y Hematol\u00f3gico Biolab", "POINT_X": -73.76844, "POINT_Y": -42.481583}}, {"type": "Feature", "geometry": {"type": "Point", "coordinates": [-73.76174799999998, -42.48153999999998]}, "properties": {"CUT_REG": "10", "CUT_PROV": "102", "CUT_COM": "10201", "REGION": "Los Lagos", "PROVINCIA": "Chilo\u00e9", "COMUNA": "Castro", "variable": "Servicios de Salud", "Nombres": "SEREMI De Los Lagos - Laboratorio Cl\u00ednico y Hematol\u00f3gico Biolab Ltda. ECOSUR", "POINT_X": -73.761748, "POINT_Y": -42.48154}}, {"type": "Feature", "geometry": {"type": "Point", "coordinates": [-73.76214299999998, -42.48113800000003]}, "properties": {"CUT_REG": "10", "CUT_PROV": "102", "CUT_COM": "10201", "REGION": "Los Lagos", "PROVINCIA": "Chilo\u00e9", "COMUNA": "Castro", "variable": "Servicios de Salud", "Nombres": "SEREMI De Los Lagos - Laboratorio Cl\u00ednico el Bosque", "POINT_X": -73.762143, "POINT_Y": -42.481138}}, {"type": "Feature", "geometry": {"type": "Point", "coordinates": [-73.76198199999999, -42.481104999999964]}, "properties": {"CUT_REG": "10", "CUT_PROV": "102", "CUT_COM": "10201", "REGION": "Los Lagos", "PROVINCIA": "Chilo\u00e9", "COMUNA": "Castro", "variable": "Servicios de Salud", "Nombres": "SEREMI De Los Lagos - Laboratorio Cl\u00ednico Austral", "POINT_X": -73.761982, "POINT_Y": -42.481105}}, {"type": "Feature", "geometry": {"type": "Point", "coordinates": [-73.76177899999998, -42.48107299999998]}, "properties": {"CUT_REG": "10", "CUT_PROV": "102", "CUT_COM": "10201", "REGION": "Los Lagos", "PROVINCIA": "Chilo\u00e9", "COMUNA": "Castro", "variable": "Servicios de Salud", "Nombres": "SEREMI De Los Lagos - Centro M\u00e9dico Austral", "POINT_X": -73.761779, "POINT_Y": -42.481073}}, {"type": "Feature", "geometry": {"type": "Point", "coordinates": [-73.78123700000003, -42.48076499999999]}, "properties": {"CUT_REG": "10", "CUT_PROV": "102", "CUT_COM": "10201", "REGION": "Los Lagos", "PROVINCIA": "Chilo\u00e9", "COMUNA": "Castro", "variable": "Servicios de Salud", "Nombres": "Servicio de Salud Chilo\u00e9 - Centro Comunitario de Salud Familiar Gamboa", "POINT_X": -73.781237, "POINT_Y": -42.480765}}, {"type": "Feature", "geometry": {"type": "Point", "coordinates": [-73.768543, -42.480622999999966]}, "properties": {"CUT_REG": "10", "CUT_PROV": "102", "CUT_COM": "10201", "REGION": "Los Lagos", "PROVINCIA": "Chilo\u00e9", "COMUNA": "Castro", "variable": "Servicios de Salud", "Nombres": "SEREMI De Los Lagos - Policl\u00ednico de la AChS Castro", "POINT_X": -73.768543, "POINT_Y": -42.480623}}, {"type": "Feature", "geometry": {"type": "Point", "coordinates": [-73.76810999999995, -42.48059900000002]}, "properties": {"CUT_REG": "10", "CUT_PROV": "102", "CUT_COM": "10201", "REGION": "Los Lagos", "PROVINCIA": "Chilo\u00e9", "COMUNA": "Castro", "variable": "Servicios de Salud", "Nombres": "SEREMI De Los Lagos - Centro M\u00e9dico y Dental La Araucana Castro", "POINT_X": -73.76811, "POINT_Y": -42.480599}}, {"type": "Feature", "geometry": {"type": "Point", "coordinates": [-73.76514500000005, -42.48042200000003]}, "properties": {"CUT_REG": "10", "CUT_PROV": "102", "CUT_COM": "10201", "REGION": "Los Lagos", "PROVINCIA": "Chilo\u00e9", "COMUNA": "Castro", "variable": "Servicios de Salud", "Nombres": "Servicio de Salud Chilo\u00e9 - Actividades gestionadas por la Direcci\u00f3n del Servicio para apoyo de la Red (S.S de Chilo\u00e9)", "POINT_X": -73.765145, "POINT_Y": -42.480422}}, {"type": "Feature", "geometry": {"type": "Point", "coordinates": [-73.76514500000005, -42.48042200000003]}, "properties": {"CUT_REG": "10", "CUT_PROV": "102", "CUT_COM": "10201", "REGION": "Los Lagos", "PROVINCIA": "Chilo\u00e9", "COMUNA": "Castro", "variable": "Servicios de Salud", "Nombres": "Servicio de Salud Chilo\u00e9 - Cl\u00ednica Dental M\u00f3vil Triple. Pat. BKYS90 (Castro)", "POINT_X": -73.765145, "POINT_Y": -42.480422}}, {"type": "Feature", "geometry": {"type": "Point", "coordinates": [-73.76514500000005, -42.48042200000003]}, "properties": {"CUT_REG": "10", "CUT_PROV": "102", "CUT_COM": "10201", "REGION": "Los Lagos", "PROVINCIA": "Chilo\u00e9", "COMUNA": "Castro", "variable": "Servicios de Salud", "Nombres": "Servicio de Salud Chilo\u00e9 - PRAIS (S.S Chilo\u00e9)", "POINT_X": -73.765145, "POINT_Y": -42.480422}}, {"type": "Feature", "geometry": {"type": "Point", "coordinates": [-73.76514500000005, -42.48042200000003]}, "properties": {"CUT_REG": "10", "CUT_PROV": "102", "CUT_COM": "10201", "REGION": "Los Lagos", "PROVINCIA": "Chilo\u00e9", "COMUNA": "Castro", "variable": "Servicios de Salud", "Nombres": "Servicio de Salud Chilo\u00e9 - Unidad de Salud Funcionario   S.S Chilo\u00e9", "POINT_X": -73.765145, "POINT_Y": -42.480422}}, {"type": "Feature", "geometry": {"type": "Point", "coordinates": [-73.76217, -42.480412]}, "properties": {"CUT_REG": "10", "CUT_PROV": "102", "CUT_COM": "10201", "REGION": "Los Lagos", "PROVINCIA": "Chilo\u00e9", "COMUNA": "Castro", "variable": "Servicios de Salud", "Nombres": "SEREMI De Los Lagos - Policl\u00ednico Instituto de Seguridad del Trabajo de Castro", "POINT_X": -73.76217, "POINT_Y": -42.480412}}, {"type": "Feature", "geometry": {"type": "Point", "coordinates": [-73.75990999999996, -42.48019100000001]}, "properties": {"CUT_REG": "10", "CUT_PROV": "102", "CUT_COM": "10201", "REGION": "Los Lagos", "PROVINCIA": "Chilo\u00e9", "COMUNA": "Castro", "variable": "Servicios de Salud", "Nombres": "No Aplica - Buque Cirujano Videla", "POINT_X": -73.75991, "POINT_Y": -42.480191}}, {"type": "Feature", "geometry": {"type": "Point", "coordinates": [-73.76446660999994, -42.479507336699996]}, "properties": {"CUT_REG": "10", "CUT_PROV": "102", "CUT_COM": "10201", "REGION": "Los Lagos", "PROVINCIA": "Chilo\u00e9", "COMUNA": "Castro", "variable": "Servicios de Salud", "Nombres": "SEREMI De Los Lagos - Centro M\u00e9dico y Dental La Araucana Ancud", "POINT_X": -73.76446661, "POINT_Y": -42.4795073367}}, {"type": "Feature", "geometry": {"type": "Point", "coordinates": [-73.76505399999996, -42.47761900000001]}, "properties": {"CUT_REG": "10", "CUT_PROV": "102", "CUT_COM": "10201", "REGION": "Los Lagos", "PROVINCIA": "Chilo\u00e9", "COMUNA": "Castro", "variable": "Servicios de Salud", "Nombres": "SEREMI De Los Lagos - Policl\u00ednico de la Mutual de Seguridad CChC Castro", "POINT_X": -73.765054, "POINT_Y": -42.477619}}, {"type": "Feature", "geometry": {"type": "Point", "coordinates": [-73.76809199999998, -42.47749699999996]}, "properties": {"CUT_REG": "10", "CUT_PROV": "102", "CUT_COM": "10201", "REGION": "Los Lagos", "PROVINCIA": "Chilo\u00e9", "COMUNA": "Castro", "variable": "Servicios de Salud", "Nombres": "SEREMI De Los Lagos - Laboratorio Cl\u00ednico Chilo\u00e9", "POINT_X": -73.768092, "POINT_Y": -42.477497}}, {"type": "Feature", "geometry": {"type": "Point", "coordinates": [-73.76933, -42.47704299999996]}, "properties": {"CUT_REG": "10", "CUT_PROV": "102", "CUT_COM": "10201", "REGION": "Los Lagos", "PROVINCIA": "Chilo\u00e9", "COMUNA": "Castro", "variable": "Servicios de Salud", "Nombres": "Servicio de Salud Chilo\u00e9 - Hospital de Castro", "POINT_X": -73.76933, "POINT_Y": -42.477043}}, {"type": "Feature", "geometry": {"type": "Point", "coordinates": [-73.772019, -42.47437100000003]}, "properties": {"CUT_REG": "10", "CUT_PROV": "102", "CUT_COM": "10201", "REGION": "Los Lagos", "PROVINCIA": "Chilo\u00e9", "COMUNA": "Castro", "variable": "Servicios de Salud", "Nombres": "Servicio de Salud Chilo\u00e9 - Centro de Salud Familiar Dr. Ren\u00e9 Tapia Salgado", "POINT_X": -73.772019, "POINT_Y": -42.474371}}, {"type": "Feature", "geometry": {"type": "Point", "coordinates": [-73.494599, -42.46956200000004]}, "properties": {"CUT_REG": "10", "CUT_PROV": "102", "CUT_COM": "10210", "REGION": "Los Lagos", "PROVINCIA": "Chilo\u00e9", "COMUNA": "Quinchao", "variable": "Servicios de Salud", "Nombres": "Servicio de Salud Chilo\u00e9 - Hospital Comunitario de Achao", "POINT_X": -73.494599, "POINT_Y": -42.469562}}, {"type": "Feature", "geometry": {"type": "Point", "coordinates": [-73.777794, -42.464594000000034]}, "properties": {"CUT_REG": "10", "CUT_PROV": "102", "CUT_COM": "10201", "REGION": "Los Lagos", "PROVINCIA": "Chilo\u00e9", "COMUNA": "Castro", "variable": "Servicios de Salud", "Nombres": "Servicio de Salud Chilo\u00e9 - Centro Comunitario de Salud Familiar Kintunien", "POINT_X": -73.777794, "POINT_Y": -42.464594}}, {"type": "Feature", "geometry": {"type": "Point", "coordinates": [-73.79259100000004, -42.46066099999996]}, "properties": {"CUT_REG": "10", "CUT_PROV": "102", "CUT_COM": "10201", "REGION": "Los Lagos", "PROVINCIA": "Chilo\u00e9", "COMUNA": "Castro", "variable": "Servicios de Salud", "Nombres": "Servicio de Salud Chilo\u00e9 - Centro de Salud Familiar Quillahue", "POINT_X": -73.792591, "POINT_Y": -42.460661}}, {"type": "Feature", "geometry": {"type": "Point", "coordinates": [-73.79256200000003, -42.46048199999998]}, "properties": {"CUT_REG": "10", "CUT_PROV": "102", "CUT_COM": "10201", "REGION": "Los Lagos", "PROVINCIA": "Chilo\u00e9", "COMUNA": "Castro", "variable": "Servicios de Salud", "Nombres": "Servicio de Salud Chilo\u00e9 - SAR Castro", "POINT_X": -73.792562, "POINT_Y": -42.460482}}, {"type": "Feature", "geometry": {"type": "Point", "coordinates": [-73.33078100000003, -42.45844799999999]}, "properties": {"CUT_REG": "10", "CUT_PROV": "102", "CUT_COM": "10210", "REGION": "Los Lagos", "PROVINCIA": "Chilo\u00e9", "COMUNA": "Quinchao", "variable": "Servicios de Salud", "Nombres": "Servicio de Salud Chilo\u00e9 - Posta de Salud Rural Isla Quenac", "POINT_X": -73.330781, "POINT_Y": -42.458448}}, {"type": "Feature", "geometry": {"type": "Point", "coordinates": [-73.60027899999997, -42.439669999999985]}, "properties": {"CUT_REG": "10", "CUT_PROV": "102", "CUT_COM": "10204", "REGION": "Los Lagos", "PROVINCIA": "Chilo\u00e9", "COMUNA": "Curaco de V\u00e9lez", "variable": "Servicios de Salud", "Nombres": "Servicio de Salud Chilo\u00e9 - Centro de Salud Familiar Curaco de V\u00e9lez", "POINT_X": -73.600279, "POINT_Y": -42.43967}}, {"type": "Feature", "geometry": {"type": "Point", "coordinates": [-73.60027899999997, -42.439669999999985]}, "properties": {"CUT_REG": "10", "CUT_PROV": "102", "CUT_COM": "10204", "REGION": "Los Lagos", "PROVINCIA": "Chilo\u00e9", "COMUNA": "Curaco de V\u00e9lez", "variable": "Servicios de Salud", "Nombres": "Servicio de Salud Chilo\u00e9 - SUR Curaco de V\u00e9lez", "POINT_X": -73.600279, "POINT_Y": -42.43967}}, {"type": "Feature", "geometry": {"type": "Point", "coordinates": [-73.76907099999998, -42.43554899999998]}, "properties": {"CUT_REG": "10", "CUT_PROV": "102", "CUT_COM": "10201", "REGION": "Los Lagos", "PROVINCIA": "Chilo\u00e9", "COMUNA": "Castro", "variable": "Servicios de Salud", "Nombres": "Servicio de Salud Chilo\u00e9 - Centro Comunitario de Salud Familiar Llau Llao", "POINT_X": -73.769071, "POINT_Y": -42.435549}}, {"type": "Feature", "geometry": {"type": "Point", "coordinates": [-73.45355700000002, -42.43279999999999]}, "properties": {"CUT_REG": "10", "CUT_PROV": "102", "CUT_COM": "10210", "REGION": "Los Lagos", "PROVINCIA": "Chilo\u00e9", "COMUNA": "Quinchao", "variable": "Servicios de Salud", "Nombres": "Servicio de Salud Chilo\u00e9 - Posta de Salud Rural Isla Llingua", "POINT_X": -73.453557, "POINT_Y": -42.4328}}, {"type": "Feature", "geometry": {"type": "Point", "coordinates": [-73.29956500000003, -42.41637299999999]}, "properties": {"CUT_REG": "10", "CUT_PROV": "102", "CUT_COM": "10210", "REGION": "Los Lagos", "PROVINCIA": "Chilo\u00e9", "COMUNA": "Quinchao", "variable": "Servicios de Salud", "Nombres": "Servicio de Salud Chilo\u00e9 - Centro Comunitario de Salud Familiar Isla Meul\u00edn", "POINT_X": -73.299565, "POINT_Y": -42.416373}}, {"type": "Feature", "geometry": {"type": "Point", "coordinates": [-73.52866399999999, -42.408844000000016]}, "properties": {"CUT_REG": "10", "CUT_PROV": "102", "CUT_COM": "10204", "REGION": "Los Lagos", "PROVINCIA": "Chilo\u00e9", "COMUNA": "Curaco de V\u00e9lez", "variable": "Servicios de Salud", "Nombres": "Servicio de Salud Chilo\u00e9 - Posta de Salud Rural Palqui", "POINT_X": -73.528664, "POINT_Y": -42.408844}}, {"type": "Feature", "geometry": {"type": "Point", "coordinates": [-73.77409599999999, -42.40386399999999]}, "properties": {"CUT_REG": "10", "CUT_PROV": "102", "CUT_COM": "10201", "REGION": "Los Lagos", "PROVINCIA": "Chilo\u00e9", "COMUNA": "Castro", "variable": "Servicios de Salud", "Nombres": "Servicio de Salud Chilo\u00e9 - Posta de Salud Rural Pid - Pid", "POINT_X": -73.774096, "POINT_Y": -42.403864}}, {"type": "Feature", "geometry": {"type": "Point", "coordinates": [-73.56612599999997, -42.401896999999956]}, "properties": {"CUT_REG": "10", "CUT_PROV": "102", "CUT_COM": "10204", "REGION": "Los Lagos", "PROVINCIA": "Chilo\u00e9", "COMUNA": "Curaco de V\u00e9lez", "variable": "Servicios de Salud", "Nombres": "Servicio de Salud Chilo\u00e9 - Posta de Salud Rural Huyar Alto", "POINT_X": -73.566126, "POINT_Y": -42.401897}}, {"type": "Feature", "geometry": {"type": "Point", "coordinates": [-73.43407400000004, -42.38829500000002]}, "properties": {"CUT_REG": "10", "CUT_PROV": "102", "CUT_COM": "10210", "REGION": "Los Lagos", "PROVINCIA": "Chilo\u00e9", "COMUNA": "Quinchao", "variable": "Servicios de Salud", "Nombres": "Servicio de Salud Chilo\u00e9 - Posta de Salud Rural Isla Lin-Lin", "POINT_X": -73.434074, "POINT_Y": -42.388295}}, {"type": "Feature", "geometry": {"type": "Point", "coordinates": [-73.13621899999995, -42.38676200000001]}, "properties": {"CUT_REG": "10", "CUT_PROV": "102", "CUT_COM": "10209", "REGION": "Los Lagos", "PROVINCIA": "Chilo\u00e9", "COMUNA": "Quemchi", "variable": "Servicios de Salud", "Nombres": "Servicio de Salud Chilo\u00e9 - Posta de Salud Rural Tac", "POINT_X": -73.136219, "POINT_Y": -42.386762}}, {"type": "Feature", "geometry": {"type": "Point", "coordinates": [-73.65205499999998, -42.37921599999996]}, "properties": {"CUT_REG": "10", "CUT_PROV": "102", "CUT_COM": "10205", "REGION": "Los Lagos", "PROVINCIA": "Chilo\u00e9", "COMUNA": "Dalcahue", "variable": "Servicios de Salud", "Nombres": "Servicio de Salud Chilo\u00e9 - Centro de Salud Familiar Dalcahue", "POINT_X": -73.652055, "POINT_Y": -42.379216}}, {"type": "Feature", "geometry": {"type": "Point", "coordinates": [-73.67655400000004, -42.37758999999998]}, "properties": {"CUT_REG": "10", "CUT_PROV": "102", "CUT_COM": "10205", "REGION": "Los Lagos", "PROVINCIA": "Chilo\u00e9", "COMUNA": "Dalcahue", "variable": "Servicios de Salud", "Nombres": "Servicio de Salud Chilo\u00e9 - SUR Dalcahue", "POINT_X": -73.676554, "POINT_Y": -42.37759}}, {"type": "Feature", "geometry": {"type": "Point", "coordinates": [-73.70993700000001, -42.352804999999975]}, "properties": {"CUT_REG": "10", "CUT_PROV": "102", "CUT_COM": "10205", "REGION": "Los Lagos", "PROVINCIA": "Chilo\u00e9", "COMUNA": "Dalcahue", "variable": "Servicios de Salud", "Nombres": "Servicio de Salud Chilo\u00e9 - Posta de Salud Rural Mocopulli", "POINT_X": -73.709937, "POINT_Y": -42.352805}}, {"type": "Feature", "geometry": {"type": "Point", "coordinates": [-73.54945199999995, -42.32855699999999]}, "properties": {"CUT_REG": "10", "CUT_PROV": "102", "CUT_COM": "10205", "REGION": "Los Lagos", "PROVINCIA": "Chilo\u00e9", "COMUNA": "Dalcahue", "variable": "Servicios de Salud", "Nombres": "Servicio de Salud Chilo\u00e9 - Posta de Salud Rural Quetalco", "POINT_X": -73.549452, "POINT_Y": -42.328557}}, {"type": "Feature", "geometry": {"type": "Point", "coordinates": [-73.459904, -42.32826100000001]}, "properties": {"CUT_REG": "10", "CUT_PROV": "102", "CUT_COM": "10205", "REGION": "Los Lagos", "PROVINCIA": "Chilo\u00e9", "COMUNA": "Dalcahue", "variable": "Servicios de Salud", "Nombres": "Servicio de Salud Chilo\u00e9 - Posta de Salud Rural Cal\u00e9n", "POINT_X": -73.459904, "POINT_Y": -42.328261}}, {"type": "Feature", "geometry": {"type": "Point", "coordinates": [-73.38660199999998, -42.315770999999984]}, "properties": {"CUT_REG": "10", "CUT_PROV": "102", "CUT_COM": "10205", "REGION": "Los Lagos", "PROVINCIA": "Chilo\u00e9", "COMUNA": "Dalcahue", "variable": "Servicios de Salud", "Nombres": "Servicio de Salud Chilo\u00e9 - Posta de Salud Rural Tena\u00fan", "POINT_X": -73.386602, "POINT_Y": -42.315771}}, {"type": "Feature", "geometry": {"type": "Point", "coordinates": [-73.26840700000002, -42.31545299999996]}, "properties": {"CUT_REG": "10", "CUT_PROV": "102", "CUT_COM": "10209", "REGION": "Los Lagos", "PROVINCIA": "Chilo\u00e9", "COMUNA": "Quemchi", "variable": "Servicios de Salud", "Nombres": "Servicio de Salud Chilo\u00e9 - Posta de Salud Rural Mechuque", "POINT_X": -73.268407, "POINT_Y": -42.315453}}, {"type": "Feature", "geometry": {"type": "Point", "coordinates": [-73.21826199999995, -42.301400000000015]}, "properties": {"CUT_REG": "10", "CUT_PROV": "102", "CUT_COM": "10209", "REGION": "Los Lagos", "PROVINCIA": "Chilo\u00e9", "COMUNA": "Quemchi", "variable": "Servicios de Salud", "Nombres": "Servicio de Salud Chilo\u00e9 - Posta de Salud Rural Voigue", "POINT_X": -73.218262, "POINT_Y": -42.3014}}, {"type": "Feature", "geometry": {"type": "Point", "coordinates": [-73.12718499999997, -42.29933299999996]}, "properties": {"CUT_REG": "10", "CUT_PROV": "102", "CUT_COM": "10209", "REGION": "Los Lagos", "PROVINCIA": "Chilo\u00e9", "COMUNA": "Quemchi", "variable": "Servicios de Salud", "Nombres": "Servicio de Salud Chilo\u00e9 - Centro Comunitario de Salud Familiar Metahue", "POINT_X": -73.127185, "POINT_Y": -42.299333}}, {"type": "Feature", "geometry": {"type": "Point", "coordinates": [-73.52080299999999, -42.27252100000002]}, "properties": {"CUT_REG": "10", "CUT_PROV": "102", "CUT_COM": "10205", "REGION": "Los Lagos", "PROVINCIA": "Chilo\u00e9", "COMUNA": "Dalcahue", "variable": "Servicios de Salud", "Nombres": "Servicio de Salud Chilo\u00e9 - Posta de Salud Rural Puchaur\u00e1n", "POINT_X": -73.520803, "POINT_Y": -42.272521}}, {"type": "Feature", "geometry": {"type": "Point", "coordinates": [-73.353073, -42.26746999999999]}, "properties": {"CUT_REG": "10", "CUT_PROV": "102", "CUT_COM": "10209", "REGION": "Los Lagos", "PROVINCIA": "Chilo\u00e9", "COMUNA": "Quemchi", "variable": "Servicios de Salud", "Nombres": "Servicio de Salud Chilo\u00e9 - Posta de Salud Rural Quicav\u00ed", "POINT_X": -73.353073, "POINT_Y": -42.26747}}, {"type": "Feature", "geometry": {"type": "Point", "coordinates": [-73.42805899999999, -42.259591]}, "properties": {"CUT_REG": "10", "CUT_PROV": "102", "CUT_COM": "10209", "REGION": "Los Lagos", "PROVINCIA": "Chilo\u00e9", "COMUNA": "Quemchi", "variable": "Servicios de Salud", "Nombres": "Servicio de Salud Chilo\u00e9 - Posta de Salud Rural Montemar", "POINT_X": -73.428059, "POINT_Y": -42.259591}}, {"type": "Feature", "geometry": {"type": "Point", "coordinates": [-73.70632099999996, -42.253690999999975]}, "properties": {"CUT_REG": "10", "CUT_PROV": "102", "CUT_COM": "10205", "REGION": "Los Lagos", "PROVINCIA": "Chilo\u00e9", "COMUNA": "Dalcahue", "variable": "Servicios de Salud", "Nombres": "Servicio de Salud Chilo\u00e9 - Posta de Salud Rural Butalcura", "POINT_X": -73.706321, "POINT_Y": -42.253691}}, {"type": "Feature", "geometry": {"type": "Point", "coordinates": [-73.39693800000003, -42.16837199999998]}, "properties": {"CUT_REG": "10", "CUT_PROV": "102", "CUT_COM": "10209", "REGION": "Los Lagos", "PROVINCIA": "Chilo\u00e9", "COMUNA": "Quemchi", "variable": "Servicios de Salud", "Nombres": "Servicio de Salud Chilo\u00e9 - Posta de Salud Rural Quinterqu\u00e9n", "POINT_X": -73.396938, "POINT_Y": -42.168372}}, {"type": "Feature", "geometry": {"type": "Point", "coordinates": [-73.47916699999999, -42.145584]}, "properties": {"CUT_REG": "10", "CUT_PROV": "102", "CUT_COM": "10209", "REGION": "Los Lagos", "PROVINCIA": "Chilo\u00e9", "COMUNA": "Quemchi", "variable": "Servicios de Salud", "Nombres": "Servicio de Salud Chilo\u00e9 - Centro de Salud Familiar Quemchi", "POINT_X": -73.479167, "POINT_Y": -42.145584}}, {"type": "Feature", "geometry": {"type": "Point", "coordinates": [-73.47893458000003, -42.145307]}, "properties": {"CUT_REG": "10", "CUT_PROV": "102", "CUT_COM": "10209", "REGION": "Los Lagos", "PROVINCIA": "Chilo\u00e9", "COMUNA": "Quemchi", "variable": "Servicios de Salud", "Nombres": "Servicio de Salud Chilo\u00e9 - SUR Quemchi", "POINT_X": -73.47893458, "POINT_Y": -42.145307}}, {"type": "Feature", "geometry": {"type": "Point", "coordinates": [-73.718649, -42.14443599999996]}, "properties": {"CUT_REG": "10", "CUT_PROV": "102", "CUT_COM": "10202", "REGION": "Los Lagos", "PROVINCIA": "Chilo\u00e9", "COMUNA": "Ancud", "variable": "Servicios de Salud", "Nombres": "Servicio de Salud Chilo\u00e9 - Centro Comunitario de Salud Familiar Puntra Dega\u00f1", "POINT_X": -73.718649, "POINT_Y": -42.144436}}, {"type": "Feature", "geometry": {"type": "Point", "coordinates": [-73.407846, -42.12131299999999]}, "properties": {"CUT_REG": "10", "CUT_PROV": "102", "CUT_COM": "10209", "REGION": "Los Lagos", "PROVINCIA": "Chilo\u00e9", "COMUNA": "Quemchi", "variable": "Servicios de Salud", "Nombres": "Servicio de Salud Chilo\u00e9 - Posta de Salud Rural Morrolobos", "POINT_X": -73.407846, "POINT_Y": -42.121313}}, {"type": "Feature", "geometry": {"type": "Point", "coordinates": [-73.47272900000003, -42.030224999999966]}, "properties": {"CUT_REG": "10", "CUT_PROV": "102", "CUT_COM": "10209", "REGION": "Los Lagos", "PROVINCIA": "Chilo\u00e9", "COMUNA": "Quemchi", "variable": "Servicios de Salud", "Nombres": "Servicio de Salud Chilo\u00e9 - Posta de Salud Rural Lliuco (Quemchi)", "POINT_X": -73.472729, "POINT_Y": -42.030225}}, {"type": "Feature", "geometry": {"type": "Point", "coordinates": [-73.90643700000004, -42.024929]}, "properties": {"CUT_REG": "10", "CUT_PROV": "102", "CUT_COM": "10202", "REGION": "Los Lagos", "PROVINCIA": "Chilo\u00e9", "COMUNA": "Ancud", "variable": "Servicios de Salud", "Nombres": "Servicio de Salud Chilo\u00e9 - Posta de Salud Rural Coipomo", "POINT_X": -73.906437, "POINT_Y": -42.024929}}, {"type": "Feature", "geometry": {"type": "Point", "coordinates": [-73.557292, -41.96798900000002]}, "properties": {"CUT_REG": "10", "CUT_PROV": "102", "CUT_COM": "10202", "REGION": "Los Lagos", "PROVINCIA": "Chilo\u00e9", "COMUNA": "Ancud", "variable": "Servicios de Salud", "Nombres": "Servicio de Salud Chilo\u00e9 - Posta de Salud Rural Linao", "POINT_X": -73.557292, "POINT_Y": -41.967989}}, {"type": "Feature", "geometry": {"type": "Point", "coordinates": [-73.52349, -41.883404999999996]}, "properties": {"CUT_REG": "10", "CUT_PROV": "102", "CUT_COM": "10202", "REGION": "Los Lagos", "PROVINCIA": "Chilo\u00e9", "COMUNA": "Ancud", "variable": "Servicios de Salud", "Nombres": "Servicio de Salud Chilo\u00e9 - Posta de Salud Rural Manao", "POINT_X": -73.52349, "POINT_Y": -41.883405}}, {"type": "Feature", "geometry": {"type": "Point", "coordinates": [-73.79682499999997, -41.87914500000004]}, "properties": {"CUT_REG": "10", "CUT_PROV": "102", "CUT_COM": "10202", "REGION": "Los Lagos", "PROVINCIA": "Chilo\u00e9", "COMUNA": "Ancud", "variable": "Servicios de Salud", "Nombres": "Servicio de Salud Chilo\u00e9 - Centro de Salud Familiar Pudeto Bajo", "POINT_X": -73.796825, "POINT_Y": -41.879145}}, {"type": "Feature", "geometry": {"type": "Point", "coordinates": [-73.824864, -41.87670600000003]}, "properties": {"CUT_REG": "10", "CUT_PROV": "102", "CUT_COM": "10202", "REGION": "Los Lagos", "PROVINCIA": "Chilo\u00e9", "COMUNA": "Ancud", "variable": "Servicios de Salud", "Nombres": "Servicio de Salud Chilo\u00e9 - Centro Comunitario de Salud Familiar Bellavista", "POINT_X": -73.824864, "POINT_Y": -41.876706}}, {"type": "Feature", "geometry": {"type": "Point", "coordinates": [-73.94624500000003, -41.87146699999998]}, "properties": {"CUT_REG": "10", "CUT_PROV": "102", "CUT_COM": "10202", "REGION": "Los Lagos", "PROVINCIA": "Chilo\u00e9", "COMUNA": "Ancud", "variable": "Servicios de Salud", "Nombres": "Servicio de Salud Chilo\u00e9 - Centro Comunitario de Salud Familiar Quetalmahue", "POINT_X": -73.946245, "POINT_Y": -41.871467}}, {"type": "Feature", "geometry": {"type": "Point", "coordinates": [-73.80793900000002, -41.87019100000001]}, "properties": {"CUT_REG": "10", "CUT_PROV": "102", "CUT_COM": "10202", "REGION": "Los Lagos", "PROVINCIA": "Chilo\u00e9", "COMUNA": "Ancud", "variable": "Servicios de Salud", "Nombres": "SEREMI De Los Lagos - Policl\u00ednico de la AChS Ancud", "POINT_X": -73.807939, "POINT_Y": -41.870191}}, {"type": "Feature", "geometry": {"type": "Point", "coordinates": [-73.82534300000003, -41.869578000000004]}, "properties": {"CUT_REG": "10", "CUT_PROV": "102", "CUT_COM": "10202", "REGION": "Los Lagos", "PROVINCIA": "Chilo\u00e9", "COMUNA": "Ancud", "variable": "Servicios de Salud", "Nombres": "SEREMI De Los Lagos - Laboratorio Cl\u00ednico Bionet S.A. - Ancud", "POINT_X": -73.825343, "POINT_Y": -41.869578}}, {"type": "Feature", "geometry": {"type": "Point", "coordinates": [-73.82706500000003, -41.86845200000001]}, "properties": {"CUT_REG": "10", "CUT_PROV": "102", "CUT_COM": "10202", "REGION": "Los Lagos", "PROVINCIA": "Chilo\u00e9", "COMUNA": "Ancud", "variable": "Servicios de Salud", "Nombres": "SEREMI De Los Lagos - Policl\u00ednico Instituto de Seguridad del Trabajo de Ancud", "POINT_X": -73.827065, "POINT_Y": -41.868452}}, {"type": "Feature", "geometry": {"type": "Point", "coordinates": [-73.82585400000002, -41.86841599999997]}, "properties": {"CUT_REG": "10", "CUT_PROV": "102", "CUT_COM": "10202", "REGION": "Los Lagos", "PROVINCIA": "Chilo\u00e9", "COMUNA": "Ancud", "variable": "Servicios de Salud", "Nombres": "SEREMI De Los Lagos - Vacunatorio Rosal\u00eda Mu\u00f1oz", "POINT_X": -73.825854, "POINT_Y": -41.868416}}, {"type": "Feature", "geometry": {"type": "Point", "coordinates": [-73.82583700000004, -41.86839000000003]}, "properties": {"CUT_REG": "10", "CUT_PROV": "102", "CUT_COM": "10202", "REGION": "Los Lagos", "PROVINCIA": "Chilo\u00e9", "COMUNA": "Ancud", "variable": "Servicios de Salud", "Nombres": "SEREMI De Los Lagos - Laboratorio Cl\u00ednico y Hematol\u00f3gico Ancud", "POINT_X": -73.825837, "POINT_Y": -41.86839}}, {"type": "Feature", "geometry": {"type": "Point", "coordinates": [-73.81416899999999, -41.86740899999995]}, "properties": {"CUT_REG": "10", "CUT_PROV": "102", "CUT_COM": "10202", "REGION": "Los Lagos", "PROVINCIA": "Chilo\u00e9", "COMUNA": "Ancud", "variable": "Servicios de Salud", "Nombres": "No Aplica - Servicio M\u00e9dico Legal Ancud", "POINT_X": -73.814169, "POINT_Y": -41.867409}}, {"type": "Feature", "geometry": {"type": "Point", "coordinates": [-73.816608, -41.866796000000036]}, "properties": {"CUT_REG": "10", "CUT_PROV": "102", "CUT_COM": "10202", "REGION": "Los Lagos", "PROVINCIA": "Chilo\u00e9", "COMUNA": "Ancud", "variable": "Servicios de Salud", "Nombres": "Servicio de Salud Chilo\u00e9 - Centro de Salud Familiar Dr. Manuel Ferreira Guzman", "POINT_X": -73.816608, "POINT_Y": -41.866796}}, {"type": "Feature", "geometry": {"type": "Point", "coordinates": [-73.82383199999998, -41.86522999999997]}, "properties": {"CUT_REG": "10", "CUT_PROV": "102", "CUT_COM": "10202", "REGION": "Los Lagos", "PROVINCIA": "Chilo\u00e9", "COMUNA": "Ancud", "variable": "Servicios de Salud", "Nombres": "Servicio de Salud Chilo\u00e9 - Hospital de Ancud", "POINT_X": -73.823832, "POINT_Y": -41.86523}}, {"type": "Feature", "geometry": {"type": "Point", "coordinates": [-73.82789299999999, -41.86417799999997]}, "properties": {"CUT_REG": "10", "CUT_PROV": "102", "CUT_COM": "10202", "REGION": "Los Lagos", "PROVINCIA": "Chilo\u00e9", "COMUNA": "Ancud", "variable": "Servicios de Salud", "Nombres": "SEREMI De Los Lagos - Laboratorio Cl\u00ednico y Hematol\u00f3gico San Jos\u00e9", "POINT_X": -73.827893, "POINT_Y": -41.864178}}, {"type": "Feature", "geometry": {"type": "Point", "coordinates": [-73.827889, -41.863984999999985]}, "properties": {"CUT_REG": "10", "CUT_PROV": "102", "CUT_COM": "10202", "REGION": "Los Lagos", "PROVINCIA": "Chilo\u00e9", "COMUNA": "Ancud", "variable": "Servicios de Salud", "Nombres": "SEREMI De Los Lagos - Policl\u00ednico de la Mutual de Seguridad CChC Ancud", "POINT_X": -73.827889, "POINT_Y": -41.863985}}, {"type": "Feature", "geometry": {"type": "Point", "coordinates": [-73.52707000000001, -41.82893899999999]}, "properties": {"CUT_REG": "10", "CUT_PROV": "102", "CUT_COM": "10202", "REGION": "Los Lagos", "PROVINCIA": "Chilo\u00e9", "COMUNA": "Ancud", "variable": "Servicios de Salud", "Nombres": "Servicio de Salud Chilo\u00e9 - Posta de Salud Rural Chacao", "POINT_X": -73.52707, "POINT_Y": -41.828939}}, {"type": "Feature", "geometry": {"type": "Point", "coordinates": [-73.52584000000002, -41.828650999999965]}, "properties": {"CUT_REG": "10", "CUT_PROV": "102", "CUT_COM": "10202", "REGION": "Los Lagos", "PROVINCIA": "Chilo\u00e9", "COMUNA": "Ancud", "variable": "Servicios de Salud", "Nombres": "Servicio de Salud Chilo\u00e9 - SUR Chacao", "POINT_X": -73.52584, "POINT_Y": -41.828651}}, {"type": "Feature", "geometry": {"type": "Point", "coordinates": [-73.62744899999996, -41.826324999999976]}, "properties": {"CUT_REG": "10", "CUT_PROV": "102", "CUT_COM": "10202", "REGION": "Los Lagos", "PROVINCIA": "Chilo\u00e9", "COMUNA": "Ancud", "variable": "Servicios de Salud", "Nombres": "Servicio de Salud Chilo\u00e9 - Posta de Salud Rural Caul\u00edn", "POINT_X": -73.627449, "POINT_Y": -41.826325}}, {"type": "Feature", "geometry": {"type": "Point", "coordinates": [-74.03520199999994, -41.822599999999966]}, "properties": {"CUT_REG": "10", "CUT_PROV": "102", "CUT_COM": "10202", "REGION": "Los Lagos", "PROVINCIA": "Chilo\u00e9", "COMUNA": "Ancud", "variable": "Servicios de Salud", "Nombres": "Servicio de Salud Chilo\u00e9 - Posta de Salud Rural Guab\u00fan", "POINT_X": -74.035202, "POINT_Y": -41.8226}}, {"type": "Feature", "geometry": {"type": "Point", "coordinates": [-73.92854800000003, -41.82074299999997]}, "properties": {"CUT_REG": "10", "CUT_PROV": "102", "CUT_COM": "10202", "REGION": "Los Lagos", "PROVINCIA": "Chilo\u00e9", "COMUNA": "Ancud", "variable": "Servicios de Salud", "Nombres": "Servicio de Salud Chilo\u00e9 - Posta de Salud Rural Nal", "POINT_X": -73.928548, "POINT_Y": -41.820743}}]}