{"type": "FeatureCollection", "features": [{"type": "Feature", "geometry": {"type": "Point", "coordinates": [-72.63077799999999, -41.100870999999984]}, "properties": {"CUT_REG": "10", "CUT_PROV": "103", "CUT_COM": "10302", "REGION": "Los Lagos", "PROVINCIA": "Osorno", "COMUNA": "Puerto Octay", "variable": "Servicios de Salud", "Nombres": "Servicio de Salud Osorno - Posta de Salud Rural Cascadas", "POINT_X": -72.630778, "POINT_Y": -41.100871}}, {"type": "Feature", "geometry": {"type": "Point", "coordinates": [-73.62300299999997, -41.03830000000003]}, "properties": {"CUT_REG": "10", "CUT_PROV": "103", "CUT_COM": "10303", "REGION": "Los Lagos", "PROVINCIA": "Osorno", "COMUNA": "Purranque", "variable": "Servicios de Salud", "Nombres": "Servicio de Salud Osorno - Posta de Salud Rural Collihuinco", "POINT_X": -73.623003, "POINT_Y": -41.0383}}, {"type": "Feature", "geometry": {"type": "Point", "coordinates": [-73.51157099999996, -41.02661000000002]}, "properties": {"CUT_REG": "10", "CUT_PROV": "103", "CUT_COM": "10303", "REGION": "Los Lagos", "PROVINCIA": "Osorno", "COMUNA": "Purranque", "variable": "Servicios de Salud", "Nombres": "Servicio de Salud Osorno - Posta de Salud Rural La Naranja", "POINT_X": -73.511571, "POINT_Y": -41.02661}}, {"type": "Feature", "geometry": {"type": "Point", "coordinates": [-73.292056, -41.005100999999996]}, "properties": {"CUT_REG": "10", "CUT_PROV": "103", "CUT_COM": "10303", "REGION": "Los Lagos", "PROVINCIA": "Osorno", "COMUNA": "Purranque", "variable": "Servicios de Salud", "Nombres": "Servicio de Salud Osorno - Posta de Salud Rural Concordia", "POINT_X": -73.292056, "POINT_Y": -41.005101}}, {"type": "Feature", "geometry": {"type": "Point", "coordinates": [-73.04666700000001, -40.99480900000002]}, "properties": {"CUT_REG": "10", "CUT_PROV": "103", "CUT_COM": "10303", "REGION": "Los Lagos", "PROVINCIA": "Osorno", "COMUNA": "Purranque", "variable": "Servicios de Salud", "Nombres": "Servicio de Salud Osorno - Posta de Salud Rural Colonia Ponce", "POINT_X": -73.046667, "POINT_Y": -40.994809}}, {"type": "Feature", "geometry": {"type": "Point", "coordinates": [-72.73914, -40.97460199999999]}, "properties": {"CUT_REG": "10", "CUT_PROV": "103", "CUT_COM": "10302", "REGION": "Los Lagos", "PROVINCIA": "Osorno", "COMUNA": "Puerto Octay", "variable": "Servicios de Salud", "Nombres": "Servicio de Salud Osorno - Posta de Salud Rural La Calo", "POINT_X": -72.73914, "POINT_Y": -40.974602}}, {"type": "Feature", "geometry": {"type": "Point", "coordinates": [-72.88318399999997, -40.972564000000034]}, "properties": {"CUT_REG": "10", "CUT_PROV": "103", "CUT_COM": "10302", "REGION": "Los Lagos", "PROVINCIA": "Osorno", "COMUNA": "Puerto Octay", "variable": "Servicios de Salud", "Nombres": "Servicio de Salud Osorno - Hospital de Puerto Octay", "POINT_X": -72.883184, "POINT_Y": -40.972564}}, {"type": "Feature", "geometry": {"type": "Point", "coordinates": [-72.58460400000004, -40.971886999999974]}, "properties": {"CUT_REG": "10", "CUT_PROV": "103", "CUT_COM": "10302", "REGION": "Los Lagos", "PROVINCIA": "Osorno", "COMUNA": "Puerto Octay", "variable": "Servicios de Salud", "Nombres": "Servicio de Salud Osorno - Posta de Salud Rural Coihueco (Puerto Octay)", "POINT_X": -72.584604, "POINT_Y": -40.971887}}, {"type": "Feature", "geometry": {"type": "Point", "coordinates": [-73.16213400000001, -40.95139799999997]}, "properties": {"CUT_REG": "10", "CUT_PROV": "103", "CUT_COM": "10303", "REGION": "Los Lagos", "PROVINCIA": "Osorno", "COMUNA": "Purranque", "variable": "Servicios de Salud", "Nombres": "Servicio de Salud Osorno - Centro Comunitario de Salud Familiar Corte Alto", "POINT_X": -73.162134, "POINT_Y": -40.951398}}, {"type": "Feature", "geometry": {"type": "Point", "coordinates": [-73.47158699999996, -40.935191999999965]}, "properties": {"CUT_REG": "10", "CUT_PROV": "103", "CUT_COM": "10303", "REGION": "Los Lagos", "PROVINCIA": "Osorno", "COMUNA": "Purranque", "variable": "Servicios de Salud", "Nombres": "Servicio de Salud Osorno - Posta de Salud Rural Coligual", "POINT_X": -73.471587, "POINT_Y": -40.935192}}, {"type": "Feature", "geometry": {"type": "Point", "coordinates": [-73.54169400000004, -40.93138100000003]}, "properties": {"CUT_REG": "10", "CUT_PROV": "103", "CUT_COM": "10303", "REGION": "Los Lagos", "PROVINCIA": "Osorno", "COMUNA": "Purranque", "variable": "Servicios de Salud", "Nombres": "Servicio de Salud Osorno - Posta de Salud Rural Hueyusca", "POINT_X": -73.541694, "POINT_Y": -40.931381}}, {"type": "Feature", "geometry": {"type": "Point", "coordinates": [-73.34850199999997, -40.92092499999998]}, "properties": {"CUT_REG": "10", "CUT_PROV": "103", "CUT_COM": "10303", "REGION": "Los Lagos", "PROVINCIA": "Osorno", "COMUNA": "Purranque", "variable": "Servicios de Salud", "Nombres": "Servicio de Salud Osorno - Posta de Salud Rural Crucero ( Purranque)", "POINT_X": -73.348502, "POINT_Y": -40.920925}}, {"type": "Feature", "geometry": {"type": "Point", "coordinates": [-73.20243900000003, -40.91636000000002]}, "properties": {"CUT_REG": "10", "CUT_PROV": "103", "CUT_COM": "10303", "REGION": "Los Lagos", "PROVINCIA": "Osorno", "COMUNA": "Purranque", "variable": "Servicios de Salud", "Nombres": "Servicio de Salud Osorno - Posta de Salud Rural San Pedro de Purranque", "POINT_X": -73.202439, "POINT_Y": -40.91636}}, {"type": "Feature", "geometry": {"type": "Point", "coordinates": [-73.15280900000002, -40.915925]}, "properties": {"CUT_REG": "10", "CUT_PROV": "103", "CUT_COM": "10303", "REGION": "Los Lagos", "PROVINCIA": "Osorno", "COMUNA": "Purranque", "variable": "Servicios de Salud", "Nombres": "Servicio de Salud Osorno - Centro de Rehabilitaci\u00f3n de Minusv\u00e1lidos", "POINT_X": -73.152809, "POINT_Y": -40.915925}}, {"type": "Feature", "geometry": {"type": "Point", "coordinates": [-73.15388299999998, -40.913644000000005]}, "properties": {"CUT_REG": "10", "CUT_PROV": "103", "CUT_COM": "10303", "REGION": "Los Lagos", "PROVINCIA": "Osorno", "COMUNA": "Purranque", "variable": "Servicios de Salud", "Nombres": "Servicio de Salud Osorno - Hospital de Purranque Dr. Juan Hepp Dubiau", "POINT_X": -73.153883, "POINT_Y": -40.913644}}, {"type": "Feature", "geometry": {"type": "Point", "coordinates": [-73.15482199999997, -40.91303699999996]}, "properties": {"CUT_REG": "10", "CUT_PROV": "103", "CUT_COM": "10303", "REGION": "Los Lagos", "PROVINCIA": "Osorno", "COMUNA": "Purranque", "variable": "Servicios de Salud", "Nombres": "Servicio de Salud Osorno - Centro de Salud Familiar Purranque", "POINT_X": -73.154822, "POINT_Y": -40.913037}}, {"type": "Feature", "geometry": {"type": "Point", "coordinates": [-73.17208600000002, -40.910272999999975]}, "properties": {"CUT_REG": "10", "CUT_PROV": "103", "CUT_COM": "10303", "REGION": "Los Lagos", "PROVINCIA": "Osorno", "COMUNA": "Purranque", "variable": "Servicios de Salud", "Nombres": "Servicio de Salud Osorno - Centro Comunitario de Salud Familiar Barrio Estaci\u00f3n", "POINT_X": -73.172086, "POINT_Y": -40.910273}}, {"type": "Feature", "geometry": {"type": "Point", "coordinates": [-72.47821400000002, -40.88598399999998]}, "properties": {"CUT_REG": "10", "CUT_PROV": "103", "CUT_COM": "10302", "REGION": "Los Lagos", "PROVINCIA": "Osorno", "COMUNA": "Puerto Octay", "variable": "Servicios de Salud", "Nombres": "Servicio de Salud Osorno - Posta de Salud Rural Piedras Negras", "POINT_X": -72.478214, "POINT_Y": -40.885984}}, {"type": "Feature", "geometry": {"type": "Point", "coordinates": [-72.17926999999999, -40.88092799999997]}, "properties": {"CUT_REG": "10", "CUT_PROV": "103", "CUT_COM": "10302", "REGION": "Los Lagos", "PROVINCIA": "Osorno", "COMUNA": "Puerto Octay", "variable": "Servicios de Salud", "Nombres": "Servicio de Salud Osorno - Posta de Salud Rural Rupanco", "POINT_X": -72.17927, "POINT_Y": -40.880928}}, {"type": "Feature", "geometry": {"type": "Point", "coordinates": [-72.592195, -40.873577999999966]}, "properties": {"CUT_REG": "10", "CUT_PROV": "103", "CUT_COM": "10302", "REGION": "Los Lagos", "PROVINCIA": "Osorno", "COMUNA": "Puerto Octay", "variable": "Servicios de Salud", "Nombres": "Servicio de Salud Osorno - Posta de Salud Rural Pellinada", "POINT_X": -72.592195, "POINT_Y": -40.873578}}, {"type": "Feature", "geometry": {"type": "Point", "coordinates": [-73.33619899999997, -40.82117600000002]}, "properties": {"CUT_REG": "10", "CUT_PROV": "103", "CUT_COM": "10305", "REGION": "Los Lagos", "PROVINCIA": "Osorno", "COMUNA": "R\u00edo Negro", "variable": "Servicios de Salud", "Nombres": "Servicio de Salud Osorno - Centro Comunitario de Salud Familiar Riachuelo", "POINT_X": -73.336199, "POINT_Y": -40.821176}}, {"type": "Feature", "geometry": {"type": "Point", "coordinates": [-73.216531, -40.80242500000003]}, "properties": {"CUT_REG": "10", "CUT_PROV": "103", "CUT_COM": "10305", "REGION": "Los Lagos", "PROVINCIA": "Osorno", "COMUNA": "R\u00edo Negro", "variable": "Servicios de Salud", "Nombres": "Servicio de Salud Osorno - Hospital de R\u00edo Negro", "POINT_X": -73.216531, "POINT_Y": -40.802425}}, {"type": "Feature", "geometry": {"type": "Point", "coordinates": [-73.215653, -40.79306399999999]}, "properties": {"CUT_REG": "10", "CUT_PROV": "103", "CUT_COM": "10305", "REGION": "Los Lagos", "PROVINCIA": "Osorno", "COMUNA": "R\u00edo Negro", "variable": "Servicios de Salud", "Nombres": "Servicio de Salud Osorno - Centro de Salud Familiar Practicante Pablo Araya (Ex R\u00edo Negro)", "POINT_X": -73.215653, "POINT_Y": -40.793064}}, {"type": "Feature", "geometry": {"type": "Point", "coordinates": [-73.29243200000003, -40.771416000000016]}, "properties": {"CUT_REG": "10", "CUT_PROV": "103", "CUT_COM": "10305", "REGION": "Los Lagos", "PROVINCIA": "Osorno", "COMUNA": "R\u00edo Negro", "variable": "Servicios de Salud", "Nombres": "Servicio de Salud Osorno - Posta de Salud Rural Tres Esteros", "POINT_X": -73.292432, "POINT_Y": -40.771416}}, {"type": "Feature", "geometry": {"type": "Point", "coordinates": [-72.44020799999998, -40.76717600000003]}, "properties": {"CUT_REG": "10", "CUT_PROV": "103", "CUT_COM": "10304", "REGION": "Los Lagos", "PROVINCIA": "Osorno", "COMUNA": "Puyehue", "variable": "Servicios de Salud", "Nombres": "Servicio de Salud Osorno - Centro Comunitario de Salud Familiar El Encanto", "POINT_X": -72.440208, "POINT_Y": -40.767176}}, {"type": "Feature", "geometry": {"type": "Point", "coordinates": [-72.67934299999999, -40.761495000000004]}, "properties": {"CUT_REG": "10", "CUT_PROV": "103", "CUT_COM": "10304", "REGION": "Los Lagos", "PROVINCIA": "Osorno", "COMUNA": "Puyehue", "variable": "Servicios de Salud", "Nombres": "Servicio de Salud Osorno - Posta de Salud Rural Desag\u00fce Rupanco", "POINT_X": -72.679343, "POINT_Y": -40.761495}}, {"type": "Feature", "geometry": {"type": "Point", "coordinates": [-72.96472400000002, -40.75995299999996]}, "properties": {"CUT_REG": "10", "CUT_PROV": "103", "CUT_COM": "10301", "REGION": "Los Lagos", "PROVINCIA": "Osorno", "COMUNA": "Osorno", "variable": "Servicios de Salud", "Nombres": "Servicio de Salud Osorno - Posta de Salud Rural Cancura", "POINT_X": -72.964724, "POINT_Y": -40.759953}}, {"type": "Feature", "geometry": {"type": "Point", "coordinates": [-72.887886, -40.71170699999999]}, "properties": {"CUT_REG": "10", "CUT_PROV": "103", "CUT_COM": "10301", "REGION": "Los Lagos", "PROVINCIA": "Osorno", "COMUNA": "Osorno", "variable": "Servicios de Salud", "Nombres": "Servicio de Salud Osorno - Posta de Salud Rural Pichi Damas", "POINT_X": -72.887886, "POINT_Y": -40.711707}}, {"type": "Feature", "geometry": {"type": "Point", "coordinates": [-73.27101899999997, -40.70950800000003]}, "properties": {"CUT_REG": "10", "CUT_PROV": "103", "CUT_COM": "10305", "REGION": "Los Lagos", "PROVINCIA": "Osorno", "COMUNA": "R\u00edo Negro", "variable": "Servicios de Salud", "Nombres": "Servicio de Salud Osorno - Posta de Salud Rural Huilma", "POINT_X": -73.271019, "POINT_Y": -40.709508}}, {"type": "Feature", "geometry": {"type": "Point", "coordinates": [-72.336197, -40.69581600000002]}, "properties": {"CUT_REG": "10", "CUT_PROV": "103", "CUT_COM": "10304", "REGION": "Los Lagos", "PROVINCIA": "Osorno", "COMUNA": "Puyehue", "variable": "Servicios de Salud", "Nombres": "Servicio de Salud Osorno - Posta de Salud Rural Puyehue", "POINT_X": -72.336197, "POINT_Y": -40.695816}}, {"type": "Feature", "geometry": {"type": "Point", "coordinates": [-72.80672399999996, -40.685340000000004]}, "properties": {"CUT_REG": "10", "CUT_PROV": "103", "CUT_COM": "10304", "REGION": "Los Lagos", "PROVINCIA": "Osorno", "COMUNA": "Puyehue", "variable": "Servicios de Salud", "Nombres": "Servicio de Salud Osorno - Posta de Salud Rural \u00d1adi Pichi-Damas", "POINT_X": -72.806724, "POINT_Y": -40.68534}}, {"type": "Feature", "geometry": {"type": "Point", "coordinates": [-72.602644, -40.684398000000044]}, "properties": {"CUT_REG": "10", "CUT_PROV": "103", "CUT_COM": "10304", "REGION": "Los Lagos", "PROVINCIA": "Osorno", "COMUNA": "Puyehue", "variable": "Servicios de Salud", "Nombres": "Servicio de Salud Osorno - Centro de Salud Familiar Entre Lagos", "POINT_X": -72.602644, "POINT_Y": -40.684398}}, {"type": "Feature", "geometry": {"type": "Point", "coordinates": [-72.60261633400002, -40.68425848009997]}, "properties": {"CUT_REG": "10", "CUT_PROV": "103", "CUT_COM": "10304", "REGION": "Los Lagos", "PROVINCIA": "Osorno", "COMUNA": "Puyehue", "variable": "Servicios de Salud", "Nombres": "Servicio de Salud Osorno - SUR Entre Lagos", "POINT_X": -72.602616334, "POINT_Y": -40.6842584801}}, {"type": "Feature", "geometry": {"type": "Point", "coordinates": [-73.460194, -40.64874999999998]}, "properties": {"CUT_REG": "10", "CUT_PROV": "103", "CUT_COM": "10306", "REGION": "Los Lagos", "PROVINCIA": "Osorno", "COMUNA": "San Juan de la Costa", "variable": "Servicios de Salud", "Nombres": "Servicio de Salud Osorno - Posta de Salud Rural Cuinco", "POINT_X": -73.460194, "POINT_Y": -40.64875}}, {"type": "Feature", "geometry": {"type": "Point", "coordinates": [-73.46802200000005, -40.605091000000016]}, "properties": {"CUT_REG": "10", "CUT_PROV": "103", "CUT_COM": "10306", "REGION": "Los Lagos", "PROVINCIA": "Osorno", "COMUNA": "San Juan de la Costa", "variable": "Servicios de Salud", "Nombres": "Servicio de Salud Osorno - Centro de Salud Familiar Puaucho", "POINT_X": -73.468022, "POINT_Y": -40.605091}}, {"type": "Feature", "geometry": {"type": "Point", "coordinates": [-73.468176, -40.60508900000003]}, "properties": {"CUT_REG": "10", "CUT_PROV": "103", "CUT_COM": "10306", "REGION": "Los Lagos", "PROVINCIA": "Osorno", "COMUNA": "San Juan de la Costa", "variable": "Servicios de Salud", "Nombres": "Servicio de Salud Osorno - SUR Puaucho", "POINT_X": -73.468176, "POINT_Y": -40.605089}}, {"type": "Feature", "geometry": {"type": "Point", "coordinates": [-73.10398999999998, -40.591859999999954]}, "properties": {"CUT_REG": "10", "CUT_PROV": "103", "CUT_COM": "10301", "REGION": "Los Lagos", "PROVINCIA": "Osorno", "COMUNA": "Osorno", "variable": "Servicios de Salud", "Nombres": "SEREMI De Los Lagos - Policl\u00ednico de Funcionarios de la Universidad de Los Lagos", "POINT_X": -73.10399, "POINT_Y": -40.59186}}, {"type": "Feature", "geometry": {"type": "Point", "coordinates": [-73.16994799999995, -40.59172299999999]}, "properties": {"CUT_REG": "10", "CUT_PROV": "103", "CUT_COM": "10301", "REGION": "Los Lagos", "PROVINCIA": "Osorno", "COMUNA": "Osorno", "variable": "Servicios de Salud", "Nombres": "Servicio de Salud Osorno - SAPU Rahue Alto", "POINT_X": -73.169948, "POINT_Y": -40.591723}}, {"type": "Feature", "geometry": {"type": "Point", "coordinates": [-73.169794, -40.59139900000001]}, "properties": {"CUT_REG": "10", "CUT_PROV": "103", "CUT_COM": "10301", "REGION": "Los Lagos", "PROVINCIA": "Osorno", "COMUNA": "Osorno", "variable": "Servicios de Salud", "Nombres": "Servicio de Salud Osorno - Centro de Salud Familiar Rahue Alto", "POINT_X": -73.169794, "POINT_Y": -40.591399}}, {"type": "Feature", "geometry": {"type": "Point", "coordinates": [-73.12778499999996, -40.58830000000001]}, "properties": {"CUT_REG": "10", "CUT_PROV": "103", "CUT_COM": "10301", "REGION": "Los Lagos", "PROVINCIA": "Osorno", "COMUNA": "Osorno", "variable": "Servicios de Salud", "Nombres": "Servicio de Salud Osorno - Hospital Base San Jos\u00e9 de Osorno", "POINT_X": -73.127785, "POINT_Y": -40.5883}}, {"type": "Feature", "geometry": {"type": "Point", "coordinates": [-73.12705399999996, -40.58821599999999]}, "properties": {"CUT_REG": "10", "CUT_PROV": "103", "CUT_COM": "10301", "REGION": "Los Lagos", "PROVINCIA": "Osorno", "COMUNA": "Osorno", "variable": "Servicios de Salud", "Nombres": "Servicio de Salud Osorno - Unidad de Salud FuncionarioS.S Osorno", "POINT_X": -73.127054, "POINT_Y": -40.588216}}, {"type": "Feature", "geometry": {"type": "Point", "coordinates": [-73.18241500000005, -40.58791800000002]}, "properties": {"CUT_REG": "10", "CUT_PROV": "103", "CUT_COM": "10301", "REGION": "Los Lagos", "PROVINCIA": "Osorno", "COMUNA": "Osorno", "variable": "Servicios de Salud", "Nombres": "Servicio de Salud Osorno - Centro Comunitario de Salud Familiar Murrinumo", "POINT_X": -73.182415, "POINT_Y": -40.587918}}, {"type": "Feature", "geometry": {"type": "Point", "coordinates": [-73.73335699999996, -40.58669499999999]}, "properties": {"CUT_REG": "10", "CUT_PROV": "103", "CUT_COM": "10306", "REGION": "Los Lagos", "PROVINCIA": "Osorno", "COMUNA": "San Juan de la Costa", "variable": "Servicios de Salud", "Nombres": "Servicio de Salud Osorno - Centro de Salud Familiar Bah\u00eda Mansa", "POINT_X": -73.733357, "POINT_Y": -40.586695}}, {"type": "Feature", "geometry": {"type": "Point", "coordinates": [-73.46809399999995, -40.58669300000001]}, "properties": {"CUT_REG": "10", "CUT_PROV": "103", "CUT_COM": "10306", "REGION": "Los Lagos", "PROVINCIA": "Osorno", "COMUNA": "San Juan de la Costa", "variable": "Servicios de Salud", "Nombres": "Servicio de Salud Osorno - SUR Bah\u00eda Mansa", "POINT_X": -73.468094, "POINT_Y": -40.586693}}, {"type": "Feature", "geometry": {"type": "Point", "coordinates": [-73.12733500000003, -40.586606]}, "properties": {"CUT_REG": "10", "CUT_PROV": "103", "CUT_COM": "10301", "REGION": "Los Lagos", "PROVINCIA": "Osorno", "COMUNA": "Osorno", "variable": "Servicios de Salud", "Nombres": "SEREMI De Los Lagos - Centro de Salud Mutual CChC Osorno", "POINT_X": -73.127335, "POINT_Y": -40.586606}}, {"type": "Feature", "geometry": {"type": "Point", "coordinates": [-73.14987000000004, -40.58551800000004]}, "properties": {"CUT_REG": "10", "CUT_PROV": "103", "CUT_COM": "10301", "REGION": "Los Lagos", "PROVINCIA": "Osorno", "COMUNA": "Osorno", "variable": "Servicios de Salud", "Nombres": "Servicio de Salud Osorno - Centro de Salud Familiar Ovejer\u00eda", "POINT_X": -73.14987, "POINT_Y": -40.585518}}, {"type": "Feature", "geometry": {"type": "Point", "coordinates": [-73.12911299999998, -40.58494699999996]}, "properties": {"CUT_REG": "10", "CUT_PROV": "103", "CUT_COM": "10301", "REGION": "Los Lagos", "PROVINCIA": "Osorno", "COMUNA": "Osorno", "variable": "Servicios de Salud", "Nombres": "SEREMI De Los Lagos - Cl\u00ednica Oftalmol\u00f3gica Survisi\u00f3n", "POINT_X": -73.129113, "POINT_Y": -40.584947}}, {"type": "Feature", "geometry": {"type": "Point", "coordinates": [-73.11988100000003, -40.584518999999986]}, "properties": {"CUT_REG": "10", "CUT_PROV": "103", "CUT_COM": "10301", "REGION": "Los Lagos", "PROVINCIA": "Osorno", "COMUNA": "Osorno", "variable": "Servicios de Salud", "Nombres": "Servicio de Salud Osorno - Centro Referencia Diagn\u00f3stico M\u00e9dico Osorno", "POINT_X": -73.119881, "POINT_Y": -40.584519}}, {"type": "Feature", "geometry": {"type": "Point", "coordinates": [-73.12217900000002, -40.58409699999997]}, "properties": {"CUT_REG": "10", "CUT_PROV": "103", "CUT_COM": "10301", "REGION": "Los Lagos", "PROVINCIA": "Osorno", "COMUNA": "Osorno", "variable": "Servicios de Salud", "Nombres": "SEREMI De Los Lagos - Cl\u00ednica de la AChS Osorno", "POINT_X": -73.122179, "POINT_Y": -40.584097}}, {"type": "Feature", "geometry": {"type": "Point", "coordinates": [-73.12105100000002, -40.583675999999954]}, "properties": {"CUT_REG": "10", "CUT_PROV": "103", "CUT_COM": "10301", "REGION": "Los Lagos", "PROVINCIA": "Osorno", "COMUNA": "Osorno", "variable": "Servicios de Salud", "Nombres": "SEREMI De Los Lagos - Cl\u00ednica Alemana de Osorno", "POINT_X": -73.121051, "POINT_Y": -40.583676}}, {"type": "Feature", "geometry": {"type": "Point", "coordinates": [-73.12127699999999, -40.58249400000004]}, "properties": {"CUT_REG": "10", "CUT_PROV": "103", "CUT_COM": "10301", "REGION": "Los Lagos", "PROVINCIA": "Osorno", "COMUNA": "Osorno", "variable": "Servicios de Salud", "Nombres": "SEREMI De Los Lagos - Policl\u00ednico Instituto de Seguridad del Trabajo de Osorno", "POINT_X": -73.121277, "POINT_Y": -40.582494}}, {"type": "Feature", "geometry": {"type": "Point", "coordinates": [-73.11920499999997, -40.58231800000004]}, "properties": {"CUT_REG": "10", "CUT_PROV": "103", "CUT_COM": "10301", "REGION": "Los Lagos", "PROVINCIA": "Osorno", "COMUNA": "Osorno", "variable": "Servicios de Salud", "Nombres": "SEREMI De Los Lagos - Centro de Di\u00e1lisis Dial Sur", "POINT_X": -73.119205, "POINT_Y": -40.582318}}, {"type": "Feature", "geometry": {"type": "Point", "coordinates": [-73.11421100000004, -40.58204400000002]}, "properties": {"CUT_REG": "10", "CUT_PROV": "103", "CUT_COM": "10301", "REGION": "Los Lagos", "PROVINCIA": "Osorno", "COMUNA": "Osorno", "variable": "Servicios de Salud", "Nombres": "Servicio de Salud Osorno - Centro Comunitario de Salud Familiar Manuel Rodr\u00edguez", "POINT_X": -73.114211, "POINT_Y": -40.582044}}, {"type": "Feature", "geometry": {"type": "Point", "coordinates": [-73.13203399999998, -40.58051799999997]}, "properties": {"CUT_REG": "10", "CUT_PROV": "103", "CUT_COM": "10301", "REGION": "Los Lagos", "PROVINCIA": "Osorno", "COMUNA": "Osorno", "variable": "Servicios de Salud", "Nombres": "Servicio de Salud Osorno - CDR de Adultos Mayores con Demencia", "POINT_X": -73.132034, "POINT_Y": -40.580518}}, {"type": "Feature", "geometry": {"type": "Point", "coordinates": [-73.13197999999996, -40.58050900000002]}, "properties": {"CUT_REG": "10", "CUT_PROV": "103", "CUT_COM": "10301", "REGION": "Los Lagos", "PROVINCIA": "Osorno", "COMUNA": "Osorno", "variable": "Servicios de Salud", "Nombres": "Servicio de Salud Osorno - Unidad de Memoria AYEKAN", "POINT_X": -73.13198, "POINT_Y": -40.580509}}, {"type": "Feature", "geometry": {"type": "Point", "coordinates": [-73.12284399999997, -40.58022599999997]}, "properties": {"CUT_REG": "10", "CUT_PROV": "103", "CUT_COM": "10301", "REGION": "Los Lagos", "PROVINCIA": "Osorno", "COMUNA": "Osorno", "variable": "Servicios de Salud", "Nombres": "Servicio de Salud Osorno - Comunidad Terap\u00e9utica Peulla Ambulatoria", "POINT_X": -73.122844, "POINT_Y": -40.580226}}, {"type": "Feature", "geometry": {"type": "Point", "coordinates": [-73.133478, -40.58007999999997]}, "properties": {"CUT_REG": "10", "CUT_PROV": "103", "CUT_COM": "10301", "REGION": "Los Lagos", "PROVINCIA": "Osorno", "COMUNA": "Osorno", "variable": "Servicios de Salud", "Nombres": "Servicio de Salud Osorno - Comunidad Terap\u00e9utica Peulla Residencial", "POINT_X": -73.133478, "POINT_Y": -40.58008}}, {"type": "Feature", "geometry": {"type": "Point", "coordinates": [-73.12657299999995, -40.578964]}, "properties": {"CUT_REG": "10", "CUT_PROV": "103", "CUT_COM": "10301", "REGION": "Los Lagos", "PROVINCIA": "Osorno", "COMUNA": "Osorno", "variable": "Servicios de Salud", "Nombres": "SEREMI De Los Lagos - Policl\u00ednico Centro de Cumplimiento Penitenciario de Osorno", "POINT_X": -73.126573, "POINT_Y": -40.578964}}, {"type": "Feature", "geometry": {"type": "Point", "coordinates": [-73.13521700000001, -40.57751200000003]}, "properties": {"CUT_REG": "10", "CUT_PROV": "103", "CUT_COM": "10301", "REGION": "Los Lagos", "PROVINCIA": "Osorno", "COMUNA": "Osorno", "variable": "Servicios de Salud", "Nombres": "SEREMI De Los Lagos - Consulta Dental La Araucana Salud Osorno", "POINT_X": -73.135217, "POINT_Y": -40.577512}}, {"type": "Feature", "geometry": {"type": "Point", "coordinates": [-73.12955599999995, -40.57598399999999]}, "properties": {"CUT_REG": "10", "CUT_PROV": "103", "CUT_COM": "10301", "REGION": "Los Lagos", "PROVINCIA": "Osorno", "COMUNA": "Osorno", "variable": "Servicios de Salud", "Nombres": "Servicio de Salud Osorno - PRAIS (S.S Osorno)", "POINT_X": -73.129556, "POINT_Y": -40.575984}}, {"type": "Feature", "geometry": {"type": "Point", "coordinates": [-73.12821899999999, -40.575801000000034]}, "properties": {"CUT_REG": "10", "CUT_PROV": "103", "CUT_COM": "10301", "REGION": "Los Lagos", "PROVINCIA": "Osorno", "COMUNA": "Osorno", "variable": "Servicios de Salud", "Nombres": "SEREMI De Los Lagos - Centro M\u00e9dico Osorno Salud", "POINT_X": -73.128219, "POINT_Y": -40.575801}}, {"type": "Feature", "geometry": {"type": "Point", "coordinates": [-73.13668900000002, -40.575616999999994]}, "properties": {"CUT_REG": "10", "CUT_PROV": "103", "CUT_COM": "10301", "REGION": "Los Lagos", "PROVINCIA": "Osorno", "COMUNA": "Osorno", "variable": "Servicios de Salud", "Nombres": "SEREMI De Los Lagos - Megasalud S.A. Centro M\u00e9dico y Dental Osorno", "POINT_X": -73.136689, "POINT_Y": -40.575617}}, {"type": "Feature", "geometry": {"type": "Point", "coordinates": [-73.138185, -40.574063000000024]}, "properties": {"CUT_REG": "10", "CUT_PROV": "103", "CUT_COM": "10301", "REGION": "Los Lagos", "PROVINCIA": "Osorno", "COMUNA": "Osorno", "variable": "Servicios de Salud", "Nombres": "SEREMI De Los Lagos - Laboratorio Luis Pasteur", "POINT_X": -73.138185, "POINT_Y": -40.574063}}, {"type": "Feature", "geometry": {"type": "Point", "coordinates": [-73.15365400000005, -40.57371799999999]}, "properties": {"CUT_REG": "10", "CUT_PROV": "103", "CUT_COM": "10301", "REGION": "Los Lagos", "PROVINCIA": "Osorno", "COMUNA": "Osorno", "variable": "Servicios de Salud", "Nombres": "Servicio de Salud Osorno - COSAM Rahue", "POINT_X": -73.153654, "POINT_Y": -40.573718}}, {"type": "Feature", "geometry": {"type": "Point", "coordinates": [-73.13339299999998, -40.57371000000004]}, "properties": {"CUT_REG": "10", "CUT_PROV": "103", "CUT_COM": "10301", "REGION": "Los Lagos", "PROVINCIA": "Osorno", "COMUNA": "Osorno", "variable": "Servicios de Salud", "Nombres": "SEREMI De Los Lagos - Centro Odontol\u00f3gico Uno Dental Osorno", "POINT_X": -73.133393, "POINT_Y": -40.57371}}, {"type": "Feature", "geometry": {"type": "Point", "coordinates": [-73.15831800000004, -40.57302400000003]}, "properties": {"CUT_REG": "10", "CUT_PROV": "103", "CUT_COM": "10301", "REGION": "Los Lagos", "PROVINCIA": "Osorno", "COMUNA": "Osorno", "variable": "Servicios de Salud", "Nombres": "Servicio de Salud Osorno - Centro de Salud Familiar Dr. Pedro J\u00e1uregui", "POINT_X": -73.158318, "POINT_Y": -40.573024}}, {"type": "Feature", "geometry": {"type": "Point", "coordinates": [-73.15808999999999, -40.57286200000004]}, "properties": {"CUT_REG": "10", "CUT_PROV": "103", "CUT_COM": "10301", "REGION": "Los Lagos", "PROVINCIA": "Osorno", "COMUNA": "Osorno", "variable": "Servicios de Salud", "Nombres": "Servicio de Salud Osorno - SAPU Dr. Pedro J\u00e1uregui", "POINT_X": -73.15809, "POINT_Y": -40.572862}}, {"type": "Feature", "geometry": {"type": "Point", "coordinates": [-73.12491599999998, -40.57214499999996]}, "properties": {"CUT_REG": "10", "CUT_PROV": "103", "CUT_COM": "10301", "REGION": "Los Lagos", "PROVINCIA": "Osorno", "COMUNA": "Osorno", "variable": "Servicios de Salud", "Nombres": "Servicio de Salud Osorno - Centro de Salud Familiar Dr. Marcelo Lopetegui Adams", "POINT_X": -73.124916, "POINT_Y": -40.572145}}, {"type": "Feature", "geometry": {"type": "Point", "coordinates": [-73.12517500000001, -40.57213500000002]}, "properties": {"CUT_REG": "10", "CUT_PROV": "103", "CUT_COM": "10301", "REGION": "Los Lagos", "PROVINCIA": "Osorno", "COMUNA": "Osorno", "variable": "Servicios de Salud", "Nombres": "Servicio de Salud Osorno - SAPU Dr. Marcelo Lopetegui Adams", "POINT_X": -73.125175, "POINT_Y": -40.572135}}, {"type": "Feature", "geometry": {"type": "Point", "coordinates": [-73.13674800000003, -40.571988000000026]}, "properties": {"CUT_REG": "10", "CUT_PROV": "103", "CUT_COM": "10301", "REGION": "Los Lagos", "PROVINCIA": "Osorno", "COMUNA": "Osorno", "variable": "Servicios de Salud", "Nombres": "SEREMI De Los Lagos - Laboratorio CENDIMET", "POINT_X": -73.136748, "POINT_Y": -40.571988}}, {"type": "Feature", "geometry": {"type": "Point", "coordinates": [-73.124373, -40.571778999999964]}, "properties": {"CUT_REG": "10", "CUT_PROV": "103", "CUT_COM": "10301", "REGION": "Los Lagos", "PROVINCIA": "Osorno", "COMUNA": "Osorno", "variable": "Servicios de Salud", "Nombres": "No Aplica - Servicio M\u00e9dico Legal Osorno", "POINT_X": -73.124373, "POINT_Y": -40.571779}}, {"type": "Feature", "geometry": {"type": "Point", "coordinates": [-73.12319800000003, -40.571078999999955]}, "properties": {"CUT_REG": "10", "CUT_PROV": "103", "CUT_COM": "10301", "REGION": "Los Lagos", "PROVINCIA": "Osorno", "COMUNA": "Osorno", "variable": "Servicios de Salud", "Nombres": "SEREMI De Los Lagos - Centro de Di\u00e1lisis Hemosur (Osorno)", "POINT_X": -73.123198, "POINT_Y": -40.571079}}, {"type": "Feature", "geometry": {"type": "Point", "coordinates": [-73.13576800000003, -40.571021000000044]}, "properties": {"CUT_REG": "10", "CUT_PROV": "103", "CUT_COM": "10301", "REGION": "Los Lagos", "PROVINCIA": "Osorno", "COMUNA": "Osorno", "variable": "Servicios de Salud", "Nombres": "Servicio de Salud Osorno - Actividades gestionadas por la Direcci\u00f3n del Servicio para apoyo de la Red (S.S de Osorno)", "POINT_X": -73.135768, "POINT_Y": -40.571021}}, {"type": "Feature", "geometry": {"type": "Point", "coordinates": [-73.13576800000003, -40.571021000000044]}, "properties": {"CUT_REG": "10", "CUT_PROV": "103", "CUT_COM": "10301", "REGION": "Los Lagos", "PROVINCIA": "Osorno", "COMUNA": "Osorno", "variable": "Servicios de Salud", "Nombres": "Servicio de Salud Osorno - Cl\u00ednica Dental M\u00f3vil Triple. Pat. BKYZ91 (Osorno)", "POINT_X": -73.135768, "POINT_Y": -40.571021}}, {"type": "Feature", "geometry": {"type": "Point", "coordinates": [-73.13378100000003, -40.570853]}, "properties": {"CUT_REG": "10", "CUT_PROV": "103", "CUT_COM": "10301", "REGION": "Los Lagos", "PROVINCIA": "Osorno", "COMUNA": "Osorno", "variable": "Servicios de Salud", "Nombres": "SEREMI De Los Lagos - Vacunatorio Sociedad Centro M\u00e9dico Cochrane SA", "POINT_X": -73.133781, "POINT_Y": -40.570853}}, {"type": "Feature", "geometry": {"type": "Point", "coordinates": [-73.13369099999994, -40.57084600000004]}, "properties": {"CUT_REG": "10", "CUT_PROV": "103", "CUT_COM": "10301", "REGION": "Los Lagos", "PROVINCIA": "Osorno", "COMUNA": "Osorno", "variable": "Servicios de Salud", "Nombres": "SEREMI De Los Lagos - Centro M\u00e9dico y Laboratorio Cochrane", "POINT_X": -73.133691, "POINT_Y": -40.570846}}, {"type": "Feature", "geometry": {"type": "Point", "coordinates": [-73.12521700000002, -40.57067400000002]}, "properties": {"CUT_REG": "10", "CUT_PROV": "103", "CUT_COM": "10301", "REGION": "Los Lagos", "PROVINCIA": "Osorno", "COMUNA": "Osorno", "variable": "Servicios de Salud", "Nombres": "Servicio de Salud Osorno - COSAM Oriente", "POINT_X": -73.125217, "POINT_Y": -40.570674}}, {"type": "Feature", "geometry": {"type": "Point", "coordinates": [-73.14652400000003, -40.56908699999998]}, "properties": {"CUT_REG": "10", "CUT_PROV": "103", "CUT_COM": "10301", "REGION": "Los Lagos", "PROVINCIA": "Osorno", "COMUNA": "Osorno", "variable": "Servicios de Salud", "Nombres": "SEREMI De Los Lagos - Centro de Di\u00e1lisis y Especialidades M\u00e9dicas Puerto Varas", "POINT_X": -73.146524, "POINT_Y": -40.569087}}, {"type": "Feature", "geometry": {"type": "Point", "coordinates": [-73.17099300000001, -40.56792400000003]}, "properties": {"CUT_REG": "10", "CUT_PROV": "103", "CUT_COM": "10301", "REGION": "Los Lagos", "PROVINCIA": "Osorno", "COMUNA": "Osorno", "variable": "Servicios de Salud", "Nombres": "Servicio de Salud Osorno - Centro de Salud Familiar Quinto Centenario", "POINT_X": -73.170993, "POINT_Y": -40.567924}}, {"type": "Feature", "geometry": {"type": "Point", "coordinates": [-73.15344299999998, -40.563779999999994]}, "properties": {"CUT_REG": "10", "CUT_PROV": "103", "CUT_COM": "10301", "REGION": "Los Lagos", "PROVINCIA": "Osorno", "COMUNA": "Osorno", "variable": "Servicios de Salud", "Nombres": "Servicio de Salud Osorno - Centro de Salud Familiar Pampa Alegre", "POINT_X": -73.153443, "POINT_Y": -40.56378}}, {"type": "Feature", "geometry": {"type": "Point", "coordinates": [-73.42655999999997, -40.55743799999999]}, "properties": {"CUT_REG": "10", "CUT_PROV": "103", "CUT_COM": "10306", "REGION": "Los Lagos", "PROVINCIA": "Osorno", "COMUNA": "San Juan de la Costa", "variable": "Servicios de Salud", "Nombres": "Servicio de Salud Osorno - Posta de Salud Rural Purrehu\u00edn", "POINT_X": -73.42656, "POINT_Y": -40.557438}}, {"type": "Feature", "geometry": {"type": "Point", "coordinates": [-72.89322399999998, -40.519360000000034]}, "properties": {"CUT_REG": "10", "CUT_PROV": "103", "CUT_COM": "10307", "REGION": "Los Lagos", "PROVINCIA": "Osorno", "COMUNA": "San Pablo", "variable": "Servicios de Salud", "Nombres": "Servicio de Salud Osorno - Posta de Salud Rural La Poza", "POINT_X": -72.893224, "POINT_Y": -40.51936}}, {"type": "Feature", "geometry": {"type": "Point", "coordinates": [-73.51801499999996, -40.49022400000001]}, "properties": {"CUT_REG": "10", "CUT_PROV": "103", "CUT_COM": "10306", "REGION": "Los Lagos", "PROVINCIA": "Osorno", "COMUNA": "San Juan de la Costa", "variable": "Servicios de Salud", "Nombres": "Servicio de Salud Osorno - Posta de Salud Rural Aleucapi", "POINT_X": -73.518015, "POINT_Y": -40.490224}}, {"type": "Feature", "geometry": {"type": "Point", "coordinates": [-73.405041, -40.48795500000003]}, "properties": {"CUT_REG": "10", "CUT_PROV": "103", "CUT_COM": "10306", "REGION": "Los Lagos", "PROVINCIA": "Osorno", "COMUNA": "San Juan de la Costa", "variable": "Servicios de Salud", "Nombres": "Servicio de Salud Osorno - Hospital Futa Sruka Lawenche Kunko Mapu Mo", "POINT_X": -73.405041, "POINT_Y": -40.487955}}, {"type": "Feature", "geometry": {"type": "Point", "coordinates": [-73.34150199999998, -40.460699000000034]}, "properties": {"CUT_REG": "10", "CUT_PROV": "103", "CUT_COM": "10306", "REGION": "Los Lagos", "PROVINCIA": "Osorno", "COMUNA": "San Juan de la Costa", "variable": "Servicios de Salud", "Nombres": "Servicio de Salud Osorno - Posta de Salud Rural Chamilco", "POINT_X": -73.341502, "POINT_Y": -40.460699}}, {"type": "Feature", "geometry": {"type": "Point", "coordinates": [-73.32811599999997, -40.421813000000014]}, "properties": {"CUT_REG": "10", "CUT_PROV": "103", "CUT_COM": "10307", "REGION": "Los Lagos", "PROVINCIA": "Osorno", "COMUNA": "San Pablo", "variable": "Servicios de Salud", "Nombres": "Servicio de Salud Osorno - Posta de Salud Rural Chanco ( San Pablo )", "POINT_X": -73.328116, "POINT_Y": -40.421813}}, {"type": "Feature", "geometry": {"type": "Point", "coordinates": [-73.00775230000002, -40.40661740600004]}, "properties": {"CUT_REG": "10", "CUT_PROV": "103", "CUT_COM": "10307", "REGION": "Los Lagos", "PROVINCIA": "Osorno", "COMUNA": "San Pablo", "variable": "Servicios de Salud", "Nombres": "Servicio de Salud Osorno - SUR San Pablo", "POINT_X": -73.0077523, "POINT_Y": -40.406617406}}, {"type": "Feature", "geometry": {"type": "Point", "coordinates": [-73.00791000000001, -40.40655700000001]}, "properties": {"CUT_REG": "10", "CUT_PROV": "103", "CUT_COM": "10307", "REGION": "Los Lagos", "PROVINCIA": "Osorno", "COMUNA": "San Pablo", "variable": "Servicios de Salud", "Nombres": "Servicio de Salud Osorno - Centro de Salud Familiar San Pablo", "POINT_X": -73.00791, "POINT_Y": -40.406557}}, {"type": "Feature", "geometry": {"type": "Point", "coordinates": [-73.43426500000002, -40.390614]}, "properties": {"CUT_REG": "10", "CUT_PROV": "103", "CUT_COM": "10307", "REGION": "Los Lagos", "PROVINCIA": "Osorno", "COMUNA": "San Pablo", "variable": "Servicios de Salud", "Nombres": "Servicio de Salud Osorno - Posta de Salud Rural Pucopio", "POINT_X": -73.434265, "POINT_Y": -40.390614}}, {"type": "Feature", "geometry": {"type": "Point", "coordinates": [-73.26150900000003, -40.36766099999997]}, "properties": {"CUT_REG": "10", "CUT_PROV": "103", "CUT_COM": "10307", "REGION": "Los Lagos", "PROVINCIA": "Osorno", "COMUNA": "San Pablo", "variable": "Servicios de Salud", "Nombres": "Servicio de Salud Osorno - Hospital Pu Mulen Quilacahu\u00edn", "POINT_X": -73.261509, "POINT_Y": -40.367661}}, {"type": "Feature", "geometry": {"type": "Point", "coordinates": [-73.43201600000002, -40.315641000000014]}, "properties": {"CUT_REG": "10", "CUT_PROV": "103", "CUT_COM": "10307", "REGION": "Los Lagos", "PROVINCIA": "Osorno", "COMUNA": "San Pablo", "variable": "Servicios de Salud", "Nombres": "Servicio de Salud Osorno - Posta de Salud Rural Currim\u00e1huida", "POINT_X": -73.432016, "POINT_Y": -40.315641}}]}