{"type": "FeatureCollection", "features": [{"type": "Feature", "geometry": {"type": "Point", "coordinates": [-72.48832099999997, -51.738352]}, "properties": {"CUT_REG": "12", "CUT_PROV": "124", "CUT_COM": "12401", "REGION": "Magallanes y de la Ant\u00e1rtica Chilena", "PROVINCIA": "\u00daltima Esperanza", "COMUNA": "Natales", "variable": "Servicios de Salud", "Nombres": "No Aplica - Servicio M\u00e9dico Legal Puerto Natales", "POINT_X": -72.488321, "POINT_Y": -51.738352}}, {"type": "Feature", "geometry": {"type": "Point", "coordinates": [-72.49953800000002, -51.73151499999999]}, "properties": {"CUT_REG": "12", "CUT_PROV": "124", "CUT_COM": "12401", "REGION": "Magallanes y de la Ant\u00e1rtica Chilena", "PROVINCIA": "\u00daltima Esperanza", "COMUNA": "Natales", "variable": "Servicios de Salud", "Nombres": "SEREMI De Magallanes y la Ant\u00e1rtica Chilena - Laboratorio Cl\u00ednico Biohealth", "POINT_X": -72.499538, "POINT_Y": -51.731515}}, {"type": "Feature", "geometry": {"type": "Point", "coordinates": [-72.50604599999998, -51.73032700000001]}, "properties": {"CUT_REG": "12", "CUT_PROV": "124", "CUT_COM": "12401", "REGION": "Magallanes y de la Ant\u00e1rtica Chilena", "PROVINCIA": "\u00daltima Esperanza", "COMUNA": "Natales", "variable": "Servicios de Salud", "Nombres": "Servicio de Salud Magallanes - Hospital Dr. Augusto Essmann Burgos ( Natales)", "POINT_X": -72.506046, "POINT_Y": -51.730327}}, {"type": "Feature", "geometry": {"type": "Point", "coordinates": [-72.48268400000003, -51.728350000000034]}, "properties": {"CUT_REG": "12", "CUT_PROV": "124", "CUT_COM": "12401", "REGION": "Magallanes y de la Ant\u00e1rtica Chilena", "PROVINCIA": "\u00daltima Esperanza", "COMUNA": "Natales", "variable": "Servicios de Salud", "Nombres": "Servicio de Salud Magallanes - Centro de Salud Familiar Natales", "POINT_X": -72.482684, "POINT_Y": -51.72835}}, {"type": "Feature", "geometry": {"type": "Point", "coordinates": [-72.50152199999994, -51.72616100000002]}, "properties": {"CUT_REG": "12", "CUT_PROV": "124", "CUT_COM": "12401", "REGION": "Magallanes y de la Ant\u00e1rtica Chilena", "PROVINCIA": "\u00daltima Esperanza", "COMUNA": "Natales", "variable": "Servicios de Salud", "Nombres": "SEREMI De Magallanes y la Ant\u00e1rtica Chilena - Policl\u00ednico de Asociaci\u00f3n Chilena de Seguridad", "POINT_X": -72.501522, "POINT_Y": -51.726161}}, {"type": "Feature", "geometry": {"type": "Point", "coordinates": [-72.50769100000002, -51.72538200000004]}, "properties": {"CUT_REG": "12", "CUT_PROV": "124", "CUT_COM": "12401", "REGION": "Magallanes y de la Ant\u00e1rtica Chilena", "PROVINCIA": "\u00daltima Esperanza", "COMUNA": "Natales", "variable": "Servicios de Salud", "Nombres": "SEREMI De Magallanes y la Ant\u00e1rtica Chilena - Laboratorio Cl\u00ednico Austral", "POINT_X": -72.507691, "POINT_Y": -51.725382}}, {"type": "Feature", "geometry": {"type": "Point", "coordinates": [-72.332383, -51.60621099999999]}, "properties": {"CUT_REG": "12", "CUT_PROV": "124", "CUT_COM": "12401", "REGION": "Magallanes y de la Ant\u00e1rtica Chilena", "PROVINCIA": "\u00daltima Esperanza", "COMUNA": "Natales", "variable": "Servicios de Salud", "Nombres": "Servicio de Salud Magallanes - Posta de Salud Rural Dorotea", "POINT_X": -72.332383, "POINT_Y": -51.606211}}, {"type": "Feature", "geometry": {"type": "Point", "coordinates": [-72.33308799999998, -51.60469900000003]}, "properties": {"CUT_REG": "12", "CUT_PROV": "124", "CUT_COM": "12401", "REGION": "Magallanes y de la Ant\u00e1rtica Chilena", "PROVINCIA": "\u00daltima Esperanza", "COMUNA": "Natales", "variable": "Servicios de Salud", "Nombres": "SEREMI De Magallanes y la Ant\u00e1rtica Chilena - Oficina Sanitaria Dorotea", "POINT_X": -72.333088, "POINT_Y": -51.604699}}, {"type": "Feature", "geometry": {"type": "Point", "coordinates": [-72.34362399999998, -51.255380999999986]}, "properties": {"CUT_REG": "12", "CUT_PROV": "124", "CUT_COM": "12402", "REGION": "Magallanes y de la Ant\u00e1rtica Chilena", "PROVINCIA": "\u00daltima Esperanza", "COMUNA": "Torres del Paine", "variable": "Servicios de Salud", "Nombres": "Servicio de Salud Magallanes - Posta de Salud Rural Cerro Castillo (Torres del Paine)", "POINT_X": -72.343624, "POINT_Y": -51.255381}}, {"type": "Feature", "geometry": {"type": "Point", "coordinates": [-74.41270600000001, -49.12548499999997]}, "properties": {"CUT_REG": "12", "CUT_PROV": "124", "CUT_COM": "12401", "REGION": "Magallanes y de la Ant\u00e1rtica Chilena", "PROVINCIA": "\u00daltima Esperanza", "COMUNA": "Natales", "variable": "Servicios de Salud", "Nombres": "Servicio de Salud Magallanes - Posta de Salud Rural Puerto Ed\u00e9n", "POINT_X": -74.412706, "POINT_Y": -49.125485}}]}