{"type": "FeatureCollection", "features": [{"type": "Feature", "geometry": {"type": "Point", "coordinates": [-69.49439599999997, -18.581704999999964]}, "properties": {"CUT_REG": "15", "CUT_PROV": "152", "CUT_COM": "15201", "REGION": "Arica y Parinacota", "PROVINCIA": "Parinacota", "COMUNA": "Putre", "variable": "Servicios de Salud", "Nombres": "Servicio de Salud Arica - Posta de Salud Rural Ticnamar", "POINT_X": -69.494396, "POINT_Y": -18.581705}}, {"type": "Feature", "geometry": {"type": "Point", "coordinates": [-69.51474099999996, -18.468097000000036]}, "properties": {"CUT_REG": "15", "CUT_PROV": "152", "CUT_COM": "15201", "REGION": "Arica y Parinacota", "PROVINCIA": "Parinacota", "COMUNA": "Putre", "variable": "Servicios de Salud", "Nombres": "Servicio de Salud Arica - Posta de Salud Rural Bel\u00e9n (Putre)", "POINT_X": -69.514741, "POINT_Y": -18.468097}}, {"type": "Feature", "geometry": {"type": "Point", "coordinates": [-69.55734099999997, -18.19761199999997]}, "properties": {"CUT_REG": "15", "CUT_PROV": "152", "CUT_COM": "15201", "REGION": "Arica y Parinacota", "PROVINCIA": "Parinacota", "COMUNA": "Putre", "variable": "Servicios de Salud", "Nombres": "Servicio de Salud Arica - Centro de Salud Familiar Putre", "POINT_X": -69.557341, "POINT_Y": -18.197612}}, {"type": "Feature", "geometry": {"type": "Point", "coordinates": [-69.55738399999997, -18.197592]}, "properties": {"CUT_REG": "15", "CUT_PROV": "152", "CUT_COM": "15201", "REGION": "Arica y Parinacota", "PROVINCIA": "Parinacota", "COMUNA": "Putre", "variable": "Servicios de Salud", "Nombres": "Servicio de Salud Arica - SUR Putre", "POINT_X": -69.557384, "POINT_Y": -18.197592}}, {"type": "Feature", "geometry": {"type": "Point", "coordinates": [-69.48046899999997, -17.594867000000022]}, "properties": {"CUT_REG": "15", "CUT_PROV": "152", "CUT_COM": "15202", "REGION": "Arica y Parinacota", "PROVINCIA": "Parinacota", "COMUNA": "General Lagos", "variable": "Servicios de Salud", "Nombres": "Servicio de Salud Arica - Posta de Salud Rural Visviri", "POINT_X": -69.480469, "POINT_Y": -17.594867}}]}