{"type": "FeatureCollection", "features": [{"type": "Feature", "geometry": {"type": "Point", "coordinates": [-72.96547499999998, -37.383917999999994]}, "properties": {"CUT_REG": "08", "CUT_PROV": "081", "CUT_COM": "08109", "REGION": "Biob\u00edo", "PROVINCIA": "Concepci\u00f3n", "COMUNA": "Santa Juana", "variable": "Servicios de Salud", "Nombres": "Servicio de Salud Concepci\u00f3n - Posta de Salud Rural La Generala", "POINT_X": -72.965475, "POINT_Y": -37.383918}}, {"type": "Feature", "geometry": {"type": "Point", "coordinates": [-72.92274699999996, -37.31715099999996]}, "properties": {"CUT_REG": "08", "CUT_PROV": "081", "CUT_COM": "08109", "REGION": "Biob\u00edo", "PROVINCIA": "Concepci\u00f3n", "COMUNA": "Santa Juana", "variable": "Servicios de Salud", "Nombres": "Servicio de Salud Concepci\u00f3n - Posta de Salud Rural Chacay (Santa Juana)", "POINT_X": -72.922747, "POINT_Y": -37.317151}}, {"type": "Feature", "geometry": {"type": "Point", "coordinates": [-72.80882599999998, -37.28416299999998]}, "properties": {"CUT_REG": "08", "CUT_PROV": "081", "CUT_COM": "08109", "REGION": "Biob\u00edo", "PROVINCIA": "Concepci\u00f3n", "COMUNA": "Santa Juana", "variable": "Servicios de Salud", "Nombres": "Servicio de Salud Concepci\u00f3n - Posta de Salud Rural Torre Dorada", "POINT_X": -72.808826, "POINT_Y": -37.284163}}, {"type": "Feature", "geometry": {"type": "Point", "coordinates": [-72.95624099999998, -37.28113699999999]}, "properties": {"CUT_REG": "08", "CUT_PROV": "081", "CUT_COM": "08109", "REGION": "Biob\u00edo", "PROVINCIA": "Concepci\u00f3n", "COMUNA": "Santa Juana", "variable": "Servicios de Salud", "Nombres": "Servicio de Salud Concepci\u00f3n - Posta de Salud Rural Purgatorio", "POINT_X": -72.956241, "POINT_Y": -37.281137}}, {"type": "Feature", "geometry": {"type": "Point", "coordinates": [-72.87325200000004, -37.27616400000001]}, "properties": {"CUT_REG": "08", "CUT_PROV": "081", "CUT_COM": "08109", "REGION": "Biob\u00edo", "PROVINCIA": "Concepci\u00f3n", "COMUNA": "Santa Juana", "variable": "Servicios de Salud", "Nombres": "Servicio de Salud Concepci\u00f3n - Posta de Salud Rural Colico Alto", "POINT_X": -72.873252, "POINT_Y": -37.276164}}, {"type": "Feature", "geometry": {"type": "Point", "coordinates": [-72.81411299999999, -37.244730999999994]}, "properties": {"CUT_REG": "08", "CUT_PROV": "081", "CUT_COM": "08109", "REGION": "Biob\u00edo", "PROVINCIA": "Concepci\u00f3n", "COMUNA": "Santa Juana", "variable": "Servicios de Salud", "Nombres": "Servicio de Salud Concepci\u00f3n - Posta de Salud Rural Tanahuill\u00edn", "POINT_X": -72.814113, "POINT_Y": -37.244731}}, {"type": "Feature", "geometry": {"type": "Point", "coordinates": [-72.94616999999998, -37.16831100000001]}, "properties": {"CUT_REG": "08", "CUT_PROV": "081", "CUT_COM": "08109", "REGION": "Biob\u00edo", "PROVINCIA": "Concepci\u00f3n", "COMUNA": "Santa Juana", "variable": "Servicios de Salud", "Nombres": "Servicio de Salud Concepci\u00f3n - Hospital Clorinda Avello (Santa Juana)", "POINT_X": -72.94617, "POINT_Y": -37.168311}}, {"type": "Feature", "geometry": {"type": "Point", "coordinates": [-72.912248, -37.16183200000004]}, "properties": {"CUT_REG": "08", "CUT_PROV": "081", "CUT_COM": "08105", "REGION": "Biob\u00edo", "PROVINCIA": "Concepci\u00f3n", "COMUNA": "Hualqui", "variable": "Servicios de Salud", "Nombres": "Servicio de Salud Concepci\u00f3n - Posta de Salud Rural Talcam\u00e1vida", "POINT_X": -72.912248, "POINT_Y": -37.161832}}, {"type": "Feature", "geometry": {"type": "Point", "coordinates": [-73.14658899999999, -37.112398999999996]}, "properties": {"CUT_REG": "08", "CUT_PROV": "081", "CUT_COM": "08106", "REGION": "Biob\u00edo", "PROVINCIA": "Concepci\u00f3n", "COMUNA": "Lota", "variable": "Servicios de Salud", "Nombres": "Servicio de Salud Concepci\u00f3n - Centro Comunitario de Salud Familiar Colcura", "POINT_X": -73.146589, "POINT_Y": -37.112399}}, {"type": "Feature", "geometry": {"type": "Point", "coordinates": [-73.15790900000002, -37.09532700000001]}, "properties": {"CUT_REG": "08", "CUT_PROV": "081", "CUT_COM": "08106", "REGION": "Biob\u00edo", "PROVINCIA": "Concepci\u00f3n", "COMUNA": "Lota", "variable": "Servicios de Salud", "Nombres": "Servicio de Salud Concepci\u00f3n - Centro de Salud Familiar Dr. Sergio Lagos Olave (ex N\u00ba 4 Lota Bajo)", "POINT_X": -73.157909, "POINT_Y": -37.095327}}, {"type": "Feature", "geometry": {"type": "Point", "coordinates": [-73.15553499999999, -37.090189999999964]}, "properties": {"CUT_REG": "08", "CUT_PROV": "081", "CUT_COM": "08106", "REGION": "Biob\u00edo", "PROVINCIA": "Concepci\u00f3n", "COMUNA": "Lota", "variable": "Servicios de Salud", "Nombres": "Servicio de Salud Concepci\u00f3n - Hospital de Lota", "POINT_X": -73.155535, "POINT_Y": -37.09019}}, {"type": "Feature", "geometry": {"type": "Point", "coordinates": [-73.16229899999999, -37.089621999999956]}, "properties": {"CUT_REG": "08", "CUT_PROV": "081", "CUT_COM": "08106", "REGION": "Biob\u00edo", "PROVINCIA": "Concepci\u00f3n", "COMUNA": "Lota", "variable": "Servicios de Salud", "Nombres": "Servicio de Salud Concepci\u00f3n - COSAM Comunitaria Lota", "POINT_X": -73.162299, "POINT_Y": -37.089622}}, {"type": "Feature", "geometry": {"type": "Point", "coordinates": [-73.16240299999998, -37.08565200000001]}, "properties": {"CUT_REG": "08", "CUT_PROV": "081", "CUT_COM": "08106", "REGION": "Biob\u00edo", "PROVINCIA": "Concepci\u00f3n", "COMUNA": "Lota", "variable": "Servicios de Salud", "Nombres": "SEREMI Del Biob\u00edo - Cl\u00ednica de Di\u00e1lisis Diasermed", "POINT_X": -73.162403, "POINT_Y": -37.085652}}, {"type": "Feature", "geometry": {"type": "Point", "coordinates": [-73.15748500000004, -37.08063299999996]}, "properties": {"CUT_REG": "08", "CUT_PROV": "081", "CUT_COM": "08106", "REGION": "Biob\u00edo", "PROVINCIA": "Concepci\u00f3n", "COMUNA": "Lota", "variable": "Servicios de Salud", "Nombres": "Servicio de Salud Concepci\u00f3n - SAPU Dr. Juan Cartes Arias", "POINT_X": -73.157485, "POINT_Y": -37.080633}}, {"type": "Feature", "geometry": {"type": "Point", "coordinates": [-73.15727399999997, -37.08058000000002]}, "properties": {"CUT_REG": "08", "CUT_PROV": "081", "CUT_COM": "08106", "REGION": "Biob\u00edo", "PROVINCIA": "Concepci\u00f3n", "COMUNA": "Lota", "variable": "Servicios de Salud", "Nombres": "Servicio de Salud Concepci\u00f3n - Centro de Salud Familiar Dr. Juan Cartes Arias", "POINT_X": -73.157274, "POINT_Y": -37.08058}}, {"type": "Feature", "geometry": {"type": "Point", "coordinates": [-72.96014499999995, -37.057664000000024]}, "properties": {"CUT_REG": "08", "CUT_PROV": "081", "CUT_COM": "08105", "REGION": "Biob\u00edo", "PROVINCIA": "Concepci\u00f3n", "COMUNA": "Hualqui", "variable": "Servicios de Salud", "Nombres": "Servicio de Salud Concepci\u00f3n - Posta de Salud Rural Quilacoya", "POINT_X": -72.960145, "POINT_Y": -37.057664}}, {"type": "Feature", "geometry": {"type": "Point", "coordinates": [-73.51252600000001, -37.04335199999996]}, "properties": {"CUT_REG": "08", "CUT_PROV": "081", "CUT_COM": "08102", "REGION": "Biob\u00edo", "PROVINCIA": "Concepci\u00f3n", "COMUNA": "Coronel", "variable": "Servicios de Salud", "Nombres": "Servicio de Salud Concepci\u00f3n - Centro Comunitario de Salud Familiar Puerto Sur Isla Sta. Mar\u00eda", "POINT_X": -73.512526, "POINT_Y": -37.043352}}, {"type": "Feature", "geometry": {"type": "Point", "coordinates": [-73.144556, -37.028515999999975]}, "properties": {"CUT_REG": "08", "CUT_PROV": "081", "CUT_COM": "08102", "REGION": "Biob\u00edo", "PROVINCIA": "Concepci\u00f3n", "COMUNA": "Coronel", "variable": "Servicios de Salud", "Nombres": "SEREMI Del Biob\u00edo - Centro Vacunatorio Coronel", "POINT_X": -73.144556, "POINT_Y": -37.028516}}, {"type": "Feature", "geometry": {"type": "Point", "coordinates": [-73.135861, -37.028241999999956]}, "properties": {"CUT_REG": "08", "CUT_PROV": "081", "CUT_COM": "08102", "REGION": "Biob\u00edo", "PROVINCIA": "Concepci\u00f3n", "COMUNA": "Coronel", "variable": "Servicios de Salud", "Nombres": "Servicio de Salud Concepci\u00f3n - Hospital San Jos\u00e9 (Coronel)", "POINT_X": -73.135861, "POINT_Y": -37.028242}}, {"type": "Feature", "geometry": {"type": "Point", "coordinates": [-73.146267, -37.02800900000004]}, "properties": {"CUT_REG": "08", "CUT_PROV": "081", "CUT_COM": "08102", "REGION": "Biob\u00edo", "PROVINCIA": "Concepci\u00f3n", "COMUNA": "Coronel", "variable": "Servicios de Salud", "Nombres": "Servicio de Salud Concepci\u00f3n - COSAM de Coronel", "POINT_X": -73.146267, "POINT_Y": -37.028009}}, {"type": "Feature", "geometry": {"type": "Point", "coordinates": [-73.141574, -37.02785000000003]}, "properties": {"CUT_REG": "08", "CUT_PROV": "081", "CUT_COM": "08102", "REGION": "Biob\u00edo", "PROVINCIA": "Concepci\u00f3n", "COMUNA": "Coronel", "variable": "Servicios de Salud", "Nombres": "SEREMI Del Biob\u00edo - Cl\u00ednica de Atenci\u00f3n Ambulatoria Mutual de Seguridad Coronel", "POINT_X": -73.141574, "POINT_Y": -37.02785}}, {"type": "Feature", "geometry": {"type": "Point", "coordinates": [-73.14868499999994, -37.02603600000004]}, "properties": {"CUT_REG": "08", "CUT_PROV": "081", "CUT_COM": "08102", "REGION": "Biob\u00edo", "PROVINCIA": "Concepci\u00f3n", "COMUNA": "Coronel", "variable": "Servicios de Salud", "Nombres": "SEREMI Del Biob\u00edo - Policl\u00ednico de la Asociaci\u00f3n Chilena de Seguridad Coronel", "POINT_X": -73.148685, "POINT_Y": -37.026036}}, {"type": "Feature", "geometry": {"type": "Point", "coordinates": [-73.15018, -37.01224000000004]}, "properties": {"CUT_REG": "08", "CUT_PROV": "081", "CUT_COM": "08102", "REGION": "Biob\u00edo", "PROVINCIA": "Concepci\u00f3n", "COMUNA": "Coronel", "variable": "Servicios de Salud", "Nombres": "Servicio de Salud Concepci\u00f3n - SAPU Yobilo", "POINT_X": -73.15018, "POINT_Y": -37.01224}}, {"type": "Feature", "geometry": {"type": "Point", "coordinates": [-73.15040499999998, -37.012187000000004]}, "properties": {"CUT_REG": "08", "CUT_PROV": "081", "CUT_COM": "08102", "REGION": "Biob\u00edo", "PROVINCIA": "Concepci\u00f3n", "COMUNA": "Coronel", "variable": "Servicios de Salud", "Nombres": "Servicio de Salud Concepci\u00f3n - Centro de Salud Familiar Yobilo", "POINT_X": -73.150405, "POINT_Y": -37.012187}}, {"type": "Feature", "geometry": {"type": "Point", "coordinates": [-72.998849, -37.009799000000044]}, "properties": {"CUT_REG": "08", "CUT_PROV": "081", "CUT_COM": "08102", "REGION": "Biob\u00edo", "PROVINCIA": "Concepci\u00f3n", "COMUNA": "Coronel", "variable": "Servicios de Salud", "Nombres": "Servicio de Salud Concepci\u00f3n - Posta de Salud Rural Patagual", "POINT_X": -72.998849, "POINT_Y": -37.009799}}, {"type": "Feature", "geometry": {"type": "Point", "coordinates": [-73.16140100000004, -37.000118999999984]}, "properties": {"CUT_REG": "08", "CUT_PROV": "081", "CUT_COM": "08102", "REGION": "Biob\u00edo", "PROVINCIA": "Concepci\u00f3n", "COMUNA": "Coronel", "variable": "Servicios de Salud", "Nombres": "Servicio de Salud Concepci\u00f3n - Centro de Salud Familiar Carlos Pinto Fierro", "POINT_X": -73.161401, "POINT_Y": -37.000119}}, {"type": "Feature", "geometry": {"type": "Point", "coordinates": [-73.16022000000001, -36.989899000000015]}, "properties": {"CUT_REG": "08", "CUT_PROV": "081", "CUT_COM": "08102", "REGION": "Biob\u00edo", "PROVINCIA": "Concepci\u00f3n", "COMUNA": "Coronel", "variable": "Servicios de Salud", "Nombres": "Servicio de Salud Concepci\u00f3n - SAPU Lagunillas", "POINT_X": -73.16022, "POINT_Y": -36.989899}}, {"type": "Feature", "geometry": {"type": "Point", "coordinates": [-73.160135, -36.989776999999954]}, "properties": {"CUT_REG": "08", "CUT_PROV": "081", "CUT_COM": "08102", "REGION": "Biob\u00edo", "PROVINCIA": "Concepci\u00f3n", "COMUNA": "Coronel", "variable": "Servicios de Salud", "Nombres": "Servicio de Salud Concepci\u00f3n - Centro de Salud Familiar Lagunillas", "POINT_X": -73.160135, "POINT_Y": -36.989777}}, {"type": "Feature", "geometry": {"type": "Point", "coordinates": [-73.15897099999997, -36.978591999999985]}, "properties": {"CUT_REG": "08", "CUT_PROV": "081", "CUT_COM": "08102", "REGION": "Biob\u00edo", "PROVINCIA": "Concepci\u00f3n", "COMUNA": "Coronel", "variable": "Servicios de Salud", "Nombres": "Servicio de Salud Concepci\u00f3n - Centro Comunitario de Salud Familiar Lagunillas", "POINT_X": -73.158971, "POINT_Y": -36.978592}}, {"type": "Feature", "geometry": {"type": "Point", "coordinates": [-73.52853599999997, -36.97618800000003]}, "properties": {"CUT_REG": "08", "CUT_PROV": "081", "CUT_COM": "08102", "REGION": "Biob\u00edo", "PROVINCIA": "Concepci\u00f3n", "COMUNA": "Coronel", "variable": "Servicios de Salud", "Nombres": "Servicio de Salud Concepci\u00f3n - Posta de Salud Rural Puerto Norte Isla Sta. Mar\u00eda", "POINT_X": -73.528536, "POINT_Y": -36.976188}}, {"type": "Feature", "geometry": {"type": "Point", "coordinates": [-72.93730800000002, -36.97364900000001]}, "properties": {"CUT_REG": "08", "CUT_PROV": "081", "CUT_COM": "08105", "REGION": "Biob\u00edo", "PROVINCIA": "Concepci\u00f3n", "COMUNA": "Hualqui", "variable": "Servicios de Salud", "Nombres": "Servicio de Salud Concepci\u00f3n - Centro de Salud Familiar Hualqui", "POINT_X": -72.937308, "POINT_Y": -36.973649}}, {"type": "Feature", "geometry": {"type": "Point", "coordinates": [-72.93716599999999, -36.97359699999997]}, "properties": {"CUT_REG": "08", "CUT_PROV": "081", "CUT_COM": "08105", "REGION": "Biob\u00edo", "PROVINCIA": "Concepci\u00f3n", "COMUNA": "Hualqui", "variable": "Servicios de Salud", "Nombres": "Servicio de Salud Concepci\u00f3n - SAPU Hualqui", "POINT_X": -72.937166, "POINT_Y": -36.973597}}, {"type": "Feature", "geometry": {"type": "Point", "coordinates": [-72.92816699999997, -36.96664800000001]}, "properties": {"CUT_REG": "08", "CUT_PROV": "081", "CUT_COM": "08105", "REGION": "Biob\u00edo", "PROVINCIA": "Concepci\u00f3n", "COMUNA": "Hualqui", "variable": "Servicios de Salud", "Nombres": "Servicio de Salud Concepci\u00f3n - Centro Comunitario de Salud Familiar Hualqui", "POINT_X": -72.928167, "POINT_Y": -36.966648}}, {"type": "Feature", "geometry": {"type": "Point", "coordinates": [-73.00894299999996, -36.96256099999998]}, "properties": {"CUT_REG": "08", "CUT_PROV": "081", "CUT_COM": "08105", "REGION": "Biob\u00edo", "PROVINCIA": "Concepci\u00f3n", "COMUNA": "Hualqui", "variable": "Servicios de Salud", "Nombres": "SEREMI Del Biob\u00edo - Servicios Cl\u00ednicos Neuropsiqui\u00e1tricos y Geri\u00e1tricos R y G Limitada", "POINT_X": -73.008943, "POINT_Y": -36.962561}}, {"type": "Feature", "geometry": {"type": "Point", "coordinates": [-73.148165, -36.96147100000003]}, "properties": {"CUT_REG": "08", "CUT_PROV": "081", "CUT_COM": "08102", "REGION": "Biob\u00edo", "PROVINCIA": "Concepci\u00f3n", "COMUNA": "Coronel", "variable": "Servicios de Salud", "Nombres": "Servicio de Salud Concepci\u00f3n - Centro Comunitario de Salud Familiar Escuadr\u00f3n", "POINT_X": -73.148165, "POINT_Y": -36.961471}}, {"type": "Feature", "geometry": {"type": "Point", "coordinates": [-73.012869, -36.95467500000004]}, "properties": {"CUT_REG": "08", "CUT_PROV": "081", "CUT_COM": "08103", "REGION": "Biob\u00edo", "PROVINCIA": "Concepci\u00f3n", "COMUNA": "Chiguayante", "variable": "Servicios de Salud", "Nombres": "Servicio de Salud Concepci\u00f3n - SAPU Leonera", "POINT_X": -73.012869, "POINT_Y": -36.954675}}, {"type": "Feature", "geometry": {"type": "Point", "coordinates": [-73.01309399999995, -36.954432000000004]}, "properties": {"CUT_REG": "08", "CUT_PROV": "081", "CUT_COM": "08103", "REGION": "Biob\u00edo", "PROVINCIA": "Concepci\u00f3n", "COMUNA": "Chiguayante", "variable": "Servicios de Salud", "Nombres": "Servicio de Salud Concepci\u00f3n - Centro de Salud Familiar La Leonera", "POINT_X": -73.013094, "POINT_Y": -36.954432}}, {"type": "Feature", "geometry": {"type": "Point", "coordinates": [-73.02741299999997, -36.93343699999997]}, "properties": {"CUT_REG": "08", "CUT_PROV": "081", "CUT_COM": "08103", "REGION": "Biob\u00edo", "PROVINCIA": "Concepci\u00f3n", "COMUNA": "Chiguayante", "variable": "Servicios de Salud", "Nombres": "Servicio de Salud Concepci\u00f3n - Centro de Salud Familiar Pinares", "POINT_X": -73.027413, "POINT_Y": -36.933437}}, {"type": "Feature", "geometry": {"type": "Point", "coordinates": [-73.024179, -36.927206999999996]}, "properties": {"CUT_REG": "08", "CUT_PROV": "081", "CUT_COM": "08103", "REGION": "Biob\u00edo", "PROVINCIA": "Concepci\u00f3n", "COMUNA": "Chiguayante", "variable": "Servicios de Salud", "Nombres": "SEREMI Del Biob\u00edo - Laboratorio Cl\u00ednico Labomedic", "POINT_X": -73.024179, "POINT_Y": -36.927207}}, {"type": "Feature", "geometry": {"type": "Point", "coordinates": [-73.02903900000004, -36.92622999999998]}, "properties": {"CUT_REG": "08", "CUT_PROV": "081", "CUT_COM": "08103", "REGION": "Biob\u00edo", "PROVINCIA": "Concepci\u00f3n", "COMUNA": "Chiguayante", "variable": "Servicios de Salud", "Nombres": "Servicio de Salud Concepci\u00f3n - SAR Chiguayante", "POINT_X": -73.029039, "POINT_Y": -36.92623}}, {"type": "Feature", "geometry": {"type": "Point", "coordinates": [-73.02920999999998, -36.92565500000001]}, "properties": {"CUT_REG": "08", "CUT_PROV": "081", "CUT_COM": "08103", "REGION": "Biob\u00edo", "PROVINCIA": "Concepci\u00f3n", "COMUNA": "Chiguayante", "variable": "Servicios de Salud", "Nombres": "Servicio de Salud Concepci\u00f3n - SAPU Dental Chiguayante", "POINT_X": -73.02921, "POINT_Y": -36.925655}}, {"type": "Feature", "geometry": {"type": "Point", "coordinates": [-73.028797, -36.92542000000002]}, "properties": {"CUT_REG": "08", "CUT_PROV": "081", "CUT_COM": "08103", "REGION": "Biob\u00edo", "PROVINCIA": "Concepci\u00f3n", "COMUNA": "Chiguayante", "variable": "Servicios de Salud", "Nombres": "Servicio de Salud Concepci\u00f3n - Centro de Salud Familiar Chiguayante", "POINT_X": -73.028797, "POINT_Y": -36.92542}}, {"type": "Feature", "geometry": {"type": "Point", "coordinates": [-72.68266600000004, -36.92519199999998]}, "properties": {"CUT_REG": "08", "CUT_PROV": "081", "CUT_COM": "08104", "REGION": "Biob\u00edo", "PROVINCIA": "Concepci\u00f3n", "COMUNA": "Florida", "variable": "Servicios de Salud", "Nombres": "Servicio de Salud Concepci\u00f3n - Posta de Salud Rural Cancha Los Monteros", "POINT_X": -72.682666, "POINT_Y": -36.925192}}, {"type": "Feature", "geometry": {"type": "Point", "coordinates": [-73.02543300000002, -36.92435699999999]}, "properties": {"CUT_REG": "08", "CUT_PROV": "081", "CUT_COM": "08103", "REGION": "Biob\u00edo", "PROVINCIA": "Concepci\u00f3n", "COMUNA": "Chiguayante", "variable": "Servicios de Salud", "Nombres": "SEREMI Del Biob\u00edo - Laboratorio Cl\u00ednico Labotem", "POINT_X": -73.025433, "POINT_Y": -36.924357}}, {"type": "Feature", "geometry": {"type": "Point", "coordinates": [-72.80549299999998, -36.89698200000001]}, "properties": {"CUT_REG": "08", "CUT_PROV": "081", "CUT_COM": "08104", "REGION": "Biob\u00edo", "PROVINCIA": "Concepci\u00f3n", "COMUNA": "Florida", "variable": "Servicios de Salud", "Nombres": "Servicio de Salud Concepci\u00f3n - Centro Comunitario de Salud Familiar Copiulemu", "POINT_X": -72.805493, "POINT_Y": -36.896982}}, {"type": "Feature", "geometry": {"type": "Point", "coordinates": [-73.13423700000001, -36.88702800000002]}, "properties": {"CUT_REG": "08", "CUT_PROV": "081", "CUT_COM": "08108", "REGION": "Biob\u00edo", "PROVINCIA": "Concepci\u00f3n", "COMUNA": "San Pedro de la Paz", "variable": "Servicios de Salud", "Nombres": "Servicio de Salud Concepci\u00f3n - SAPU Loma Colorada", "POINT_X": -73.134237, "POINT_Y": -36.887028}}, {"type": "Feature", "geometry": {"type": "Point", "coordinates": [-73.13428599999997, -36.88692400000003]}, "properties": {"CUT_REG": "08", "CUT_PROV": "081", "CUT_COM": "08108", "REGION": "Biob\u00edo", "PROVINCIA": "Concepci\u00f3n", "COMUNA": "San Pedro de la Paz", "variable": "Servicios de Salud", "Nombres": "Servicio de Salud Concepci\u00f3n - Centro de Salud Familiar Lomas Coloradas", "POINT_X": -73.134286, "POINT_Y": -36.886924}}, {"type": "Feature", "geometry": {"type": "Point", "coordinates": [-72.87874600000004, -36.857781000000045]}, "properties": {"CUT_REG": "08", "CUT_PROV": "081", "CUT_COM": "08101", "REGION": "Biob\u00edo", "PROVINCIA": "Concepci\u00f3n", "COMUNA": "Concepci\u00f3n", "variable": "Servicios de Salud", "Nombres": "Servicio de Salud Concepci\u00f3n - Centro Comunitario de Salud Familiar Chaim\u00e1vida", "POINT_X": -72.878746, "POINT_Y": -36.857781}}, {"type": "Feature", "geometry": {"type": "Point", "coordinates": [-73.14630300000005, -36.84864399999997]}, "properties": {"CUT_REG": "08", "CUT_PROV": "081", "CUT_COM": "08108", "REGION": "Biob\u00edo", "PROVINCIA": "Concepci\u00f3n", "COMUNA": "San Pedro de la Paz", "variable": "Servicios de Salud", "Nombres": "Servicio de Salud Concepci\u00f3n - Centro de Salud Familiar San Pedro de La Costa", "POINT_X": -73.146303, "POINT_Y": -36.848644}}, {"type": "Feature", "geometry": {"type": "Point", "coordinates": [-73.05123, -36.84383499999998]}, "properties": {"CUT_REG": "08", "CUT_PROV": "081", "CUT_COM": "08101", "REGION": "Biob\u00edo", "PROVINCIA": "Concepci\u00f3n", "COMUNA": "Concepci\u00f3n", "variable": "Servicios de Salud", "Nombres": "SEREMI Del Biob\u00edo - Servicios M\u00e9dicos CIDIAL Ltda.", "POINT_X": -73.05123, "POINT_Y": -36.843835}}, {"type": "Feature", "geometry": {"type": "Point", "coordinates": [-73.05238000000003, -36.843749999999964]}, "properties": {"CUT_REG": "08", "CUT_PROV": "081", "CUT_COM": "08101", "REGION": "Biob\u00edo", "PROVINCIA": "Concepci\u00f3n", "COMUNA": "Concepci\u00f3n", "variable": "Servicios de Salud", "Nombres": "SEREMI Del Biob\u00edo - Cl\u00ednica de la Mujer Sanatorio Alem\u00e1n", "POINT_X": -73.05238, "POINT_Y": -36.84375}}, {"type": "Feature", "geometry": {"type": "Point", "coordinates": [-73.09364599999996, -36.84333300000001]}, "properties": {"CUT_REG": "08", "CUT_PROV": "081", "CUT_COM": "08108", "REGION": "Biob\u00edo", "PROVINCIA": "Concepci\u00f3n", "COMUNA": "San Pedro de la Paz", "variable": "Servicios de Salud", "Nombres": "SEREMI Del Biob\u00edo - Centro Odontol\u00f3gico Uno Salud Dental San Pedro de la Paz", "POINT_X": -73.093646, "POINT_Y": -36.843333}}, {"type": "Feature", "geometry": {"type": "Point", "coordinates": [-73.095029, -36.84304599999998]}, "properties": {"CUT_REG": "08", "CUT_PROV": "081", "CUT_COM": "08108", "REGION": "Biob\u00edo", "PROVINCIA": "Concepci\u00f3n", "COMUNA": "San Pedro de la Paz", "variable": "Servicios de Salud", "Nombres": "SEREMI Del Biob\u00edo - Vacunatorio San Pedro SpA", "POINT_X": -73.095029, "POINT_Y": -36.843046}}, {"type": "Feature", "geometry": {"type": "Point", "coordinates": [-73.14442799999998, -36.84302600000001]}, "properties": {"CUT_REG": "08", "CUT_PROV": "081", "CUT_COM": "08108", "REGION": "Biob\u00edo", "PROVINCIA": "Concepci\u00f3n", "COMUNA": "San Pedro de la Paz", "variable": "Servicios de Salud", "Nombres": "Servicio de Salud Concepci\u00f3n - Centro Comunitario de Salud Familiar Boca Sur", "POINT_X": -73.144428, "POINT_Y": -36.843026}}, {"type": "Feature", "geometry": {"type": "Point", "coordinates": [-73.10699300000002, -36.842311]}, "properties": {"CUT_REG": "08", "CUT_PROV": "081", "CUT_COM": "08108", "REGION": "Biob\u00edo", "PROVINCIA": "Concepci\u00f3n", "COMUNA": "San Pedro de la Paz", "variable": "Servicios de Salud", "Nombres": "SEREMI Del Biob\u00edo - Instituto Telet\u00f3n Concepci\u00f3n", "POINT_X": -73.106993, "POINT_Y": -36.842311}}, {"type": "Feature", "geometry": {"type": "Point", "coordinates": [-73.05484800000004, -36.84145099999999]}, "properties": {"CUT_REG": "08", "CUT_PROV": "081", "CUT_COM": "08101", "REGION": "Biob\u00edo", "PROVINCIA": "Concepci\u00f3n", "COMUNA": "Concepci\u00f3n", "variable": "Servicios de Salud", "Nombres": "Servicio de Salud Concepci\u00f3n - Centro de Salud Familiar Pedro de Valdivia", "POINT_X": -73.054848, "POINT_Y": -36.841451}}, {"type": "Feature", "geometry": {"type": "Point", "coordinates": [-73.14010700000003, -36.84004400000001]}, "properties": {"CUT_REG": "08", "CUT_PROV": "081", "CUT_COM": "08108", "REGION": "Biob\u00edo", "PROVINCIA": "Concepci\u00f3n", "COMUNA": "San Pedro de la Paz", "variable": "Servicios de Salud", "Nombres": "Servicio de Salud Concepci\u00f3n - Centro de Salud Familiar Boca Sur", "POINT_X": -73.140107, "POINT_Y": -36.840044}}, {"type": "Feature", "geometry": {"type": "Point", "coordinates": [-73.14013399999996, -36.83999700000003]}, "properties": {"CUT_REG": "08", "CUT_PROV": "081", "CUT_COM": "08108", "REGION": "Biob\u00edo", "PROVINCIA": "Concepci\u00f3n", "COMUNA": "San Pedro de la Paz", "variable": "Servicios de Salud", "Nombres": "Servicio de Salud Concepci\u00f3n - SAR Boca Sur", "POINT_X": -73.140134, "POINT_Y": -36.839997}}, {"type": "Feature", "geometry": {"type": "Point", "coordinates": [-73.09667500000003, -36.83905599999998]}, "properties": {"CUT_REG": "08", "CUT_PROV": "081", "CUT_COM": "08108", "REGION": "Biob\u00edo", "PROVINCIA": "Concepci\u00f3n", "COMUNA": "San Pedro de la Paz", "variable": "Servicios de Salud", "Nombres": "SEREMI Del Biob\u00edo - Vacunatorio Endodent", "POINT_X": -73.096675, "POINT_Y": -36.839056}}, {"type": "Feature", "geometry": {"type": "Point", "coordinates": [-73.12024099999998, -36.835443999999995]}, "properties": {"CUT_REG": "08", "CUT_PROV": "081", "CUT_COM": "08108", "REGION": "Biob\u00edo", "PROVINCIA": "Concepci\u00f3n", "COMUNA": "San Pedro de la Paz", "variable": "Servicios de Salud", "Nombres": "Servicio de Salud Concepci\u00f3n - Centro de Salud Familiar San Pedro de La Paz Candelaria", "POINT_X": -73.120241, "POINT_Y": -36.835444}}, {"type": "Feature", "geometry": {"type": "Point", "coordinates": [-73.12042400000001, -36.835384000000005]}, "properties": {"CUT_REG": "08", "CUT_PROV": "081", "CUT_COM": "08108", "REGION": "Biob\u00edo", "PROVINCIA": "Concepci\u00f3n", "COMUNA": "San Pedro de la Paz", "variable": "Servicios de Salud", "Nombres": "Servicio de Salud Concepci\u00f3n - SAPU Dental San Pedro de La Paz", "POINT_X": -73.120424, "POINT_Y": -36.835384}}, {"type": "Feature", "geometry": {"type": "Point", "coordinates": [-73.12043099999998, -36.835297999999995]}, "properties": {"CUT_REG": "08", "CUT_PROV": "081", "CUT_COM": "08108", "REGION": "Biob\u00edo", "PROVINCIA": "Concepci\u00f3n", "COMUNA": "San Pedro de la Paz", "variable": "Servicios de Salud", "Nombres": "Servicio de Salud Concepci\u00f3n - SAR San Pedro", "POINT_X": -73.120431, "POINT_Y": -36.835298}}, {"type": "Feature", "geometry": {"type": "Point", "coordinates": [-73.05231599999996, -36.83279100000004]}, "properties": {"CUT_REG": "08", "CUT_PROV": "081", "CUT_COM": "08101", "REGION": "Biob\u00edo", "PROVINCIA": "Concepci\u00f3n", "COMUNA": "Concepci\u00f3n", "variable": "Servicios de Salud", "Nombres": "SEREMI Del Biob\u00edo - Laboratorio Cl\u00ednico Novalab Chile", "POINT_X": -73.052316, "POINT_Y": -36.832791}}, {"type": "Feature", "geometry": {"type": "Point", "coordinates": [-73.05400799999998, -36.83174699999999]}, "properties": {"CUT_REG": "08", "CUT_PROV": "081", "CUT_COM": "08101", "REGION": "Biob\u00edo", "PROVINCIA": "Concepci\u00f3n", "COMUNA": "Concepci\u00f3n", "variable": "Servicios de Salud", "Nombres": "SEREMI Del Biob\u00edo - Servicios M\u00e9dicos Medinefro Ltda.", "POINT_X": -73.054008, "POINT_Y": -36.831747}}, {"type": "Feature", "geometry": {"type": "Point", "coordinates": [-73.05865899999996, -36.831619999999965]}, "properties": {"CUT_REG": "08", "CUT_PROV": "081", "CUT_COM": "08101", "REGION": "Biob\u00edo", "PROVINCIA": "Concepci\u00f3n", "COMUNA": "Concepci\u00f3n", "variable": "Servicios de Salud", "Nombres": "SEREMI Del Biob\u00edo - Laboratorio Cl\u00ednico Diagnomed", "POINT_X": -73.058659, "POINT_Y": -36.83162}}, {"type": "Feature", "geometry": {"type": "Point", "coordinates": [-73.05374000000002, -36.83160199999998]}, "properties": {"CUT_REG": "08", "CUT_PROV": "081", "CUT_COM": "08101", "REGION": "Biob\u00edo", "PROVINCIA": "Concepci\u00f3n", "COMUNA": "Concepci\u00f3n", "variable": "Servicios de Salud", "Nombres": "SEREMI Del Biob\u00edo - Centro M\u00e9dico Medisan", "POINT_X": -73.05374, "POINT_Y": -36.831602}}, {"type": "Feature", "geometry": {"type": "Point", "coordinates": [-73.05374599999999, -36.831550000000036]}, "properties": {"CUT_REG": "08", "CUT_PROV": "081", "CUT_COM": "08101", "REGION": "Biob\u00edo", "PROVINCIA": "Concepci\u00f3n", "COMUNA": "Concepci\u00f3n", "variable": "Servicios de Salud", "Nombres": "SEREMI Del Biob\u00edo - Centro de Vacunaci\u00f3n y Servcio de Enfermer\u00eda SpA", "POINT_X": -73.053746, "POINT_Y": -36.83155}}, {"type": "Feature", "geometry": {"type": "Point", "coordinates": [-73.04921200000001, -36.831460999999955]}, "properties": {"CUT_REG": "08", "CUT_PROV": "081", "CUT_COM": "08101", "REGION": "Biob\u00edo", "PROVINCIA": "Concepci\u00f3n", "COMUNA": "Concepci\u00f3n", "variable": "Servicios de Salud", "Nombres": "SEREMI Del Biob\u00edo - Vacunatorio El Salvador", "POINT_X": -73.049212, "POINT_Y": -36.831461}}, {"type": "Feature", "geometry": {"type": "Point", "coordinates": [-73.05142, -36.83116399999998]}, "properties": {"CUT_REG": "08", "CUT_PROV": "081", "CUT_COM": "08101", "REGION": "Biob\u00edo", "PROVINCIA": "Concepci\u00f3n", "COMUNA": "Concepci\u00f3n", "variable": "Servicios de Salud", "Nombres": "SEREMI Del Biob\u00edo - Laboratorio Cl\u00ednico IMEDIM", "POINT_X": -73.05142, "POINT_Y": -36.831164}}, {"type": "Feature", "geometry": {"type": "Point", "coordinates": [-73.05146799999997, -36.831084000000025]}, "properties": {"CUT_REG": "08", "CUT_PROV": "081", "CUT_COM": "08101", "REGION": "Biob\u00edo", "PROVINCIA": "Concepci\u00f3n", "COMUNA": "Concepci\u00f3n", "variable": "Servicios de Salud", "Nombres": "SEREMI Del Biob\u00edo - Laboratorio Cl\u00ednico Dr. Ra\u00fal Campos y C\u00eda. Ltda.", "POINT_X": -73.051468, "POINT_Y": -36.831084}}, {"type": "Feature", "geometry": {"type": "Point", "coordinates": [-73.00645499999997, -36.831034999999964]}, "properties": {"CUT_REG": "08", "CUT_PROV": "081", "CUT_COM": "08101", "REGION": "Biob\u00edo", "PROVINCIA": "Concepci\u00f3n", "COMUNA": "Concepci\u00f3n", "variable": "Servicios de Salud", "Nombres": "Servicio de Salud Concepci\u00f3n - Centro de Salud Familiar Villa Nongu\u00e9n (Organizaciones sin fines de lucro y ONG)", "POINT_X": -73.006455, "POINT_Y": -36.831035}}, {"type": "Feature", "geometry": {"type": "Point", "coordinates": [-73.05410200000003, -36.83068800000003]}, "properties": {"CUT_REG": "08", "CUT_PROV": "081", "CUT_COM": "08101", "REGION": "Biob\u00edo", "PROVINCIA": "Concepci\u00f3n", "COMUNA": "Concepci\u00f3n", "variable": "Servicios de Salud", "Nombres": "Servicio de Salud Concepci\u00f3n - Centro de Referencia de Salud Municipal", "POINT_X": -73.054102, "POINT_Y": -36.830688}}, {"type": "Feature", "geometry": {"type": "Point", "coordinates": [-73.05204500000002, -36.830197]}, "properties": {"CUT_REG": "08", "CUT_PROV": "081", "CUT_COM": "08101", "REGION": "Biob\u00edo", "PROVINCIA": "Concepci\u00f3n", "COMUNA": "Concepci\u00f3n", "variable": "Servicios de Salud", "Nombres": "SEREMI Del Biob\u00edo - Laboratorio Cl\u00ednico Lincoy\u00e1n", "POINT_X": -73.052045, "POINT_Y": -36.830197}}, {"type": "Feature", "geometry": {"type": "Point", "coordinates": [-73.05529100000001, -36.829919999999994]}, "properties": {"CUT_REG": "08", "CUT_PROV": "081", "CUT_COM": "08101", "REGION": "Biob\u00edo", "PROVINCIA": "Concepci\u00f3n", "COMUNA": "Concepci\u00f3n", "variable": "Servicios de Salud", "Nombres": "Servicio de Salud Concepci\u00f3n - PRAIS (S.S Concepci\u00f3n)", "POINT_X": -73.055291, "POINT_Y": -36.82992}}, {"type": "Feature", "geometry": {"type": "Point", "coordinates": [-73.05529100000001, -36.829919999999994]}, "properties": {"CUT_REG": "08", "CUT_PROV": "081", "CUT_COM": "08101", "REGION": "Biob\u00edo", "PROVINCIA": "Concepci\u00f3n", "COMUNA": "Concepci\u00f3n", "variable": "Servicios de Salud", "Nombres": "Servicio de Salud Concepci\u00f3n - Unidad de Salud Funcionario S.S Concepci\u00f3n", "POINT_X": -73.055291, "POINT_Y": -36.82992}}, {"type": "Feature", "geometry": {"type": "Point", "coordinates": [-73.051492, -36.829656]}, "properties": {"CUT_REG": "08", "CUT_PROV": "081", "CUT_COM": "08101", "REGION": "Biob\u00edo", "PROVINCIA": "Concepci\u00f3n", "COMUNA": "Concepci\u00f3n", "variable": "Servicios de Salud", "Nombres": "SEREMI Del Biob\u00edo - Laboratorio Cl\u00ednico Seres Ltda.", "POINT_X": -73.051492, "POINT_Y": -36.829656}}, {"type": "Feature", "geometry": {"type": "Point", "coordinates": [-73.04440899999997, -36.829653000000015]}, "properties": {"CUT_REG": "08", "CUT_PROV": "081", "CUT_COM": "08101", "REGION": "Biob\u00edo", "PROVINCIA": "Concepci\u00f3n", "COMUNA": "Concepci\u00f3n", "variable": "Servicios de Salud", "Nombres": "SEREMI Del Biob\u00edo - Laboratorio Cl\u00ednico Dr. Fructuoso Biel y Cia Ltda.", "POINT_X": -73.044409, "POINT_Y": -36.829653}}, {"type": "Feature", "geometry": {"type": "Point", "coordinates": [-73.049241, -36.829513999999975]}, "properties": {"CUT_REG": "08", "CUT_PROV": "081", "CUT_COM": "08101", "REGION": "Biob\u00edo", "PROVINCIA": "Concepci\u00f3n", "COMUNA": "Concepci\u00f3n", "variable": "Servicios de Salud", "Nombres": "SEREMI Del Biob\u00edo - Laboratorio Cl\u00ednico Bionet S.A. - Concepci\u00f3n", "POINT_X": -73.049241, "POINT_Y": -36.829514}}, {"type": "Feature", "geometry": {"type": "Point", "coordinates": [-73.04882600000005, -36.829494000000004]}, "properties": {"CUT_REG": "08", "CUT_PROV": "081", "CUT_COM": "08101", "REGION": "Biob\u00edo", "PROVINCIA": "Concepci\u00f3n", "COMUNA": "Concepci\u00f3n", "variable": "Servicios de Salud", "Nombres": "SEREMI Del Biob\u00edo - Centro Odontol\u00f3gico Uno Salud Dental Concepci\u00f3n", "POINT_X": -73.048826, "POINT_Y": -36.829494}}, {"type": "Feature", "geometry": {"type": "Point", "coordinates": [-73.04829999999995, -36.829232999999995]}, "properties": {"CUT_REG": "08", "CUT_PROV": "081", "CUT_COM": "08101", "REGION": "Biob\u00edo", "PROVINCIA": "Concepci\u00f3n", "COMUNA": "Concepci\u00f3n", "variable": "Servicios de Salud", "Nombres": "SEREMI Del Biob\u00edo - Vacunatorio Concepci\u00f3n", "POINT_X": -73.0483, "POINT_Y": -36.829233}}, {"type": "Feature", "geometry": {"type": "Point", "coordinates": [-73.05200799999997, -36.829052000000026]}, "properties": {"CUT_REG": "08", "CUT_PROV": "081", "CUT_COM": "08101", "REGION": "Biob\u00edo", "PROVINCIA": "Concepci\u00f3n", "COMUNA": "Concepci\u00f3n", "variable": "Servicios de Salud", "Nombres": "Servicio de Salud Concepci\u00f3n - Actividades gestionadas por la Direcci\u00f3n del Servicio para apoyo de la Red (S.S de Concepci\u00f3n)", "POINT_X": -73.052008, "POINT_Y": -36.829052}}, {"type": "Feature", "geometry": {"type": "Point", "coordinates": [-73.04721, -36.82862700000003]}, "properties": {"CUT_REG": "08", "CUT_PROV": "081", "CUT_COM": "08101", "REGION": "Biob\u00edo", "PROVINCIA": "Concepci\u00f3n", "COMUNA": "Concepci\u00f3n", "variable": "Servicios de Salud", "Nombres": "SEREMI Del Biob\u00edo - Laboratorio Cl\u00ednico MACROLAB", "POINT_X": -73.04721, "POINT_Y": -36.828627}}, {"type": "Feature", "geometry": {"type": "Point", "coordinates": [-73.04710400000002, -36.82858099999996]}, "properties": {"CUT_REG": "08", "CUT_PROV": "081", "CUT_COM": "08101", "REGION": "Biob\u00edo", "PROVINCIA": "Concepci\u00f3n", "COMUNA": "Concepci\u00f3n", "variable": "Servicios de Salud", "Nombres": "SEREMI Del Biob\u00edo - Laboratorio Cl\u00ednico Schwerter", "POINT_X": -73.047104, "POINT_Y": -36.828581}}, {"type": "Feature", "geometry": {"type": "Point", "coordinates": [-73.06671199999997, -36.82857799999998]}, "properties": {"CUT_REG": "08", "CUT_PROV": "081", "CUT_COM": "08101", "REGION": "Biob\u00edo", "PROVINCIA": "Concepci\u00f3n", "COMUNA": "Concepci\u00f3n", "variable": "Servicios de Salud", "Nombres": "Servicio de Salud Concepci\u00f3n - Centro de Salud Familiar Juan Soto Fern\u00e1ndez", "POINT_X": -73.066712, "POINT_Y": -36.828578}}, {"type": "Feature", "geometry": {"type": "Point", "coordinates": [-73.056242, -36.82855800000001]}, "properties": {"CUT_REG": "08", "CUT_PROV": "081", "CUT_COM": "08101", "REGION": "Biob\u00edo", "PROVINCIA": "Concepci\u00f3n", "COMUNA": "Concepci\u00f3n", "variable": "Servicios de Salud", "Nombres": "Servicio de Salud Concepci\u00f3n - Centro de Salud Familiar O'Higgins", "POINT_X": -73.056242, "POINT_Y": -36.828558}}, {"type": "Feature", "geometry": {"type": "Point", "coordinates": [-73.066865, -36.82841799999997]}, "properties": {"CUT_REG": "08", "CUT_PROV": "081", "CUT_COM": "08101", "REGION": "Biob\u00edo", "PROVINCIA": "Concepci\u00f3n", "COMUNA": "Concepci\u00f3n", "variable": "Servicios de Salud", "Nombres": "Servicio de Salud Concepci\u00f3n - SAPU Juan Soto Fern\u00e1ndez", "POINT_X": -73.066865, "POINT_Y": -36.828418}}, {"type": "Feature", "geometry": {"type": "Point", "coordinates": [-73.04407499999996, -36.828351000000026]}, "properties": {"CUT_REG": "08", "CUT_PROV": "081", "CUT_COM": "08101", "REGION": "Biob\u00edo", "PROVINCIA": "Concepci\u00f3n", "COMUNA": "Concepci\u00f3n", "variable": "Servicios de Salud", "Nombres": "SEREMI Del Biob\u00edo - Vacunatorio Seres", "POINT_X": -73.044075, "POINT_Y": -36.828351}}, {"type": "Feature", "geometry": {"type": "Point", "coordinates": [-73.05638200000004, -36.82832899999998]}, "properties": {"CUT_REG": "08", "CUT_PROV": "081", "CUT_COM": "08101", "REGION": "Biob\u00edo", "PROVINCIA": "Concepci\u00f3n", "COMUNA": "Concepci\u00f3n", "variable": "Servicios de Salud", "Nombres": "SEREMI Del Biob\u00edo - Vacunatorio Israel", "POINT_X": -73.056382, "POINT_Y": -36.828329}}, {"type": "Feature", "geometry": {"type": "Point", "coordinates": [-73.05488100000001, -36.82822699999998]}, "properties": {"CUT_REG": "08", "CUT_PROV": "081", "CUT_COM": "08101", "REGION": "Biob\u00edo", "PROVINCIA": "Concepci\u00f3n", "COMUNA": "Concepci\u00f3n", "variable": "Servicios de Salud", "Nombres": "SEREMI Del Biob\u00edo - Centro M\u00e9dico Kenal", "POINT_X": -73.054881, "POINT_Y": -36.828227}}, {"type": "Feature", "geometry": {"type": "Point", "coordinates": [-73.05492699999999, -36.828132000000025]}, "properties": {"CUT_REG": "08", "CUT_PROV": "081", "CUT_COM": "08101", "REGION": "Biob\u00edo", "PROVINCIA": "Concepci\u00f3n", "COMUNA": "Concepci\u00f3n", "variable": "Servicios de Salud", "Nombres": "SEREMI Del Biob\u00edo - Laboratorio Cl\u00ednico Hasiles", "POINT_X": -73.054927, "POINT_Y": -36.828132}}, {"type": "Feature", "geometry": {"type": "Point", "coordinates": [-73.041072, -36.827408999999975]}, "properties": {"CUT_REG": "08", "CUT_PROV": "081", "CUT_COM": "08101", "REGION": "Biob\u00edo", "PROVINCIA": "Concepci\u00f3n", "COMUNA": "Concepci\u00f3n", "variable": "Servicios de Salud", "Nombres": "SEREMI Del Biob\u00edo - Laboratorio de Especialidades Medicas EMSA S.A", "POINT_X": -73.041072, "POINT_Y": -36.827409}}, {"type": "Feature", "geometry": {"type": "Point", "coordinates": [-73.047852, -36.82740300000001]}, "properties": {"CUT_REG": "08", "CUT_PROV": "081", "CUT_COM": "08101", "REGION": "Biob\u00edo", "PROVINCIA": "Concepci\u00f3n", "COMUNA": "Concepci\u00f3n", "variable": "Servicios de Salud", "Nombres": "SEREMI Del Biob\u00edo - Laboratorio Cl\u00ednico Tecnimed Ltda.", "POINT_X": -73.047852, "POINT_Y": -36.827403}}, {"type": "Feature", "geometry": {"type": "Point", "coordinates": [-73.04577700000002, -36.82737999999998]}, "properties": {"CUT_REG": "08", "CUT_PROV": "081", "CUT_COM": "08101", "REGION": "Biob\u00edo", "PROVINCIA": "Concepci\u00f3n", "COMUNA": "Concepci\u00f3n", "variable": "Servicios de Salud", "Nombres": "SEREMI Del Biob\u00edo - Vacunatorio Biovax SpA", "POINT_X": -73.045777, "POINT_Y": -36.82738}}, {"type": "Feature", "geometry": {"type": "Point", "coordinates": [-73.045792, -36.827346000000006]}, "properties": {"CUT_REG": "08", "CUT_PROV": "081", "CUT_COM": "08101", "REGION": "Biob\u00edo", "PROVINCIA": "Concepci\u00f3n", "COMUNA": "Concepci\u00f3n", "variable": "Servicios de Salud", "Nombres": "SEREMI Del Biob\u00edo - Centro M\u00e9dico Inmunom\u00e9dica", "POINT_X": -73.045792, "POINT_Y": -36.827346}}, {"type": "Feature", "geometry": {"type": "Point", "coordinates": [-73.04554100000001, -36.827293999999966]}, "properties": {"CUT_REG": "08", "CUT_PROV": "081", "CUT_COM": "08101", "REGION": "Biob\u00edo", "PROVINCIA": "Concepci\u00f3n", "COMUNA": "Concepci\u00f3n", "variable": "Servicios de Salud", "Nombres": "SEREMI Del Biob\u00edo - Laboratorio Cl\u00ednico C.D.S", "POINT_X": -73.045541, "POINT_Y": -36.827294}}, {"type": "Feature", "geometry": {"type": "Point", "coordinates": [-73.04555199999996, -36.82726599999996]}, "properties": {"CUT_REG": "08", "CUT_PROV": "081", "CUT_COM": "08101", "REGION": "Biob\u00edo", "PROVINCIA": "Concepci\u00f3n", "COMUNA": "Concepci\u00f3n", "variable": "Servicios de Salud", "Nombres": "SEREMI Del Biob\u00edo - Vacunatorio Centro de Diagn\u00f3stico San Mart\u00edn", "POINT_X": -73.045552, "POINT_Y": -36.827266}}, {"type": "Feature", "geometry": {"type": "Point", "coordinates": [-73.139178, -36.82712999999998]}, "properties": {"CUT_REG": "08", "CUT_PROV": "081", "CUT_COM": "08108", "REGION": "Biob\u00edo", "PROVINCIA": "Concepci\u00f3n", "COMUNA": "San Pedro de la Paz", "variable": "Servicios de Salud", "Nombres": "Servicio de Salud Concepci\u00f3n - Centro Comunitario de Salud Familiar Boca Sur Viejo", "POINT_X": -73.139178, "POINT_Y": -36.82713}}, {"type": "Feature", "geometry": {"type": "Point", "coordinates": [-73.04615099999995, -36.82695799999996]}, "properties": {"CUT_REG": "08", "CUT_PROV": "081", "CUT_COM": "08101", "REGION": "Biob\u00edo", "PROVINCIA": "Concepci\u00f3n", "COMUNA": "Concepci\u00f3n", "variable": "Servicios de Salud", "Nombres": "SEREMI Del Biob\u00edo - Laboratorio Cl\u00ednico Inmunomedica Ltda.", "POINT_X": -73.046151, "POINT_Y": -36.826958}}, {"type": "Feature", "geometry": {"type": "Point", "coordinates": [-73.041334, -36.82694900000002]}, "properties": {"CUT_REG": "08", "CUT_PROV": "081", "CUT_COM": "08101", "REGION": "Biob\u00edo", "PROVINCIA": "Concepci\u00f3n", "COMUNA": "Concepci\u00f3n", "variable": "Servicios de Salud", "Nombres": "SEREMI Del Biob\u00edo - Ki\u00f1ewen Ltda.", "POINT_X": -73.041334, "POINT_Y": -36.826949}}, {"type": "Feature", "geometry": {"type": "Point", "coordinates": [-73.04127799999999, -36.82692599999998]}, "properties": {"CUT_REG": "08", "CUT_PROV": "081", "CUT_COM": "08101", "REGION": "Biob\u00edo", "PROVINCIA": "Concepci\u00f3n", "COMUNA": "Concepci\u00f3n", "variable": "Servicios de Salud", "Nombres": "SEREMI Del Biob\u00edo - Laboratorio Cl\u00ednico Diagonal", "POINT_X": -73.041278, "POINT_Y": -36.826926}}, {"type": "Feature", "geometry": {"type": "Point", "coordinates": [-73.04459599999998, -36.82689200000001]}, "properties": {"CUT_REG": "08", "CUT_PROV": "081", "CUT_COM": "08101", "REGION": "Biob\u00edo", "PROVINCIA": "Concepci\u00f3n", "COMUNA": "Concepci\u00f3n", "variable": "Servicios de Salud", "Nombres": "SEREMI Del Biob\u00edo - Laboratorio Cl\u00ednico Dr. Gustavo Torrej\u00f3n Sanhueza y C\u00eda. Ltda.", "POINT_X": -73.044596, "POINT_Y": -36.826892}}, {"type": "Feature", "geometry": {"type": "Point", "coordinates": [-73.05327899999997, -36.82668099999996]}, "properties": {"CUT_REG": "08", "CUT_PROV": "081", "CUT_COM": "08101", "REGION": "Biob\u00edo", "PROVINCIA": "Concepci\u00f3n", "COMUNA": "Concepci\u00f3n", "variable": "Servicios de Salud", "Nombres": "SEREMI Del Biob\u00edo - Centro Odontol\u00f3gico Uno Salud Dental Concepci\u00f3n Dos", "POINT_X": -73.053279, "POINT_Y": -36.826681}}, {"type": "Feature", "geometry": {"type": "Point", "coordinates": [-73.036324, -36.82595700000001]}, "properties": {"CUT_REG": "08", "CUT_PROV": "081", "CUT_COM": "08101", "REGION": "Biob\u00edo", "PROVINCIA": "Concepci\u00f3n", "COMUNA": "Concepci\u00f3n", "variable": "Servicios de Salud", "Nombres": "Servicio de Salud Concepci\u00f3n - Dispositivo Modular de Salud Hospital Guillermo Grant Benavente", "POINT_X": -73.036324, "POINT_Y": -36.825957}}, {"type": "Feature", "geometry": {"type": "Point", "coordinates": [-73.04365400000003, -36.82582300000002]}, "properties": {"CUT_REG": "08", "CUT_PROV": "081", "CUT_COM": "08101", "REGION": "Biob\u00edo", "PROVINCIA": "Concepci\u00f3n", "COMUNA": "Concepci\u00f3n", "variable": "Servicios de Salud", "Nombres": "SEREMI Del Biob\u00edo - Laboratorio Cl\u00ednico Dimet Ltda.", "POINT_X": -73.043654, "POINT_Y": -36.825823}}, {"type": "Feature", "geometry": {"type": "Point", "coordinates": [-73.042155, -36.82539800000003]}, "properties": {"CUT_REG": "08", "CUT_PROV": "081", "CUT_COM": "08101", "REGION": "Biob\u00edo", "PROVINCIA": "Concepci\u00f3n", "COMUNA": "Concepci\u00f3n", "variable": "Servicios de Salud", "Nombres": "SEREMI Del Biob\u00edo - Centro M\u00e9dico Radiol\u00f3gico Concepci\u00f3n Ltda.", "POINT_X": -73.042155, "POINT_Y": -36.825398}}, {"type": "Feature", "geometry": {"type": "Point", "coordinates": [-73.03795099999996, -36.82511]}, "properties": {"CUT_REG": "08", "CUT_PROV": "081", "CUT_COM": "08101", "REGION": "Biob\u00edo", "PROVINCIA": "Concepci\u00f3n", "COMUNA": "Concepci\u00f3n", "variable": "Servicios de Salud", "Nombres": "Servicio de Salud Concepci\u00f3n - Hospital Cl\u00ednico Regional Dr. Guillermo Grant Benavente (Concepci\u00f3n)", "POINT_X": -73.037951, "POINT_Y": -36.82511}}, {"type": "Feature", "geometry": {"type": "Point", "coordinates": [-73.05684199999999, -36.825067999999995]}, "properties": {"CUT_REG": "08", "CUT_PROV": "081", "CUT_COM": "08101", "REGION": "Biob\u00edo", "PROVINCIA": "Concepci\u00f3n", "COMUNA": "Concepci\u00f3n", "variable": "Servicios de Salud", "Nombres": "SEREMI Del Biob\u00edo - Centro M\u00e9dico Integram\u00e9dica Bio Bio", "POINT_X": -73.056842, "POINT_Y": -36.825068}}, {"type": "Feature", "geometry": {"type": "Point", "coordinates": [-73.04031799999996, -36.82503600000001]}, "properties": {"CUT_REG": "08", "CUT_PROV": "081", "CUT_COM": "08101", "REGION": "Biob\u00edo", "PROVINCIA": "Concepci\u00f3n", "COMUNA": "Concepci\u00f3n", "variable": "Servicios de Salud", "Nombres": "SEREMI Del Biob\u00edo - Laboratorio Cl\u00ednico de Exploraci\u00f3n Renal", "POINT_X": -73.040318, "POINT_Y": -36.825036}}, {"type": "Feature", "geometry": {"type": "Point", "coordinates": [-73.037815, -36.82410499999998]}, "properties": {"CUT_REG": "08", "CUT_PROV": "081", "CUT_COM": "08101", "REGION": "Biob\u00edo", "PROVINCIA": "Concepci\u00f3n", "COMUNA": "Concepci\u00f3n", "variable": "Servicios de Salud", "Nombres": "Servicio de Salud Concepci\u00f3n - Hospital Traumatol\u00f3gico (Concepci\u00f3n)", "POINT_X": -73.037815, "POINT_Y": -36.824105}}, {"type": "Feature", "geometry": {"type": "Point", "coordinates": [-73.044917, -36.824036999999954]}, "properties": {"CUT_REG": "08", "CUT_PROV": "081", "CUT_COM": "08101", "REGION": "Biob\u00edo", "PROVINCIA": "Concepci\u00f3n", "COMUNA": "Concepci\u00f3n", "variable": "Servicios de Salud", "Nombres": "Servicio de Salud Concepci\u00f3n - Centro de Especialidades de Medicina Transfusional", "POINT_X": -73.044917, "POINT_Y": -36.824037}}, {"type": "Feature", "geometry": {"type": "Point", "coordinates": [-73.04317000000003, -36.823660000000025]}, "properties": {"CUT_REG": "08", "CUT_PROV": "081", "CUT_COM": "08101", "REGION": "Biob\u00edo", "PROVINCIA": "Concepci\u00f3n", "COMUNA": "Concepci\u00f3n", "variable": "Servicios de Salud", "Nombres": "SEREMI Del Biob\u00edo - Centro y M\u00e9dico Dental VIII Zona de Carabineros (Del B\u00edob\u00edo)", "POINT_X": -73.04317, "POINT_Y": -36.82366}}, {"type": "Feature", "geometry": {"type": "Point", "coordinates": [-73.03971599999998, -36.82355900000002]}, "properties": {"CUT_REG": "08", "CUT_PROV": "081", "CUT_COM": "08101", "REGION": "Biob\u00edo", "PROVINCIA": "Concepci\u00f3n", "COMUNA": "Concepci\u00f3n", "variable": "Servicios de Salud", "Nombres": "SEREMI Del Biob\u00edo - Laboratorio Cl\u00ednico Castell\u00f3n", "POINT_X": -73.039716, "POINT_Y": -36.823559}}, {"type": "Feature", "geometry": {"type": "Point", "coordinates": [-72.64912299999997, -36.82257700000003]}, "properties": {"CUT_REG": "08", "CUT_PROV": "081", "CUT_COM": "08104", "REGION": "Biob\u00edo", "PROVINCIA": "Concepci\u00f3n", "COMUNA": "Florida", "variable": "Servicios de Salud", "Nombres": "Servicio de Salud Concepci\u00f3n - Hospital San Agust\u00edn de Florida", "POINT_X": -72.649123, "POINT_Y": -36.822577}}, {"type": "Feature", "geometry": {"type": "Point", "coordinates": [-73.04135299999999, -36.82105199999997]}, "properties": {"CUT_REG": "08", "CUT_PROV": "081", "CUT_COM": "08101", "REGION": "Biob\u00edo", "PROVINCIA": "Concepci\u00f3n", "COMUNA": "Concepci\u00f3n", "variable": "Servicios de Salud", "Nombres": "SEREMI Del Biob\u00edo - Megasalud S.A. Centro M\u00e9dico y Dental Concepci\u00f3n", "POINT_X": -73.041353, "POINT_Y": -36.821052}}, {"type": "Feature", "geometry": {"type": "Point", "coordinates": [-73.01419899999999, -36.820259]}, "properties": {"CUT_REG": "08", "CUT_PROV": "081", "CUT_COM": "08101", "REGION": "Biob\u00edo", "PROVINCIA": "Concepci\u00f3n", "COMUNA": "Concepci\u00f3n", "variable": "Servicios de Salud", "Nombres": "SEREMI Del Biob\u00edo - Departamento de Salud Estudiantil Universidad del B\u00edob\u00edo Campus Concepci\u00f3n", "POINT_X": -73.014199, "POINT_Y": -36.820259}}, {"type": "Feature", "geometry": {"type": "Point", "coordinates": [-73.03216199999997, -36.816766]}, "properties": {"CUT_REG": "08", "CUT_PROV": "081", "CUT_COM": "08101", "REGION": "Biob\u00edo", "PROVINCIA": "Concepci\u00f3n", "COMUNA": "Concepci\u00f3n", "variable": "Servicios de Salud", "Nombres": "Servicio de Salud Concepci\u00f3n - Centro de Salud Familiar V\u00edctor Manuel Fern\u00e1ndez", "POINT_X": -73.032162, "POINT_Y": -36.816766}}, {"type": "Feature", "geometry": {"type": "Point", "coordinates": [-73.02807400000003, -36.81671099999998]}, "properties": {"CUT_REG": "08", "CUT_PROV": "081", "CUT_COM": "08101", "REGION": "Biob\u00edo", "PROVINCIA": "Concepci\u00f3n", "COMUNA": "Concepci\u00f3n", "variable": "Servicios de Salud", "Nombres": "SEREMI Del Biob\u00edo - Centro Cl\u00ednico Militar Concepci\u00f3n", "POINT_X": -73.028074, "POINT_Y": -36.816711}}, {"type": "Feature", "geometry": {"type": "Point", "coordinates": [-73.03214699999998, -36.816576]}, "properties": {"CUT_REG": "08", "CUT_PROV": "081", "CUT_COM": "08101", "REGION": "Biob\u00edo", "PROVINCIA": "Concepci\u00f3n", "COMUNA": "Concepci\u00f3n", "variable": "Servicios de Salud", "Nombres": "Servicio de Salud Concepci\u00f3n - SAR V\u00edctor Manuel Fern\u00e1ndez", "POINT_X": -73.032147, "POINT_Y": -36.816576}}, {"type": "Feature", "geometry": {"type": "Point", "coordinates": [-73.031793, -36.81396800000004]}, "properties": {"CUT_REG": "08", "CUT_PROV": "081", "CUT_COM": "08101", "REGION": "Biob\u00edo", "PROVINCIA": "Concepci\u00f3n", "COMUNA": "Concepci\u00f3n", "variable": "Servicios de Salud", "Nombres": "SEREMI Del Biob\u00edo - Hospital Cl\u00ednico del Sur S.A.", "POINT_X": -73.031793, "POINT_Y": -36.813968}}, {"type": "Feature", "geometry": {"type": "Point", "coordinates": [-73.03178700000004, -36.81386600000004]}, "properties": {"CUT_REG": "08", "CUT_PROV": "081", "CUT_COM": "08101", "REGION": "Biob\u00edo", "PROVINCIA": "Concepci\u00f3n", "COMUNA": "Concepci\u00f3n", "variable": "Servicios de Salud", "Nombres": "SEREMI Del Biob\u00edo - Policl\u00ednico Agencia Concepci\u00f3n de la Asociaci\u00f3n Chilena de Seguridad", "POINT_X": -73.031787, "POINT_Y": -36.813866}}, {"type": "Feature", "geometry": {"type": "Point", "coordinates": [-73.05429600000002, -36.81011300000002]}, "properties": {"CUT_REG": "08", "CUT_PROV": "081", "CUT_COM": "08101", "REGION": "Biob\u00edo", "PROVINCIA": "Concepci\u00f3n", "COMUNA": "Concepci\u00f3n", "variable": "Servicios de Salud", "Nombres": "Servicio de Salud Concepci\u00f3n - SAR Tucapel", "POINT_X": -73.054296, "POINT_Y": -36.810113}}, {"type": "Feature", "geometry": {"type": "Point", "coordinates": [-73.07324900000003, -36.810058]}, "properties": {"CUT_REG": "08", "CUT_PROV": "081", "CUT_COM": "08101", "REGION": "Biob\u00edo", "PROVINCIA": "Concepci\u00f3n", "COMUNA": "Concepci\u00f3n", "variable": "Servicios de Salud", "Nombres": "Servicio de Salud Concepci\u00f3n - Centro de Salud Familiar Lorenzo Arenas", "POINT_X": -73.073249, "POINT_Y": -36.810058}}, {"type": "Feature", "geometry": {"type": "Point", "coordinates": [-73.05410400000002, -36.81003099999999]}, "properties": {"CUT_REG": "08", "CUT_PROV": "081", "CUT_COM": "08101", "REGION": "Biob\u00edo", "PROVINCIA": "Concepci\u00f3n", "COMUNA": "Concepci\u00f3n", "variable": "Servicios de Salud", "Nombres": "Servicio de Salud Concepci\u00f3n - Centro de Salud Familiar Tucapel", "POINT_X": -73.054104, "POINT_Y": -36.810031}}, {"type": "Feature", "geometry": {"type": "Point", "coordinates": [-73.07350399999999, -36.809986999999985]}, "properties": {"CUT_REG": "08", "CUT_PROV": "081", "CUT_COM": "08101", "REGION": "Biob\u00edo", "PROVINCIA": "Concepci\u00f3n", "COMUNA": "Concepci\u00f3n", "variable": "Servicios de Salud", "Nombres": "Servicio de Salud Concepci\u00f3n - SAPU Lorenzo Arenas", "POINT_X": -73.073504, "POINT_Y": -36.809987}}, {"type": "Feature", "geometry": {"type": "Point", "coordinates": [-73.02294199999997, -36.807229999999954]}, "properties": {"CUT_REG": "08", "CUT_PROV": "081", "CUT_COM": "08101", "REGION": "Biob\u00edo", "PROVINCIA": "Concepci\u00f3n", "COMUNA": "Concepci\u00f3n", "variable": "Servicios de Salud", "Nombres": "No Aplica - Servicio M\u00e9dico Legal Concepci\u00f3n", "POINT_X": -73.022942, "POINT_Y": -36.80723}}, {"type": "Feature", "geometry": {"type": "Point", "coordinates": [-73.07995800000002, -36.80607800000003]}, "properties": {"CUT_REG": "08", "CUT_PROV": "081", "CUT_COM": "08112", "REGION": "Biob\u00edo", "PROVINCIA": "Concepci\u00f3n", "COMUNA": "Hualp\u00e9n", "variable": "Servicios de Salud", "Nombres": "Servicio de Salud Talcahuano - Centro Diurno para Personas con Demencia", "POINT_X": -73.079958, "POINT_Y": -36.806078}}, {"type": "Feature", "geometry": {"type": "Point", "coordinates": [-73.02292599999997, -36.80404800000002]}, "properties": {"CUT_REG": "08", "CUT_PROV": "081", "CUT_COM": "08101", "REGION": "Biob\u00edo", "PROVINCIA": "Concepci\u00f3n", "COMUNA": "Concepci\u00f3n", "variable": "Servicios de Salud", "Nombres": "SEREMI Del Biob\u00edo - Hospital de Centro de Cumplimiento Penitenciario Biob\u00edo", "POINT_X": -73.022926, "POINT_Y": -36.804048}}, {"type": "Feature", "geometry": {"type": "Point", "coordinates": [-73.02240800000001, -36.803897999999954]}, "properties": {"CUT_REG": "08", "CUT_PROV": "081", "CUT_COM": "08101", "REGION": "Biob\u00edo", "PROVINCIA": "Concepci\u00f3n", "COMUNA": "Concepci\u00f3n", "variable": "Servicios de Salud", "Nombres": "SEREMI Del Biob\u00edo - Centro Penitenciario", "POINT_X": -73.022408, "POINT_Y": -36.803898}}, {"type": "Feature", "geometry": {"type": "Point", "coordinates": [-73.08080600000002, -36.802013000000045]}, "properties": {"CUT_REG": "08", "CUT_PROV": "081", "CUT_COM": "08112", "REGION": "Biob\u00edo", "PROVINCIA": "Concepci\u00f3n", "COMUNA": "Hualp\u00e9n", "variable": "Servicios de Salud", "Nombres": "Servicio de Salud Talcahuano - Centro Comunitario de Salud Familiar Rene Schneider", "POINT_X": -73.080806, "POINT_Y": -36.802013}}, {"type": "Feature", "geometry": {"type": "Point", "coordinates": [-73.07189000000002, -36.800502999999985]}, "properties": {"CUT_REG": "08", "CUT_PROV": "081", "CUT_COM": "08112", "REGION": "Biob\u00edo", "PROVINCIA": "Concepci\u00f3n", "COMUNA": "Hualp\u00e9n", "variable": "Servicios de Salud", "Nombres": "SEREMI Del Biob\u00edo - Cl\u00ednica Andes Salud Concepci\u00f3n", "POINT_X": -73.07189, "POINT_Y": -36.800503}}, {"type": "Feature", "geometry": {"type": "Point", "coordinates": [-73.07189000000002, -36.800502999999985]}, "properties": {"CUT_REG": "08", "CUT_PROV": "081", "CUT_COM": "08112", "REGION": "Biob\u00edo", "PROVINCIA": "Concepci\u00f3n", "COMUNA": "Hualp\u00e9n", "variable": "Servicios de Salud", "Nombres": "SEREMI Del Biob\u00edo - Vacunatorio Cl\u00ednica Universitaria de Concepci\u00f3n", "POINT_X": -73.07189, "POINT_Y": -36.800503}}, {"type": "Feature", "geometry": {"type": "Point", "coordinates": [-73.10407699999999, -36.79900199999996]}, "properties": {"CUT_REG": "08", "CUT_PROV": "081", "CUT_COM": "08112", "REGION": "Biob\u00edo", "PROVINCIA": "Concepci\u00f3n", "COMUNA": "Hualp\u00e9n", "variable": "Servicios de Salud", "Nombres": "Servicio de Salud Talcahuano - Centro Comunitario de Salud Familiar Leoc\u00e1n Portus Govinden", "POINT_X": -73.104077, "POINT_Y": -36.799002}}, {"type": "Feature", "geometry": {"type": "Point", "coordinates": [-73.09059600000003, -36.798983999999976]}, "properties": {"CUT_REG": "08", "CUT_PROV": "081", "CUT_COM": "08112", "REGION": "Biob\u00edo", "PROVINCIA": "Concepci\u00f3n", "COMUNA": "Hualp\u00e9n", "variable": "Servicios de Salud", "Nombres": "Servicio de Salud Talcahuano - COSAM Hualp\u00e9n", "POINT_X": -73.090596, "POINT_Y": -36.798984}}, {"type": "Feature", "geometry": {"type": "Point", "coordinates": [-73.09680500000005, -36.798677999999974]}, "properties": {"CUT_REG": "08", "CUT_PROV": "081", "CUT_COM": "08112", "REGION": "Biob\u00edo", "PROVINCIA": "Concepci\u00f3n", "COMUNA": "Hualp\u00e9n", "variable": "Servicios de Salud", "Nombres": "Servicio de Salud Talcahuano - SAPU Talcahuano Sur", "POINT_X": -73.096805, "POINT_Y": -36.798678}}, {"type": "Feature", "geometry": {"type": "Point", "coordinates": [-73.09678899999996, -36.798470999999985]}, "properties": {"CUT_REG": "08", "CUT_PROV": "081", "CUT_COM": "08112", "REGION": "Biob\u00edo", "PROVINCIA": "Concepci\u00f3n", "COMUNA": "Hualp\u00e9n", "variable": "Servicios de Salud", "Nombres": "Servicio de Salud Talcahuano - Centro de Salud Familiar Talcahuano Sur", "POINT_X": -73.096789, "POINT_Y": -36.798471}}, {"type": "Feature", "geometry": {"type": "Point", "coordinates": [-73.06993400000002, -36.79388299999998]}, "properties": {"CUT_REG": "08", "CUT_PROV": "081", "CUT_COM": "08112", "REGION": "Biob\u00edo", "PROVINCIA": "Concepci\u00f3n", "COMUNA": "Hualp\u00e9n", "variable": "Servicios de Salud", "Nombres": "SEREMI Del Biob\u00edo - Cl\u00ednica de Atenci\u00f3n Ambulatoria Mutual de Seguridad CChC Hualp\u00e9n", "POINT_X": -73.069934, "POINT_Y": -36.793883}}, {"type": "Feature", "geometry": {"type": "Point", "coordinates": [-73.09047800000003, -36.79325799999996]}, "properties": {"CUT_REG": "08", "CUT_PROV": "081", "CUT_COM": "08112", "REGION": "Biob\u00edo", "PROVINCIA": "Concepci\u00f3n", "COMUNA": "Hualp\u00e9n", "variable": "Servicios de Salud", "Nombres": "Servicio de Salud Talcahuano - Centro Comunitario de Salud Familiar Llafkelen", "POINT_X": -73.090478, "POINT_Y": -36.793258}}, {"type": "Feature", "geometry": {"type": "Point", "coordinates": [-73.044228, -36.792375]}, "properties": {"CUT_REG": "08", "CUT_PROV": "081", "CUT_COM": "08101", "REGION": "Biob\u00edo", "PROVINCIA": "Concepci\u00f3n", "COMUNA": "Concepci\u00f3n", "variable": "Servicios de Salud", "Nombres": "Servicio de Salud Concepci\u00f3n - Centro de Salud Familiar Santa Sabina", "POINT_X": -73.044228, "POINT_Y": -36.792375}}, {"type": "Feature", "geometry": {"type": "Point", "coordinates": [-73.04410299999996, -36.792365999999966]}, "properties": {"CUT_REG": "08", "CUT_PROV": "081", "CUT_COM": "08101", "REGION": "Biob\u00edo", "PROVINCIA": "Concepci\u00f3n", "COMUNA": "Concepci\u00f3n", "variable": "Servicios de Salud", "Nombres": "Servicio de Salud Concepci\u00f3n - SAPU Santa Sabina", "POINT_X": -73.044103, "POINT_Y": -36.792366}}, {"type": "Feature", "geometry": {"type": "Point", "coordinates": [-73.11406299999996, -36.79184700000001]}, "properties": {"CUT_REG": "08", "CUT_PROV": "081", "CUT_COM": "08112", "REGION": "Biob\u00edo", "PROVINCIA": "Concepci\u00f3n", "COMUNA": "Hualp\u00e9n", "variable": "Servicios de Salud", "Nombres": "Servicio de Salud Talcahuano - SAPU La Floresta", "POINT_X": -73.114063, "POINT_Y": -36.791847}}, {"type": "Feature", "geometry": {"type": "Point", "coordinates": [-73.11382899999995, -36.79168200000004]}, "properties": {"CUT_REG": "08", "CUT_PROV": "081", "CUT_COM": "08112", "REGION": "Biob\u00edo", "PROVINCIA": "Concepci\u00f3n", "COMUNA": "Hualp\u00e9n", "variable": "Servicios de Salud", "Nombres": "Servicio de Salud Talcahuano - Centro de Salud Familiar La Floresta", "POINT_X": -73.113829, "POINT_Y": -36.791682}}, {"type": "Feature", "geometry": {"type": "Point", "coordinates": [-73.10708000000002, -36.79143300000004]}, "properties": {"CUT_REG": "08", "CUT_PROV": "081", "CUT_COM": "08112", "REGION": "Biob\u00edo", "PROVINCIA": "Concepci\u00f3n", "COMUNA": "Hualp\u00e9n", "variable": "Servicios de Salud", "Nombres": "Servicio de Salud Talcahuano - Centro Comunitario de Salud Familiar Espa\u00f1a", "POINT_X": -73.10708, "POINT_Y": -36.791433}}, {"type": "Feature", "geometry": {"type": "Point", "coordinates": [-73.06654000000003, -36.79083299999996]}, "properties": {"CUT_REG": "08", "CUT_PROV": "081", "CUT_COM": "08110", "REGION": "Biob\u00edo", "PROVINCIA": "Concepci\u00f3n", "COMUNA": "Talcahuano", "variable": "Servicios de Salud", "Nombres": "SEREMI Del Biob\u00edo - Centro Integram\u00e9dica del Tr\u00e9bol", "POINT_X": -73.06654, "POINT_Y": -36.790833}}, {"type": "Feature", "geometry": {"type": "Point", "coordinates": [-73.07974599999997, -36.78558700000004]}, "properties": {"CUT_REG": "08", "CUT_PROV": "081", "CUT_COM": "08112", "REGION": "Biob\u00edo", "PROVINCIA": "Concepci\u00f3n", "COMUNA": "Hualp\u00e9n", "variable": "Servicios de Salud", "Nombres": "Servicio de Salud Talcahuano - Centro Comunitario de Salud Familiar Parque Central", "POINT_X": -73.079746, "POINT_Y": -36.785587}}, {"type": "Feature", "geometry": {"type": "Point", "coordinates": [-73.06489999999997, -36.785500000000035]}, "properties": {"CUT_REG": "08", "CUT_PROV": "081", "CUT_COM": "08110", "REGION": "Biob\u00edo", "PROVINCIA": "Concepci\u00f3n", "COMUNA": "Talcahuano", "variable": "Servicios de Salud", "Nombres": "SEREMI Del Biob\u00edo - Hospital Instituto de Seguridad del Trabajo Talcahuano", "POINT_X": -73.0649, "POINT_Y": -36.7855}}, {"type": "Feature", "geometry": {"type": "Point", "coordinates": [-73.10371900000003, -36.78300999999998]}, "properties": {"CUT_REG": "08", "CUT_PROV": "081", "CUT_COM": "08112", "REGION": "Biob\u00edo", "PROVINCIA": "Concepci\u00f3n", "COMUNA": "Hualp\u00e9n", "variable": "Servicios de Salud", "Nombres": "Servicio de Salud Talcahuano - Centro de Salud Familiar Hualpencillo", "POINT_X": -73.103719, "POINT_Y": -36.78301}}, {"type": "Feature", "geometry": {"type": "Point", "coordinates": [-73.10373099999995, -36.78279900000002]}, "properties": {"CUT_REG": "08", "CUT_PROV": "081", "CUT_COM": "08112", "REGION": "Biob\u00edo", "PROVINCIA": "Concepci\u00f3n", "COMUNA": "Hualp\u00e9n", "variable": "Servicios de Salud", "Nombres": "Servicio de Salud Talcahuano - SAR Hualpencillo", "POINT_X": -73.103731, "POINT_Y": -36.782799}}, {"type": "Feature", "geometry": {"type": "Point", "coordinates": [-73.103579, -36.78279499999996]}, "properties": {"CUT_REG": "08", "CUT_PROV": "081", "CUT_COM": "08112", "REGION": "Biob\u00edo", "PROVINCIA": "Concepci\u00f3n", "COMUNA": "Hualp\u00e9n", "variable": "Servicios de Salud", "Nombres": "Servicio de Salud Talcahuano - SAPU Dental Hualp\u00e9n", "POINT_X": -73.103579, "POINT_Y": -36.782795}}, {"type": "Feature", "geometry": {"type": "Point", "coordinates": [-73.09858399999997, -36.77874599999996]}, "properties": {"CUT_REG": "08", "CUT_PROV": "081", "CUT_COM": "08110", "REGION": "Biob\u00edo", "PROVINCIA": "Concepci\u00f3n", "COMUNA": "Talcahuano", "variable": "Servicios de Salud", "Nombres": "Servicio de Salud Talcahuano - Centro Comunitario de Salud Familiar 8 de Mayo", "POINT_X": -73.098584, "POINT_Y": -36.778746}}, {"type": "Feature", "geometry": {"type": "Point", "coordinates": [-73.09221099999998, -36.77836299999998]}, "properties": {"CUT_REG": "08", "CUT_PROV": "081", "CUT_COM": "08110", "REGION": "Biob\u00edo", "PROVINCIA": "Concepci\u00f3n", "COMUNA": "Talcahuano", "variable": "Servicios de Salud", "Nombres": "Servicio de Salud Talcahuano - Centro Comunitario de Salud Familiar Esmeralda", "POINT_X": -73.092211, "POINT_Y": -36.778363}}, {"type": "Feature", "geometry": {"type": "Point", "coordinates": [-73.02184, -36.77785600000004]}, "properties": {"CUT_REG": "08", "CUT_PROV": "081", "CUT_COM": "08107", "REGION": "Biob\u00edo", "PROVINCIA": "Concepci\u00f3n", "COMUNA": "Penco", "variable": "Servicios de Salud", "Nombres": "Servicio de Salud Talcahuano - Centro Comunitario de Salud Familiar Cosmito", "POINT_X": -73.02184, "POINT_Y": -36.777856}}, {"type": "Feature", "geometry": {"type": "Point", "coordinates": [-73.04931999999997, -36.76653999999998]}, "properties": {"CUT_REG": "08", "CUT_PROV": "081", "CUT_COM": "08110", "REGION": "Biob\u00edo", "PROVINCIA": "Concepci\u00f3n", "COMUNA": "Talcahuano", "variable": "Servicios de Salud", "Nombres": "SEREMI Del Biob\u00edo - Cl\u00ednica Bio Bio", "POINT_X": -73.04932, "POINT_Y": -36.76654}}, {"type": "Feature", "geometry": {"type": "Point", "coordinates": [-72.74209300000001, -36.75857299999999]}, "properties": {"CUT_REG": "08", "CUT_PROV": "081", "CUT_COM": "08104", "REGION": "Biob\u00edo", "PROVINCIA": "Concepci\u00f3n", "COMUNA": "Florida", "variable": "Servicios de Salud", "Nombres": "Servicio de Salud Concepci\u00f3n - Posta de Salud Rural Manco", "POINT_X": -72.742093, "POINT_Y": -36.758573}}, {"type": "Feature", "geometry": {"type": "Point", "coordinates": [-72.79205299999995, -36.753130000000034]}, "properties": {"CUT_REG": "08", "CUT_PROV": "081", "CUT_COM": "08104", "REGION": "Biob\u00edo", "PROVINCIA": "Concepci\u00f3n", "COMUNA": "Florida", "variable": "Servicios de Salud", "Nombres": "Servicio de Salud Concepci\u00f3n - Posta de Salud Rural Roa", "POINT_X": -72.792053, "POINT_Y": -36.75313}}, {"type": "Feature", "geometry": {"type": "Point", "coordinates": [-73.10194299999998, -36.750884000000006]}, "properties": {"CUT_REG": "08", "CUT_PROV": "081", "CUT_COM": "08110", "REGION": "Biob\u00edo", "PROVINCIA": "Concepci\u00f3n", "COMUNA": "Talcahuano", "variable": "Servicios de Salud", "Nombres": "Servicio de Salud Talcahuano - Centro de Salud Familiar Paulina Avenda\u00f1o Pereda", "POINT_X": -73.101943, "POINT_Y": -36.750884}}, {"type": "Feature", "geometry": {"type": "Point", "coordinates": [-73.10169499999998, -36.75066000000003]}, "properties": {"CUT_REG": "08", "CUT_PROV": "081", "CUT_COM": "08110", "REGION": "Biob\u00edo", "PROVINCIA": "Concepci\u00f3n", "COMUNA": "Talcahuano", "variable": "Servicios de Salud", "Nombres": "Servicio de Salud Talcahuano - SAPU Paulina Avenda\u00f1o Pereda", "POINT_X": -73.101695, "POINT_Y": -36.75066}}, {"type": "Feature", "geometry": {"type": "Point", "coordinates": [-73.10451000000002, -36.74756999999998]}, "properties": {"CUT_REG": "08", "CUT_PROV": "081", "CUT_COM": "08110", "REGION": "Biob\u00edo", "PROVINCIA": "Concepci\u00f3n", "COMUNA": "Talcahuano", "variable": "Servicios de Salud", "Nombres": "SEREMI Del Biob\u00edo - Laboratorio Cl\u00ednico YUEN", "POINT_X": -73.10451, "POINT_Y": -36.74757}}, {"type": "Feature", "geometry": {"type": "Point", "coordinates": [-73.08846799999999, -36.74421500000003]}, "properties": {"CUT_REG": "08", "CUT_PROV": "081", "CUT_COM": "08110", "REGION": "Biob\u00edo", "PROVINCIA": "Concepci\u00f3n", "COMUNA": "Talcahuano", "variable": "Servicios de Salud", "Nombres": "Servicio de Salud Talcahuano - Centro de Salud Familiar Alcalde Leoc\u00e1n Portus", "POINT_X": -73.088468, "POINT_Y": -36.744215}}, {"type": "Feature", "geometry": {"type": "Point", "coordinates": [-73.08827500000001, -36.74390800000003]}, "properties": {"CUT_REG": "08", "CUT_PROV": "081", "CUT_COM": "08110", "REGION": "Biob\u00edo", "PROVINCIA": "Concepci\u00f3n", "COMUNA": "Talcahuano", "variable": "Servicios de Salud", "Nombres": "Servicio de Salud Talcahuano - SAPU Alcalde Leoc\u00e1n Portus", "POINT_X": -73.088275, "POINT_Y": -36.743908}}, {"type": "Feature", "geometry": {"type": "Point", "coordinates": [-73.00490699999997, -36.74369100000002]}, "properties": {"CUT_REG": "08", "CUT_PROV": "081", "CUT_COM": "08107", "REGION": "Biob\u00edo", "PROVINCIA": "Concepci\u00f3n", "COMUNA": "Penco", "variable": "Servicios de Salud", "Nombres": "Servicio de Salud Talcahuano - Centro Comunitario de Salud Familiar Los Forjadores", "POINT_X": -73.004907, "POINT_Y": -36.743691}}, {"type": "Feature", "geometry": {"type": "Point", "coordinates": [-72.99034899999998, -36.74278500000002]}, "properties": {"CUT_REG": "08", "CUT_PROV": "081", "CUT_COM": "08107", "REGION": "Biob\u00edo", "PROVINCIA": "Concepci\u00f3n", "COMUNA": "Penco", "variable": "Servicios de Salud", "Nombres": "Servicio de Salud Talcahuano - SAR Penco", "POINT_X": -72.990349, "POINT_Y": -36.742785}}, {"type": "Feature", "geometry": {"type": "Point", "coordinates": [-73.09862999999996, -36.74220899999997]}, "properties": {"CUT_REG": "08", "CUT_PROV": "081", "CUT_COM": "08110", "REGION": "Biob\u00edo", "PROVINCIA": "Concepci\u00f3n", "COMUNA": "Talcahuano", "variable": "Servicios de Salud", "Nombres": "SEREMI Del Biob\u00edo - Centro Odontol\u00f3gico Uno Salud Dental Talcahuano", "POINT_X": -73.09863, "POINT_Y": -36.742209}}, {"type": "Feature", "geometry": {"type": "Point", "coordinates": [-73.099162, -36.74121299999998]}, "properties": {"CUT_REG": "08", "CUT_PROV": "081", "CUT_COM": "08110", "REGION": "Biob\u00edo", "PROVINCIA": "Concepci\u00f3n", "COMUNA": "Talcahuano", "variable": "Servicios de Salud", "Nombres": "SEREMI Del Biob\u00edo - Policl\u00ednico de la Asociaci\u00f3n Chilena de Seguridad Talcahuano", "POINT_X": -73.099162, "POINT_Y": -36.741213}}, {"type": "Feature", "geometry": {"type": "Point", "coordinates": [-73.10869399999999, -36.74010099999999]}, "properties": {"CUT_REG": "08", "CUT_PROV": "081", "CUT_COM": "08110", "REGION": "Biob\u00edo", "PROVINCIA": "Concepci\u00f3n", "COMUNA": "Talcahuano", "variable": "Servicios de Salud", "Nombres": "Servicio de Salud Talcahuano - Hospital Las Higueras (Talcahuano)", "POINT_X": -73.108694, "POINT_Y": -36.740101}}, {"type": "Feature", "geometry": {"type": "Point", "coordinates": [-73.10869399999999, -36.74010099999999]}, "properties": {"CUT_REG": "08", "CUT_PROV": "081", "CUT_COM": "08110", "REGION": "Biob\u00edo", "PROVINCIA": "Concepci\u00f3n", "COMUNA": "Talcahuano", "variable": "Servicios de Salud", "Nombres": "Servicio de Salud Talcahuano - PRAIS (S.S Talcahuano)", "POINT_X": -73.108694, "POINT_Y": -36.740101}}, {"type": "Feature", "geometry": {"type": "Point", "coordinates": [-73.10869399999999, -36.74010099999999]}, "properties": {"CUT_REG": "08", "CUT_PROV": "081", "CUT_COM": "08110", "REGION": "Biob\u00edo", "PROVINCIA": "Concepci\u00f3n", "COMUNA": "Talcahuano", "variable": "Servicios de Salud", "Nombres": "Servicio de Salud Talcahuano - Unidad de Salud Funcionario  S.S Talcahuano", "POINT_X": -73.108694, "POINT_Y": -36.740101}}, {"type": "Feature", "geometry": {"type": "Point", "coordinates": [-72.99038900000001, -36.738448]}, "properties": {"CUT_REG": "08", "CUT_PROV": "081", "CUT_COM": "08107", "REGION": "Biob\u00edo", "PROVINCIA": "Concepci\u00f3n", "COMUNA": "Penco", "variable": "Servicios de Salud", "Nombres": "Servicio de Salud Talcahuano - Centro de Salud Familiar Penco", "POINT_X": -72.990389, "POINT_Y": -36.738448}}, {"type": "Feature", "geometry": {"type": "Point", "coordinates": [-72.99097100000003, -36.73698999999998]}, "properties": {"CUT_REG": "08", "CUT_PROV": "081", "CUT_COM": "08107", "REGION": "Biob\u00edo", "PROVINCIA": "Concepci\u00f3n", "COMUNA": "Penco", "variable": "Servicios de Salud", "Nombres": "SEREMI Del Biob\u00edo - Laboratorio Cl\u00ednico ITAMED", "POINT_X": -72.990971, "POINT_Y": -36.73699}}, {"type": "Feature", "geometry": {"type": "Point", "coordinates": [-73.11346399999996, -36.734885999999975]}, "properties": {"CUT_REG": "08", "CUT_PROV": "081", "CUT_COM": "08110", "REGION": "Biob\u00edo", "PROVINCIA": "Concepci\u00f3n", "COMUNA": "Talcahuano", "variable": "Servicios de Salud", "Nombres": "Servicio de Salud Talcahuano - Centro Comunitario de Salud Familiar Libertad Gaete", "POINT_X": -73.113464, "POINT_Y": -36.734886}}, {"type": "Feature", "geometry": {"type": "Point", "coordinates": [-73.12332999999995, -36.72378500000003]}, "properties": {"CUT_REG": "08", "CUT_PROV": "081", "CUT_COM": "08110", "REGION": "Biob\u00edo", "PROVINCIA": "Concepci\u00f3n", "COMUNA": "Talcahuano", "variable": "Servicios de Salud", "Nombres": "Servicio de Salud Talcahuano - Centro de Salud Familiar San Vicente", "POINT_X": -73.12333, "POINT_Y": -36.723785}}, {"type": "Feature", "geometry": {"type": "Point", "coordinates": [-73.122883, -36.723746]}, "properties": {"CUT_REG": "08", "CUT_PROV": "081", "CUT_COM": "08110", "REGION": "Biob\u00edo", "PROVINCIA": "Concepci\u00f3n", "COMUNA": "Talcahuano", "variable": "Servicios de Salud", "Nombres": "Servicio de Salud Talcahuano - SAR San Vicente", "POINT_X": -73.122883, "POINT_Y": -36.723746}}, {"type": "Feature", "geometry": {"type": "Point", "coordinates": [-73.14301199999997, -36.72301899999998]}, "properties": {"CUT_REG": "08", "CUT_PROV": "081", "CUT_COM": "08110", "REGION": "Biob\u00edo", "PROVINCIA": "Concepci\u00f3n", "COMUNA": "Talcahuano", "variable": "Servicios de Salud", "Nombres": "Servicio de Salud Talcahuano - Centro Comunitario de Salud Familiar Los Lobos la Gloria", "POINT_X": -73.143012, "POINT_Y": -36.723019}}, {"type": "Feature", "geometry": {"type": "Point", "coordinates": [-73.111279, -36.72294699999997]}, "properties": {"CUT_REG": "08", "CUT_PROV": "081", "CUT_COM": "08110", "REGION": "Biob\u00edo", "PROVINCIA": "Concepci\u00f3n", "COMUNA": "Talcahuano", "variable": "Servicios de Salud", "Nombres": "Servicio de Salud Talcahuano - Actividades gestionadas por la Direcci\u00f3n del Servicio para apoyo de la Red (S.S de Talcahuano)", "POINT_X": -73.111279, "POINT_Y": -36.722947}}, {"type": "Feature", "geometry": {"type": "Point", "coordinates": [-72.97545200000002, -36.719574000000044]}, "properties": {"CUT_REG": "08", "CUT_PROV": "081", "CUT_COM": "08107", "REGION": "Biob\u00edo", "PROVINCIA": "Concepci\u00f3n", "COMUNA": "Penco", "variable": "Servicios de Salud", "Nombres": "Servicio de Salud Talcahuano - Hospital Penco Lirqu\u00e9n", "POINT_X": -72.975452, "POINT_Y": -36.719574}}, {"type": "Feature", "geometry": {"type": "Point", "coordinates": [-72.97515399999996, -36.71890400000003]}, "properties": {"CUT_REG": "08", "CUT_PROV": "081", "CUT_COM": "08107", "REGION": "Biob\u00edo", "PROVINCIA": "Concepci\u00f3n", "COMUNA": "Penco", "variable": "Servicios de Salud", "Nombres": "Servicio de Salud Talcahuano - Centro de Salud Familiar Lirqu\u00e9n", "POINT_X": -72.975154, "POINT_Y": -36.718904}}, {"type": "Feature", "geometry": {"type": "Point", "coordinates": [-73.13486999999998, -36.71454099999999]}, "properties": {"CUT_REG": "08", "CUT_PROV": "081", "CUT_COM": "08110", "REGION": "Biob\u00edo", "PROVINCIA": "Concepci\u00f3n", "COMUNA": "Talcahuano", "variable": "Servicios de Salud", "Nombres": "Servicio de Salud Talcahuano - SAPU Los Cerros", "POINT_X": -73.13487, "POINT_Y": -36.714541}}, {"type": "Feature", "geometry": {"type": "Point", "coordinates": [-73.13516799999994, -36.714531999999956]}, "properties": {"CUT_REG": "08", "CUT_PROV": "081", "CUT_COM": "08110", "REGION": "Biob\u00edo", "PROVINCIA": "Concepci\u00f3n", "COMUNA": "Talcahuano", "variable": "Servicios de Salud", "Nombres": "Servicio de Salud Talcahuano - Centro de Salud Familiar Los Cerros", "POINT_X": -73.135168, "POINT_Y": -36.714532}}, {"type": "Feature", "geometry": {"type": "Point", "coordinates": [-73.13514999999997, -36.714481]}, "properties": {"CUT_REG": "08", "CUT_PROV": "081", "CUT_COM": "08110", "REGION": "Biob\u00edo", "PROVINCIA": "Concepci\u00f3n", "COMUNA": "Talcahuano", "variable": "Servicios de Salud", "Nombres": "Servicio de Salud Talcahuano - SAR Los Cerros", "POINT_X": -73.13515, "POINT_Y": -36.714481}}, {"type": "Feature", "geometry": {"type": "Point", "coordinates": [-73.13830599999997, -36.71136600000001]}, "properties": {"CUT_REG": "08", "CUT_PROV": "081", "CUT_COM": "08110", "REGION": "Biob\u00edo", "PROVINCIA": "Concepci\u00f3n", "COMUNA": "Talcahuano", "variable": "Servicios de Salud", "Nombres": "Servicio de Salud Talcahuano - COSAM Los Cerros", "POINT_X": -73.138306, "POINT_Y": -36.711366}}, {"type": "Feature", "geometry": {"type": "Point", "coordinates": [-73.145257, -36.710465999999975]}, "properties": {"CUT_REG": "08", "CUT_PROV": "081", "CUT_COM": "08110", "REGION": "Biob\u00edo", "PROVINCIA": "Concepci\u00f3n", "COMUNA": "Talcahuano", "variable": "Servicios de Salud", "Nombres": "Servicio de Salud Talcahuano - Centro Comunitario de Salud Familiar Villa Centinela", "POINT_X": -73.145257, "POINT_Y": -36.710466}}, {"type": "Feature", "geometry": {"type": "Point", "coordinates": [-72.676784, -36.708185999999976]}, "properties": {"CUT_REG": "08", "CUT_PROV": "081", "CUT_COM": "08104", "REGION": "Biob\u00edo", "PROVINCIA": "Concepci\u00f3n", "COMUNA": "Florida", "variable": "Servicios de Salud", "Nombres": "Servicio de Salud Concepci\u00f3n - Posta de Salud Rural Granerillos", "POINT_X": -72.676784, "POINT_Y": -36.708186}}, {"type": "Feature", "geometry": {"type": "Point", "coordinates": [-72.97237499999997, -36.70457399999999]}, "properties": {"CUT_REG": "08", "CUT_PROV": "081", "CUT_COM": "08107", "REGION": "Biob\u00edo", "PROVINCIA": "Concepci\u00f3n", "COMUNA": "Penco", "variable": "Servicios de Salud", "Nombres": "Servicio de Salud Talcahuano - Centro Comunitario de Salud Familiar R\u00edos de Chile", "POINT_X": -72.972375, "POINT_Y": -36.704574}}, {"type": "Feature", "geometry": {"type": "Point", "coordinates": [-73.11908499999998, -36.69337100000004]}, "properties": {"CUT_REG": "08", "CUT_PROV": "081", "CUT_COM": "08110", "REGION": "Biob\u00edo", "PROVINCIA": "Concepci\u00f3n", "COMUNA": "Talcahuano", "variable": "Servicios de Salud", "Nombres": "Servicio de Salud Talcahuano - Buque Talcahuano", "POINT_X": -73.119085, "POINT_Y": -36.693371}}, {"type": "Feature", "geometry": {"type": "Point", "coordinates": [-73.11421999999999, -36.690339999999985]}, "properties": {"CUT_REG": "08", "CUT_PROV": "081", "CUT_COM": "08110", "REGION": "Biob\u00edo", "PROVINCIA": "Concepci\u00f3n", "COMUNA": "Talcahuano", "variable": "Servicios de Salud", "Nombres": "SEREMI Del Biob\u00edo - Hospital Naval Almirante Adriazola", "POINT_X": -73.11422, "POINT_Y": -36.69034}}, {"type": "Feature", "geometry": {"type": "Point", "coordinates": [-72.96147900000003, -36.672953999999955]}, "properties": {"CUT_REG": "08", "CUT_PROV": "081", "CUT_COM": "08111", "REGION": "Biob\u00edo", "PROVINCIA": "Concepci\u00f3n", "COMUNA": "Tom\u00e9", "variable": "Servicios de Salud", "Nombres": "Servicio de Salud Talcahuano - Centro Comunitario de Salud Familiar Punta de Parra", "POINT_X": -72.961479, "POINT_Y": -36.672954}}, {"type": "Feature", "geometry": {"type": "Point", "coordinates": [-73.09590599999999, -36.639094000000036]}, "properties": {"CUT_REG": "08", "CUT_PROV": "081", "CUT_COM": "08110", "REGION": "Biob\u00edo", "PROVINCIA": "Concepci\u00f3n", "COMUNA": "Talcahuano", "variable": "Servicios de Salud", "Nombres": "Servicio de Salud Talcahuano - Posta de Salud Rural Tumbes", "POINT_X": -73.095906, "POINT_Y": -36.639094}}, {"type": "Feature", "geometry": {"type": "Point", "coordinates": [-72.951867, -36.63459099999996]}, "properties": {"CUT_REG": "08", "CUT_PROV": "081", "CUT_COM": "08111", "REGION": "Biob\u00edo", "PROVINCIA": "Concepci\u00f3n", "COMUNA": "Tom\u00e9", "variable": "Servicios de Salud", "Nombres": "Servicio de Salud Talcahuano - Centro de Salud Familiar Bellavista", "POINT_X": -72.951867, "POINT_Y": -36.634591}}, {"type": "Feature", "geometry": {"type": "Point", "coordinates": [-72.95160000000001, -36.63453400000004]}, "properties": {"CUT_REG": "08", "CUT_PROV": "081", "CUT_COM": "08111", "REGION": "Biob\u00edo", "PROVINCIA": "Concepci\u00f3n", "COMUNA": "Tom\u00e9", "variable": "Servicios de Salud", "Nombres": "Servicio de Salud Talcahuano - SAPU Bellavista", "POINT_X": -72.9516, "POINT_Y": -36.634534}}, {"type": "Feature", "geometry": {"type": "Point", "coordinates": [-72.79366300000002, -36.629392000000024]}, "properties": {"CUT_REG": "08", "CUT_PROV": "081", "CUT_COM": "08111", "REGION": "Biob\u00edo", "PROVINCIA": "Concepci\u00f3n", "COMUNA": "Tom\u00e9", "variable": "Servicios de Salud", "Nombres": "Servicio de Salud Talcahuano - Posta de Salud Rural Rafael", "POINT_X": -72.793663, "POINT_Y": -36.629392}}, {"type": "Feature", "geometry": {"type": "Point", "coordinates": [-72.93897099999995, -36.616805999999954]}, "properties": {"CUT_REG": "08", "CUT_PROV": "081", "CUT_COM": "08111", "REGION": "Biob\u00edo", "PROVINCIA": "Concepci\u00f3n", "COMUNA": "Tom\u00e9", "variable": "Servicios de Salud", "Nombres": "Servicio de Salud Talcahuano - Centro Comunitario de Salud Familiar El Santo Esfuerzo de Todos", "POINT_X": -72.938971, "POINT_Y": -36.616806}}, {"type": "Feature", "geometry": {"type": "Point", "coordinates": [-72.954554, -36.61332299999999]}, "properties": {"CUT_REG": "08", "CUT_PROV": "081", "CUT_COM": "08111", "REGION": "Biob\u00edo", "PROVINCIA": "Concepci\u00f3n", "COMUNA": "Tom\u00e9", "variable": "Servicios de Salud", "Nombres": "Servicio de Salud Talcahuano - Hospital de Tom\u00e9", "POINT_X": -72.954554, "POINT_Y": -36.613323}}, {"type": "Feature", "geometry": {"type": "Point", "coordinates": [-72.945625, -36.60963200000003]}, "properties": {"CUT_REG": "08", "CUT_PROV": "081", "CUT_COM": "08111", "REGION": "Biob\u00edo", "PROVINCIA": "Concepci\u00f3n", "COMUNA": "Tom\u00e9", "variable": "Servicios de Salud", "Nombres": "Servicio de Salud Talcahuano - Centro Comunitario de Salud Familiar Cerro Estanque", "POINT_X": -72.945625, "POINT_Y": -36.609632}}, {"type": "Feature", "geometry": {"type": "Point", "coordinates": [-72.96089200000003, -36.600646000000026]}, "properties": {"CUT_REG": "08", "CUT_PROV": "081", "CUT_COM": "08111", "REGION": "Biob\u00edo", "PROVINCIA": "Concepci\u00f3n", "COMUNA": "Tom\u00e9", "variable": "Servicios de Salud", "Nombres": "Servicio de Salud Talcahuano - SAR Dr. Alberto Reyes", "POINT_X": -72.960892, "POINT_Y": -36.600646}}, {"type": "Feature", "geometry": {"type": "Point", "coordinates": [-72.96080900000001, -36.600374999999985]}, "properties": {"CUT_REG": "08", "CUT_PROV": "081", "CUT_COM": "08111", "REGION": "Biob\u00edo", "PROVINCIA": "Concepci\u00f3n", "COMUNA": "Tom\u00e9", "variable": "Servicios de Salud", "Nombres": "Servicio de Salud Talcahuano - Centro de Salud Familiar Dr. Alberto Reyes", "POINT_X": -72.960809, "POINT_Y": -36.600375}}, {"type": "Feature", "geometry": {"type": "Point", "coordinates": [-72.95812399999998, -36.55613799999998]}, "properties": {"CUT_REG": "08", "CUT_PROV": "081", "CUT_COM": "08111", "REGION": "Biob\u00edo", "PROVINCIA": "Concepci\u00f3n", "COMUNA": "Tom\u00e9", "variable": "Servicios de Salud", "Nombres": "Servicio de Salud Talcahuano - Posta de Salud Rural Coliumo", "POINT_X": -72.958124, "POINT_Y": -36.556138}}, {"type": "Feature", "geometry": {"type": "Point", "coordinates": [-72.86499600000002, -36.55479399999998]}, "properties": {"CUT_REG": "08", "CUT_PROV": "081", "CUT_COM": "08111", "REGION": "Biob\u00edo", "PROVINCIA": "Concepci\u00f3n", "COMUNA": "Tom\u00e9", "variable": "Servicios de Salud", "Nombres": "Servicio de Salud Talcahuano - Posta de Salud Rural Menque", "POINT_X": -72.864996, "POINT_Y": -36.554794}}, {"type": "Feature", "geometry": {"type": "Point", "coordinates": [-72.93985899999997, -36.54932899999997]}, "properties": {"CUT_REG": "08", "CUT_PROV": "081", "CUT_COM": "08111", "REGION": "Biob\u00edo", "PROVINCIA": "Concepci\u00f3n", "COMUNA": "Tom\u00e9", "variable": "Servicios de Salud", "Nombres": "Servicio de Salud Talcahuano - Centro de Salud Familiar Dichato", "POINT_X": -72.939859, "POINT_Y": -36.549329}}, {"type": "Feature", "geometry": {"type": "Point", "coordinates": [-72.93985899999997, -36.54932899999997]}, "properties": {"CUT_REG": "08", "CUT_PROV": "081", "CUT_COM": "08111", "REGION": "Biob\u00edo", "PROVINCIA": "Concepci\u00f3n", "COMUNA": "Tom\u00e9", "variable": "Servicios de Salud", "Nombres": "Servicio de Salud Talcahuano - SUR Dichato", "POINT_X": -72.939859, "POINT_Y": -36.549329}}]}