{"type": "FeatureCollection", "features": [{"type": "Feature", "geometry": {"type": "Point", "coordinates": [-72.53403612419999, -36.60620174169996]}, "properties": {"CUT_REG": "16", "CUT_PROV": "162", "CUT_COM": "16206", "REGION": "\u00d1uble", "PROVINCIA": "Itata", "COMUNA": "Ranquil", "variable": "Estaci\u00f3n de Carabineros", "Nombres": "RETEN - RETEN NIPAS", "POINT_X": -72.5340361242, "POINT_Y": -36.6062017417}}, {"type": "Feature", "geometry": {"type": "Point", "coordinates": [-72.69975893699998, -36.56945995500001]}, "properties": {"CUT_REG": "16", "CUT_PROV": "162", "CUT_COM": "16203", "REGION": "\u00d1uble", "PROVINCIA": "Itata", "COMUNA": "Coelemu", "variable": "Estaci\u00f3n de Carabineros", "Nombres": "RETEN - RETEN GUARILIHUE", "POINT_X": -72.699758937, "POINT_Y": -36.569459955}}, {"type": "Feature", "geometry": {"type": "Point", "coordinates": [-72.42706363599999, -36.527994444]}, "properties": {"CUT_REG": "16", "CUT_PROV": "162", "CUT_COM": "16205", "REGION": "\u00d1uble", "PROVINCIA": "Itata", "COMUNA": "Portezuelo", "variable": "Estaci\u00f3n de Carabineros", "Nombres": "RETEN - RETEN PORTEZUELO", "POINT_X": -72.427063636, "POINT_Y": -36.527994444}}, {"type": "Feature", "geometry": {"type": "Point", "coordinates": [-72.70052710000003, -36.486224106999984]}, "properties": {"CUT_REG": "16", "CUT_PROV": "162", "CUT_COM": "16203", "REGION": "\u00d1uble", "PROVINCIA": "Itata", "COMUNA": "Coelemu", "variable": "Estaci\u00f3n de Carabineros", "Nombres": "SUBCOMISARIA - SCOM. COELEMU", "POINT_X": -72.7005271, "POINT_Y": -36.486224107}}, {"type": "Feature", "geometry": {"type": "Point", "coordinates": [-72.66772249739998, -36.43065412480001]}, "properties": {"CUT_REG": "16", "CUT_PROV": "162", "CUT_COM": "16207", "REGION": "\u00d1uble", "PROVINCIA": "Itata", "COMUNA": "Treguaco", "variable": "Estaci\u00f3n de Carabineros", "Nombres": "RETEN - RETEN TREHUACO", "POINT_X": -72.6677224974, "POINT_Y": -36.4306541248}}, {"type": "Feature", "geometry": {"type": "Point", "coordinates": [-72.85107015900002, -36.40209330599998]}, "properties": {"CUT_REG": "16", "CUT_PROV": "162", "CUT_COM": "16203", "REGION": "\u00d1uble", "PROVINCIA": "Itata", "COMUNA": "Coelemu", "variable": "Estaci\u00f3n de Carabineros", "Nombres": "RETEN - RETEN VEGAS DE ITATA", "POINT_X": -72.851070159, "POINT_Y": -36.402093306}}, {"type": "Feature", "geometry": {"type": "Point", "coordinates": [-72.39711282099995, -36.394387159]}, "properties": {"CUT_REG": "16", "CUT_PROV": "162", "CUT_COM": "16204", "REGION": "\u00d1uble", "PROVINCIA": "Itata", "COMUNA": "Ninhue", "variable": "Estaci\u00f3n de Carabineros", "Nombres": "RETEN - RETEN NINHUE", "POINT_X": -72.397112821, "POINT_Y": -36.394387159}}, {"type": "Feature", "geometry": {"type": "Point", "coordinates": [-72.53982788910002, -36.28186419090004]}, "properties": {"CUT_REG": "16", "CUT_PROV": "162", "CUT_COM": "16201", "REGION": "\u00d1uble", "PROVINCIA": "Itata", "COMUNA": "Quirihue", "variable": "Estaci\u00f3n de Carabineros", "Nombres": "COMISARIA - 5TA. COM. QUIRIHUE", "POINT_X": -72.5398278891, "POINT_Y": -36.2818641909}}, {"type": "Feature", "geometry": {"type": "Point", "coordinates": [-72.79450713299997, -36.13069857899996]}, "properties": {"CUT_REG": "16", "CUT_PROV": "162", "CUT_COM": "16202", "REGION": "\u00d1uble", "PROVINCIA": "Itata", "COMUNA": "Cobquecura", "variable": "Estaci\u00f3n de Carabineros", "Nombres": "RETEN - RETEN COBQUECURA", "POINT_X": -72.794507133, "POINT_Y": -36.130698579}}]}