{"type": "FeatureCollection", "features": [{"type": "Feature", "geometry": {"type": "Point", "coordinates": [-67.44144431399998, -23.825255337999955]}, "properties": {"CUT_REG": "02", "CUT_PROV": "022", "CUT_COM": "02203", "REGION": "Antofagasta", "PROVINCIA": "El Loa", "COMUNA": "San Pedro de Atacama", "variable": "Estaci\u00f3n de Carabineros", "Nombres": "RETEN - RETEN SOCAIRE (T. F.)", "POINT_X": -67.441444314, "POINT_Y": -23.825255338}}, {"type": "Feature", "geometry": {"type": "Point", "coordinates": [-68.00555579900002, -23.18602273000002]}, "properties": {"CUT_REG": "02", "CUT_PROV": "022", "CUT_COM": "02203", "REGION": "Antofagasta", "PROVINCIA": "El Loa", "COMUNA": "San Pedro de Atacama", "variable": "Estaci\u00f3n de Carabineros", "Nombres": "RETEN - RETEN TOCONAO (F)", "POINT_X": -68.005555799, "POINT_Y": -23.18602273}}, {"type": "Feature", "geometry": {"type": "Point", "coordinates": [-68.20050595099997, -22.91061127000001]}, "properties": {"CUT_REG": "02", "CUT_PROV": "022", "CUT_COM": "02203", "REGION": "Antofagasta", "PROVINCIA": "El Loa", "COMUNA": "San Pedro de Atacama", "variable": "Estaci\u00f3n de Carabineros", "Nombres": "COMISARIA - 2DA. COM. SAN PEDRO ATACAMA (F)", "POINT_X": -68.200505951, "POINT_Y": -22.91061127}}, {"type": "Feature", "geometry": {"type": "Point", "coordinates": [-68.05837300000003, -22.497450999999984]}, "properties": {"CUT_REG": "02", "CUT_PROV": "022", "CUT_COM": "02203", "REGION": "Antofagasta", "PROVINCIA": "El Loa", "COMUNA": "San Pedro de Atacama", "variable": "Estaci\u00f3n de Carabineros", "Nombres": "RETEN - RETEN TOCORPURI (F)", "POINT_X": -68.058373, "POINT_Y": -22.497451}}, {"type": "Feature", "geometry": {"type": "Point", "coordinates": [-68.92949000000002, -22.45635999999996]}, "properties": {"CUT_REG": "02", "CUT_PROV": "022", "CUT_COM": "02201", "REGION": "Antofagasta", "PROVINCIA": "El Loa", "COMUNA": "Calama", "variable": "Estaci\u00f3n de Carabineros", "Nombres": "COMISARIA - 1RA. COM. CALAMA", "POINT_X": -68.92949, "POINT_Y": -22.45636}}, {"type": "Feature", "geometry": {"type": "Point", "coordinates": [-68.166209401, -22.264487196999987]}, "properties": {"CUT_REG": "02", "CUT_PROV": "022", "CUT_COM": "02201", "REGION": "Antofagasta", "PROVINCIA": "El Loa", "COMUNA": "Calama", "variable": "Estaci\u00f3n de Carabineros", "Nombres": "RETEN - RETEN TOCONCE (F)", "POINT_X": -68.166209401, "POINT_Y": -22.264487197}}, {"type": "Feature", "geometry": {"type": "Point", "coordinates": [-68.06666895499997, -22.028065764999987]}, "properties": {"CUT_REG": "02", "CUT_PROV": "022", "CUT_COM": "02201", "REGION": "Antofagasta", "PROVINCIA": "El Loa", "COMUNA": "Calama", "variable": "Estaci\u00f3n de Carabineros", "Nombres": "RETEN - RETEN INACALIRI (F)", "POINT_X": -68.066668955, "POINT_Y": -22.028065765}}, {"type": "Feature", "geometry": {"type": "Point", "coordinates": [-68.27544348399996, -21.725129220000014]}, "properties": {"CUT_REG": "02", "CUT_PROV": "022", "CUT_COM": "02202", "REGION": "Antofagasta", "PROVINCIA": "El Loa", "COMUNA": "Ollag\u00fce", "variable": "Estaci\u00f3n de Carabineros", "Nombres": "RETEN - RETEN ASCOTAN (F)", "POINT_X": -68.275443484, "POINT_Y": -21.72512922}}, {"type": "Feature", "geometry": {"type": "Point", "coordinates": [-68.25185298900001, -21.22356934500001]}, "properties": {"CUT_REG": "02", "CUT_PROV": "022", "CUT_COM": "02202", "REGION": "Antofagasta", "PROVINCIA": "El Loa", "COMUNA": "Ollag\u00fce", "variable": "Estaci\u00f3n de Carabineros", "Nombres": "TENENCIA - TCIA. OLLAGUE (F)", "POINT_X": -68.251852989, "POINT_Y": -21.223569345}}]}