{"type": "FeatureCollection", "features": [{"type": "Feature", "geometry": {"type": "Point", "coordinates": [-69.90555386499997, -26.753322690000026]}, "properties": {"CUT_REG": "03", "CUT_PROV": "032", "CUT_COM": "03202", "REGION": "Atacama", "PROVINCIA": "Cha\u00f1aral", "COMUNA": "Diego de Almagro", "variable": "Estaci\u00f3n de Carabineros", "Nombres": "RETEN - RETEN INCA DE ORO", "POINT_X": -69.905553865, "POINT_Y": -26.75332269}}, {"type": "Feature", "geometry": {"type": "Point", "coordinates": [-70.31710615099999, -26.422001030999972]}, "properties": {"CUT_REG": "03", "CUT_PROV": "032", "CUT_COM": "03201", "REGION": "Atacama", "PROVINCIA": "Cha\u00f1aral", "COMUNA": "Cha\u00f1aral", "variable": "Estaci\u00f3n de Carabineros", "Nombres": "RETEN - RETEN EL SALADO", "POINT_X": -70.317106151, "POINT_Y": -26.422001031}}, {"type": "Feature", "geometry": {"type": "Point", "coordinates": [-70.04694703860002, -26.391768602999996]}, "properties": {"CUT_REG": "03", "CUT_PROV": "032", "CUT_COM": "03202", "REGION": "Atacama", "PROVINCIA": "Cha\u00f1aral", "COMUNA": "Diego de Almagro", "variable": "Estaci\u00f3n de Carabineros", "Nombres": "SUBCOMISARIA - SCOM. DIEGO DE ALMAGRO", "POINT_X": -70.0469470386, "POINT_Y": -26.391768603}}, {"type": "Feature", "geometry": {"type": "Point", "coordinates": [-70.62141202429996, -26.347364333300035]}, "properties": {"CUT_REG": "03", "CUT_PROV": "032", "CUT_COM": "03201", "REGION": "Atacama", "PROVINCIA": "Cha\u00f1aral", "COMUNA": "Cha\u00f1aral", "variable": "Estaci\u00f3n de Carabineros", "Nombres": "COMISARIA - 1RA. COM. CHANARAL", "POINT_X": -70.6214120243, "POINT_Y": -26.3473643333}}, {"type": "Feature", "geometry": {"type": "Point", "coordinates": [-69.62591905300002, -26.248946467999964]}, "properties": {"CUT_REG": "03", "CUT_PROV": "032", "CUT_COM": "03202", "REGION": "Atacama", "PROVINCIA": "Cha\u00f1aral", "COMUNA": "Diego de Almagro", "variable": "Estaci\u00f3n de Carabineros", "Nombres": "COMISARIA - 4TA. COM. EL SALVADOR", "POINT_X": -69.625919053, "POINT_Y": -26.248946468}}]}