{"type": "FeatureCollection", "features": [{"type": "Feature", "geometry": {"type": "Point", "coordinates": [-70.15399264699997, -28.97352209899998]}, "properties": {"CUT_REG": "03", "CUT_PROV": "033", "CUT_COM": "03302", "REGION": "Atacama", "PROVINCIA": "Huasco", "COMUNA": "Alto del Carmen", "variable": "Estaci\u00f3n de Carabineros", "Nombres": "RETEN - RETEN CONAY (F)", "POINT_X": -70.153992647, "POINT_Y": -28.973522099}}, {"type": "Feature", "geometry": {"type": "Point", "coordinates": [-70.89562166499998, -28.955199649000008]}, "properties": {"CUT_REG": "03", "CUT_PROV": "033", "CUT_COM": "03301", "REGION": "Atacama", "PROVINCIA": "Huasco", "COMUNA": "Vallenar", "variable": "Estaci\u00f3n de Carabineros", "Nombres": "RETEN - RETEN DOMEYKO (M.C.)", "POINT_X": -70.895621665, "POINT_Y": -28.955199649}}, {"type": "Feature", "geometry": {"type": "Point", "coordinates": [-70.46091786000001, -28.93433690399999]}, "properties": {"CUT_REG": "03", "CUT_PROV": "033", "CUT_COM": "03302", "REGION": "Atacama", "PROVINCIA": "Huasco", "COMUNA": "Alto del Carmen", "variable": "Estaci\u00f3n de Carabineros", "Nombres": "RETEN - RETEN SAN FELIX (F)", "POINT_X": -70.46091786, "POINT_Y": -28.934336904}}, {"type": "Feature", "geometry": {"type": "Point", "coordinates": [-70.28006999600001, -28.876756635999968]}, "properties": {"CUT_REG": "03", "CUT_PROV": "033", "CUT_COM": "03302", "REGION": "Atacama", "PROVINCIA": "Huasco", "COMUNA": "Alto del Carmen", "variable": "Estaci\u00f3n de Carabineros", "Nombres": "RETEN - RETEN EL TRANSITO", "POINT_X": -70.280069996, "POINT_Y": -28.876756636}}, {"type": "Feature", "geometry": {"type": "Point", "coordinates": [-70.4854964022, -28.754583708900036]}, "properties": {"CUT_REG": "03", "CUT_PROV": "033", "CUT_COM": "03302", "REGION": "Atacama", "PROVINCIA": "Huasco", "COMUNA": "Alto del Carmen", "variable": "Estaci\u00f3n de Carabineros", "Nombres": "TENENCIA - TCIA. ALTO DEL CARMEN", "POINT_X": -70.4854964022, "POINT_Y": -28.7545837089}}, {"type": "Feature", "geometry": {"type": "Point", "coordinates": [-70.76724719280003, -28.6279059002]}, "properties": {"CUT_REG": "03", "CUT_PROV": "033", "CUT_COM": "03301", "REGION": "Atacama", "PROVINCIA": "Huasco", "COMUNA": "Vallenar", "variable": "Estaci\u00f3n de Carabineros", "Nombres": "TENENCIA CARRETERAS - TENENCIA CARRETERA ATACAMA SUR", "POINT_X": -70.7672471928, "POINT_Y": -28.6279059002}}, {"type": "Feature", "geometry": {"type": "Point", "coordinates": [-70.75843840239999, -28.578082350800024]}, "properties": {"CUT_REG": "03", "CUT_PROV": "033", "CUT_COM": "03301", "REGION": "Atacama", "PROVINCIA": "Huasco", "COMUNA": "Vallenar", "variable": "Estaci\u00f3n de Carabineros", "Nombres": "COMISARIA - 3RA. COM. VALLENAR", "POINT_X": -70.7584384024, "POINT_Y": -28.5780823508}}, {"type": "Feature", "geometry": {"type": "Point", "coordinates": [-70.75008761559997, -28.576522996999984]}, "properties": {"CUT_REG": "03", "CUT_PROV": "033", "CUT_COM": "03301", "REGION": "Atacama", "PROVINCIA": "Huasco", "COMUNA": "Vallenar", "variable": "Estaci\u00f3n de Carabineros", "Nombres": "RETEN - RETEN CARAB. ALFREDO  ROZAS B.", "POINT_X": -70.7500876156, "POINT_Y": -28.576522997}}, {"type": "Feature", "geometry": {"type": "Point", "coordinates": [-71.07877681480001, -28.508591209800016]}, "properties": {"CUT_REG": "03", "CUT_PROV": "033", "CUT_COM": "03303", "REGION": "Atacama", "PROVINCIA": "Huasco", "COMUNA": "Freirina", "variable": "Estaci\u00f3n de Carabineros", "Nombres": "TENENCIA - TCIA. FREIRINA", "POINT_X": -71.0787768148, "POINT_Y": -28.5085912098}}, {"type": "Feature", "geometry": {"type": "Point", "coordinates": [-71.22524004760001, -28.46253194060003]}, "properties": {"CUT_REG": "03", "CUT_PROV": "033", "CUT_COM": "03304", "REGION": "Atacama", "PROVINCIA": "Huasco", "COMUNA": "Huasco", "variable": "Estaci\u00f3n de Carabineros", "Nombres": "SUBCOMISARIA - SCOM. HUASCO (M)", "POINT_X": -71.2252400476, "POINT_Y": -28.4625319406}}]}