{"type": "FeatureCollection", "features": [{"type": "Feature", "geometry": {"type": "Point", "coordinates": [-71.43881800000003, -33.055328]}, "properties": {"CUT_REG": "05", "CUT_PROV": "058", "CUT_COM": "05801", "REGION": "Valpara\u00edso", "PROVINCIA": "Marga Marga", "COMUNA": "Quilpu\u00e9", "variable": "Estaci\u00f3n de Carabineros", "Nombres": "COMISARIA - 2DA. COM. QUILPUE", "POINT_X": -71.438818, "POINT_Y": -33.055328}}, {"type": "Feature", "geometry": {"type": "Point", "coordinates": [-71.40482099999996, -33.04620199999996]}, "properties": {"CUT_REG": "05", "CUT_PROV": "058", "CUT_COM": "05801", "REGION": "Valpara\u00edso", "PROVINCIA": "Marga Marga", "COMUNA": "Quilpu\u00e9", "variable": "Estaci\u00f3n de Carabineros", "Nombres": "TENENCIA - TCIA. EL BELLOTO", "POINT_X": -71.404821, "POINT_Y": -33.046202}}, {"type": "Feature", "geometry": {"type": "Point", "coordinates": [-71.37098, -33.043330000000005]}, "properties": {"CUT_REG": "05", "CUT_PROV": "058", "CUT_COM": "05804", "REGION": "Valpara\u00edso", "PROVINCIA": "Marga Marga", "COMUNA": "Villa Alemana", "variable": "Estaci\u00f3n de Carabineros", "Nombres": "COMISARIA - 6TA. COM. VILLA ALEMANA", "POINT_X": -71.37098, "POINT_Y": -33.04333}}, {"type": "Feature", "geometry": {"type": "Point", "coordinates": [-71.18772800000004, -32.99833399999999]}, "properties": {"CUT_REG": "05", "CUT_PROV": "058", "CUT_COM": "05803", "REGION": "Valpara\u00edso", "PROVINCIA": "Marga Marga", "COMUNA": "Olmu\u00e9", "variable": "Estaci\u00f3n de Carabineros", "Nombres": "TENENCIA - TCIA. OLMUE", "POINT_X": -71.187728, "POINT_Y": -32.998334}}, {"type": "Feature", "geometry": {"type": "Point", "coordinates": [-71.27858900000001, -32.98617200000001]}, "properties": {"CUT_REG": "05", "CUT_PROV": "058", "CUT_COM": "05802", "REGION": "Valpara\u00edso", "PROVINCIA": "Marga Marga", "COMUNA": "Limache", "variable": "Estaci\u00f3n de Carabineros", "Nombres": "COMISARIA - 3RA. COM. LIMACHE", "POINT_X": -71.278589, "POINT_Y": -32.986172}}]}