{"type": "FeatureCollection", "features": [{"type": "Feature", "geometry": {"type": "Point", "coordinates": [-70.97995030000001, -34.47748616800003]}, "properties": {"CUT_REG": "06", "CUT_PROV": "061", "CUT_COM": "06117", "REGION": "Libertador General Bernardo O'Higgins", "PROVINCIA": "Cachapoal", "COMUNA": "San Vicente", "variable": "Estaci\u00f3n de Carabineros", "Nombres": "RETEN - RETEN PUENTE BADEN", "POINT_X": -70.9799503, "POINT_Y": -34.477486168}}, {"type": "Feature", "geometry": {"type": "Point", "coordinates": [-70.89666499999998, -34.464168000000036]}, "properties": {"CUT_REG": "06", "CUT_PROV": "061", "CUT_COM": "06109", "REGION": "Libertador General Bernardo O'Higgins", "PROVINCIA": "Cachapoal", "COMUNA": "Malloa", "variable": "Estaci\u00f3n de Carabineros", "Nombres": "TENENCIA - TCIA. PELEQUEN", "POINT_X": -70.896665, "POINT_Y": -34.464168}}, {"type": "Feature", "geometry": {"type": "Point", "coordinates": [-70.945230302, -34.445213027000044]}, "properties": {"CUT_REG": "06", "CUT_PROV": "061", "CUT_COM": "06109", "REGION": "Libertador General Bernardo O'Higgins", "PROVINCIA": "Cachapoal", "COMUNA": "Malloa", "variable": "Estaci\u00f3n de Carabineros", "Nombres": "RETEN - RETEN MALLOA", "POINT_X": -70.945230302, "POINT_Y": -34.445213027}}, {"type": "Feature", "geometry": {"type": "Point", "coordinates": [-70.78156600999995, -34.441819632000026]}, "properties": {"CUT_REG": "06", "CUT_PROV": "061", "CUT_COM": "06115", "REGION": "Libertador General Bernardo O'Higgins", "PROVINCIA": "Cachapoal", "COMUNA": "Rengo", "variable": "Estaci\u00f3n de Carabineros", "Nombres": "RETEN - RETEN POPETA", "POINT_X": -70.78156601, "POINT_Y": -34.441819632}}, {"type": "Feature", "geometry": {"type": "Point", "coordinates": [-71.08094999999997, -34.438597000000016]}, "properties": {"CUT_REG": "06", "CUT_PROV": "061", "CUT_COM": "06117", "REGION": "Libertador General Bernardo O'Higgins", "PROVINCIA": "Cachapoal", "COMUNA": "San Vicente", "variable": "Estaci\u00f3n de Carabineros", "Nombres": "COMISARIA - 6TA. COM. SAN VICENTE", "POINT_X": -71.08095, "POINT_Y": -34.438597}}, {"type": "Feature", "geometry": {"type": "Point", "coordinates": [-70.20621189899998, -34.415353341999996]}, "properties": {"CUT_REG": "06", "CUT_PROV": "061", "CUT_COM": "06108", "REGION": "Libertador General Bernardo O'Higgins", "PROVINCIA": "Cachapoal", "COMUNA": "Machal\u00ed", "variable": "Estaci\u00f3n de Carabineros", "Nombres": "AVANZADA - AVANZADA LAS LENAS (T)  (F)", "POINT_X": -70.206211899, "POINT_Y": -34.415353342}}, {"type": "Feature", "geometry": {"type": "Point", "coordinates": [-71.23669112900001, -34.412651159999974]}, "properties": {"CUT_REG": "06", "CUT_PROV": "061", "CUT_COM": "06113", "REGION": "Libertador General Bernardo O'Higgins", "PROVINCIA": "Cachapoal", "COMUNA": "Pichidegua", "variable": "Estaci\u00f3n de Carabineros", "Nombres": "RETEN - RETEN ALMAHUE VIEJO", "POINT_X": -71.236691129, "POINT_Y": -34.41265116}}, {"type": "Feature", "geometry": {"type": "Point", "coordinates": [-70.86403292770002, -34.40874009239997]}, "properties": {"CUT_REG": "06", "CUT_PROV": "061", "CUT_COM": "06115", "REGION": "Libertador General Bernardo O'Higgins", "PROVINCIA": "Cachapoal", "COMUNA": "Rengo", "variable": "Estaci\u00f3n de Carabineros", "Nombres": "COMISARIA - 4TA. COM. RENGO", "POINT_X": -70.8640329277, "POINT_Y": -34.4087400924}}, {"type": "Feature", "geometry": {"type": "Point", "coordinates": [-71.16881402899998, -34.395861219999965]}, "properties": {"CUT_REG": "06", "CUT_PROV": "061", "CUT_COM": "06112", "REGION": "Libertador General Bernardo O'Higgins", "PROVINCIA": "Cachapoal", "COMUNA": "Peumo", "variable": "Estaci\u00f3n de Carabineros", "Nombres": "COMISARIA - 5TA. COM. PEUMO", "POINT_X": -71.168814029, "POINT_Y": -34.39586122}}, {"type": "Feature", "geometry": {"type": "Point", "coordinates": [-71.09791413900001, -34.362848617]}, "properties": {"CUT_REG": "06", "CUT_PROV": "061", "CUT_COM": "06117", "REGION": "Libertador General Bernardo O'Higgins", "PROVINCIA": "Cachapoal", "COMUNA": "San Vicente", "variable": "Estaci\u00f3n de Carabineros", "Nombres": "RETEN - RETEN ZUNIGA", "POINT_X": -71.097914139, "POINT_Y": -34.362848617}}, {"type": "Feature", "geometry": {"type": "Point", "coordinates": [-71.27899671099999, -34.361055591999964]}, "properties": {"CUT_REG": "06", "CUT_PROV": "061", "CUT_COM": "06113", "REGION": "Libertador General Bernardo O'Higgins", "PROVINCIA": "Cachapoal", "COMUNA": "Pichidegua", "variable": "Estaci\u00f3n de Carabineros", "Nombres": "TENENCIA - TCIA. PICHIDEGUA", "POINT_X": -71.278996711, "POINT_Y": -34.361055592}}, {"type": "Feature", "geometry": {"type": "Point", "coordinates": [-71.01709865599996, -34.35450015399998]}, "properties": {"CUT_REG": "06", "CUT_PROV": "061", "CUT_COM": "06114", "REGION": "Libertador General Bernardo O'Higgins", "PROVINCIA": "Cachapoal", "COMUNA": "Quinta de Tilcoco", "variable": "Estaci\u00f3n de Carabineros", "Nombres": "RETEN - RETEN GUACARHUE", "POINT_X": -71.017098656, "POINT_Y": -34.354500154}}, {"type": "Feature", "geometry": {"type": "Point", "coordinates": [-70.964513899, -34.354342649]}, "properties": {"CUT_REG": "06", "CUT_PROV": "061", "CUT_COM": "06114", "REGION": "Libertador General Bernardo O'Higgins", "PROVINCIA": "Cachapoal", "COMUNA": "Quinta de Tilcoco", "variable": "Estaci\u00f3n de Carabineros", "Nombres": "TENENCIA - TCIA. QTA. TILCOCO", "POINT_X": -70.964513899, "POINT_Y": -34.354342649}}, {"type": "Feature", "geometry": {"type": "Point", "coordinates": [-70.836739778, -34.34481130799999]}, "properties": {"CUT_REG": "06", "CUT_PROV": "061", "CUT_COM": "06115", "REGION": "Libertador General Bernardo O'Higgins", "PROVINCIA": "Cachapoal", "COMUNA": "Rengo", "variable": "Estaci\u00f3n de Carabineros", "Nombres": "TENENCIA - TCIA. ROSARIO", "POINT_X": -70.836739778, "POINT_Y": -34.344811308}}, {"type": "Feature", "geometry": {"type": "Point", "coordinates": [-71.13664770500003, -34.318710957999954]}, "properties": {"CUT_REG": "06", "CUT_PROV": "061", "CUT_COM": "06104", "REGION": "Libertador General Bernardo O'Higgins", "PROVINCIA": "Cachapoal", "COMUNA": "Coltauco", "variable": "Estaci\u00f3n de Carabineros", "Nombres": "RETEN - RETEN IDAHUE", "POINT_X": -71.136647705, "POINT_Y": -34.318710958}}, {"type": "Feature", "geometry": {"type": "Point", "coordinates": [-71.02439809799995, -34.307871076000026]}, "properties": {"CUT_REG": "06", "CUT_PROV": "061", "CUT_COM": "06103", "REGION": "Libertador General Bernardo O'Higgins", "PROVINCIA": "Cachapoal", "COMUNA": "Coinco", "variable": "Estaci\u00f3n de Carabineros", "Nombres": "RETEN - RETEN MILLAHUE", "POINT_X": -71.024398098, "POINT_Y": -34.307871076}}, {"type": "Feature", "geometry": {"type": "Point", "coordinates": [-71.31208727000002, -34.293696579999974]}, "properties": {"CUT_REG": "06", "CUT_PROV": "061", "CUT_COM": "06107", "REGION": "Libertador General Bernardo O'Higgins", "PROVINCIA": "Cachapoal", "COMUNA": "Las Cabras", "variable": "Estaci\u00f3n de Carabineros", "Nombres": "SUBCOMISARIA - SCOM. LAS CABRAS", "POINT_X": -71.31208727, "POINT_Y": -34.29369658}}, {"type": "Feature", "geometry": {"type": "Point", "coordinates": [-71.08446116499996, -34.28795653600004]}, "properties": {"CUT_REG": "06", "CUT_PROV": "061", "CUT_COM": "06104", "REGION": "Libertador General Bernardo O'Higgins", "PROVINCIA": "Cachapoal", "COMUNA": "Coltauco", "variable": "Estaci\u00f3n de Carabineros", "Nombres": "TENENCIA - TCIA. COLTAUCO", "POINT_X": -71.084461165, "POINT_Y": -34.287956536}}, {"type": "Feature", "geometry": {"type": "Point", "coordinates": [-70.8193969302, -34.2868668227]}, "properties": {"CUT_REG": "06", "CUT_PROV": "061", "CUT_COM": "06116", "REGION": "Libertador General Bernardo O'Higgins", "PROVINCIA": "Cachapoal", "COMUNA": "Requ\u00ednoa", "variable": "Estaci\u00f3n de Carabineros", "Nombres": "SUBCOMISARIA - SCOM. REQUINOA", "POINT_X": -70.8193969302, "POINT_Y": -34.2868668227}}, {"type": "Feature", "geometry": {"type": "Point", "coordinates": [-70.949896706, -34.26764835699999]}, "properties": {"CUT_REG": "06", "CUT_PROV": "061", "CUT_COM": "06103", "REGION": "Libertador General Bernardo O'Higgins", "PROVINCIA": "Cachapoal", "COMUNA": "Coinco", "variable": "Estaci\u00f3n de Carabineros", "Nombres": "TENENCIA - TCIA. COINCO", "POINT_X": -70.949896706, "POINT_Y": -34.267648357}}, {"type": "Feature", "geometry": {"type": "Point", "coordinates": [-70.44424184400002, -34.23891353700002]}, "properties": {"CUT_REG": "06", "CUT_PROV": "061", "CUT_COM": "06108", "REGION": "Libertador General Bernardo O'Higgins", "PROVINCIA": "Cachapoal", "COMUNA": "Machal\u00ed", "variable": "Estaci\u00f3n de Carabineros", "Nombres": "RETEN - RETEN PANGAL (F)", "POINT_X": -70.444241844, "POINT_Y": -34.238913537}}, {"type": "Feature", "geometry": {"type": "Point", "coordinates": [-70.78515533200002, -34.22317692800004]}, "properties": {"CUT_REG": "06", "CUT_PROV": "061", "CUT_COM": "06116", "REGION": "Libertador General Bernardo O'Higgins", "PROVINCIA": "Cachapoal", "COMUNA": "Requ\u00ednoa", "variable": "Estaci\u00f3n de Carabineros", "Nombres": "RETEN - RETEN LOS LIRIOS", "POINT_X": -70.785155332, "POINT_Y": -34.223176928}}, {"type": "Feature", "geometry": {"type": "Point", "coordinates": [-70.971949713, -34.22189127899998]}, "properties": {"CUT_REG": "06", "CUT_PROV": "061", "CUT_COM": "06105", "REGION": "Libertador General Bernardo O'Higgins", "PROVINCIA": "Cachapoal", "COMUNA": "Do\u00f1ihue", "variable": "Estaci\u00f3n de Carabineros", "Nombres": "SUBCOMISARIA - SCOM. DONIHUE", "POINT_X": -70.971949713, "POINT_Y": -34.221891279}}, {"type": "Feature", "geometry": {"type": "Point", "coordinates": [-71.44078815399996, -34.21965526499998]}, "properties": {"CUT_REG": "06", "CUT_PROV": "061", "CUT_COM": "06107", "REGION": "Libertador General Bernardo O'Higgins", "PROVINCIA": "Cachapoal", "COMUNA": "Las Cabras", "variable": "Estaci\u00f3n de Carabineros", "Nombres": "RETEN - RETEN LLALLAUQUEN", "POINT_X": -71.440788154, "POINT_Y": -34.219655265}}, {"type": "Feature", "geometry": {"type": "Point", "coordinates": [-70.81086827999998, -34.20978891999996]}, "properties": {"CUT_REG": "06", "CUT_PROV": "061", "CUT_COM": "06111", "REGION": "Libertador General Bernardo O'Higgins", "PROVINCIA": "Cachapoal", "COMUNA": "Olivar", "variable": "Estaci\u00f3n de Carabineros", "Nombres": "TENENCIA - TCIA. OLIVAR", "POINT_X": -70.81086828, "POINT_Y": -34.20978892}}, {"type": "Feature", "geometry": {"type": "Point", "coordinates": [-70.53186501660002, -34.208122336499954]}, "properties": {"CUT_REG": "06", "CUT_PROV": "061", "CUT_COM": "06108", "REGION": "Libertador General Bernardo O'Higgins", "PROVINCIA": "Cachapoal", "COMUNA": "Machal\u00ed", "variable": "Estaci\u00f3n de Carabineros", "Nombres": "TENENCIA - TCIA. COYA", "POINT_X": -70.5318650166, "POINT_Y": -34.2081223365}}, {"type": "Feature", "geometry": {"type": "Point", "coordinates": [-70.75914441600001, -34.19966633499997]}, "properties": {"CUT_REG": "06", "CUT_PROV": "061", "CUT_COM": "06111", "REGION": "Libertador General Bernardo O'Higgins", "PROVINCIA": "Cachapoal", "COMUNA": "Olivar", "variable": "Estaci\u00f3n de Carabineros", "Nombres": "TENENCIA - TCIA. CACHAPOAL (M.C.)", "POINT_X": -70.759144416, "POINT_Y": -34.199666335}}, {"type": "Feature", "geometry": {"type": "Point", "coordinates": [-70.89097204000004, -34.19000388800003]}, "properties": {"CUT_REG": "06", "CUT_PROV": "061", "CUT_COM": "06105", "REGION": "Libertador General Bernardo O'Higgins", "PROVINCIA": "Cachapoal", "COMUNA": "Do\u00f1ihue", "variable": "Estaci\u00f3n de Carabineros", "Nombres": "RETEN - RETEN LO MIRANDA", "POINT_X": -70.89097204, "POINT_Y": -34.190003888}}, {"type": "Feature", "geometry": {"type": "Point", "coordinates": [-71.40129062099997, -34.18240897000001]}, "properties": {"CUT_REG": "06", "CUT_PROV": "061", "CUT_COM": "06107", "REGION": "Libertador General Bernardo O'Higgins", "PROVINCIA": "Cachapoal", "COMUNA": "Las Cabras", "variable": "Estaci\u00f3n de Carabineros", "Nombres": "TENENCIA - TCIA. EL MANZANO", "POINT_X": -71.401290621, "POINT_Y": -34.18240897}}, {"type": "Feature", "geometry": {"type": "Point", "coordinates": [-70.65140577019999, -34.17782961620003]}, "properties": {"CUT_REG": "06", "CUT_PROV": "061", "CUT_COM": "06108", "REGION": "Libertador General Bernardo O'Higgins", "PROVINCIA": "Cachapoal", "COMUNA": "Machal\u00ed", "variable": "Estaci\u00f3n de Carabineros", "Nombres": "SUBCOMISARIA - SCOM. MACHALI", "POINT_X": -70.6514057702, "POINT_Y": -34.1778296162}}, {"type": "Feature", "geometry": {"type": "Point", "coordinates": [-70.71117114880002, -34.17370768820004]}, "properties": {"CUT_REG": "06", "CUT_PROV": "061", "CUT_COM": "06101", "REGION": "Libertador General Bernardo O'Higgins", "PROVINCIA": "Cachapoal", "COMUNA": "Rancagua", "variable": "Estaci\u00f3n de Carabineros", "Nombres": "COMISARIA - 3RA. COM. RANCAGUA OTE.", "POINT_X": -70.7111711488, "POINT_Y": -34.1737076882}}, {"type": "Feature", "geometry": {"type": "Point", "coordinates": [-70.74553200000003, -34.166701999999994]}, "properties": {"CUT_REG": "06", "CUT_PROV": "061", "CUT_COM": "06101", "REGION": "Libertador General Bernardo O'Higgins", "PROVINCIA": "Cachapoal", "COMUNA": "Rancagua", "variable": "Estaci\u00f3n de Carabineros", "Nombres": "COMISARIA - 1RA. COM. RANCAGUA", "POINT_X": -70.745532, "POINT_Y": -34.166702}}, {"type": "Feature", "geometry": {"type": "Point", "coordinates": [-70.71476900000002, -34.159362000000016]}, "properties": {"CUT_REG": "06", "CUT_PROV": "061", "CUT_COM": "06101", "REGION": "Libertador General Bernardo O'Higgins", "PROVINCIA": "Cachapoal", "COMUNA": "Rancagua", "variable": "Estaci\u00f3n de Carabineros", "Nombres": "SUBCOMISARIA - SCOM. DIEGO PORTALES", "POINT_X": -70.714769, "POINT_Y": -34.159362}}, {"type": "Feature", "geometry": {"type": "Point", "coordinates": [-70.7236202272, -34.069822686800045]}, "properties": {"CUT_REG": "06", "CUT_PROV": "061", "CUT_COM": "06106", "REGION": "Libertador General Bernardo O'Higgins", "PROVINCIA": "Cachapoal", "COMUNA": "Graneros", "variable": "Estaci\u00f3n de Carabineros", "Nombres": "COMISARIA - 2DA. COM. GRANEROS", "POINT_X": -70.7236202272, "POINT_Y": -34.0698226868}}, {"type": "Feature", "geometry": {"type": "Point", "coordinates": [-70.66821390399997, -34.039133829999976]}, "properties": {"CUT_REG": "06", "CUT_PROV": "061", "CUT_COM": "06102", "REGION": "Libertador General Bernardo O'Higgins", "PROVINCIA": "Cachapoal", "COMUNA": "Codegua", "variable": "Estaci\u00f3n de Carabineros", "Nombres": "TENENCIA - TCIA. CODEGUA", "POINT_X": -70.668213904, "POINT_Y": -34.03913383}}, {"type": "Feature", "geometry": {"type": "Point", "coordinates": [-70.64336919159996, -34.00435101079998]}, "properties": {"CUT_REG": "06", "CUT_PROV": "061", "CUT_COM": "06110", "REGION": "Libertador General Bernardo O'Higgins", "PROVINCIA": "Cachapoal", "COMUNA": "Mostazal", "variable": "Estaci\u00f3n de Carabineros", "Nombres": "RETEN - RETEN LA PUNTA", "POINT_X": -70.6433691916, "POINT_Y": -34.0043510108}}, {"type": "Feature", "geometry": {"type": "Point", "coordinates": [-70.70778120099996, -33.98378651899997]}, "properties": {"CUT_REG": "06", "CUT_PROV": "061", "CUT_COM": "06110", "REGION": "Libertador General Bernardo O'Higgins", "PROVINCIA": "Cachapoal", "COMUNA": "Mostazal", "variable": "Estaci\u00f3n de Carabineros", "Nombres": "SUBCOMISARIA - SCOM. SAN FCO. DE MOSTAZAL", "POINT_X": -70.707781201, "POINT_Y": -33.983786519}}]}