{"type": "FeatureCollection", "features": [{"type": "Feature", "geometry": {"type": "Point", "coordinates": [-71.81069299849997, -43.93448401810004]}, "properties": {"CUT_REG": "10", "CUT_PROV": "104", "CUT_COM": "10404", "REGION": "Los Lagos", "PROVINCIA": "Palena", "COMUNA": "Palena", "variable": "Sitios de Inter\u00e9s Tur\u00edstico", "Nombres": "\u00c1REA SILVESTRE PROTEGIDA DEL ESTADO (ASPE) - RESERVA NACIONAL LAGO PALENA", "POINT_X": -71.8106929985, "POINT_Y": -43.9344840181}}, {"type": "Feature", "geometry": {"type": "Point", "coordinates": [-71.80815151599997, -43.72960766289998]}, "properties": {"CUT_REG": "10", "CUT_PROV": "104", "CUT_COM": "10404", "REGION": "Los Lagos", "PROVINCIA": "Palena", "COMUNA": "Palena", "variable": "Sitios de Inter\u00e9s Tur\u00edstico", "Nombres": "R\u00cdO Y ESTERO - R\u00cdO AZUL", "POINT_X": -71.808151516, "POINT_Y": -43.7296076629}}, {"type": "Feature", "geometry": {"type": "Point", "coordinates": [-71.69934046600001, -43.63851568489999]}, "properties": {"CUT_REG": "10", "CUT_PROV": "104", "CUT_COM": "10404", "REGION": "Los Lagos", "PROVINCIA": "Palena", "COMUNA": "Palena", "variable": "Sitios de Inter\u00e9s Tur\u00edstico", "Nombres": "VALLE Y QUEBRADA - VALLE CALIFORNIA", "POINT_X": -71.699340466, "POINT_Y": -43.6385156849}}, {"type": "Feature", "geometry": {"type": "Point", "coordinates": [-71.80315629800002, -43.618105332900015]}, "properties": {"CUT_REG": "10", "CUT_PROV": "104", "CUT_COM": "10404", "REGION": "Los Lagos", "PROVINCIA": "Palena", "COMUNA": "Palena", "variable": "Sitios de Inter\u00e9s Tur\u00edstico", "Nombres": "CARNAVAL O FIESTA COSTUMBRISTA - FIESTA BINACIONAL DE LAS TRADICIONES DE PALENA", "POINT_X": -71.803156298, "POINT_Y": -43.6181053329}}, {"type": "Feature", "geometry": {"type": "Point", "coordinates": [-71.80386498999995, -43.61782805689999]}, "properties": {"CUT_REG": "10", "CUT_PROV": "104", "CUT_COM": "10404", "REGION": "Los Lagos", "PROVINCIA": "Palena", "COMUNA": "Palena", "variable": "Sitios de Inter\u00e9s Tur\u00edstico", "Nombres": "PUEBLO O ALDEA TRADICIONAL - PALENA", "POINT_X": -71.80386499, "POINT_Y": -43.6178280569}}, {"type": "Feature", "geometry": {"type": "Point", "coordinates": [-71.80083438100002, -43.61678883689998]}, "properties": {"CUT_REG": "10", "CUT_PROV": "104", "CUT_COM": "10404", "REGION": "Los Lagos", "PROVINCIA": "Palena", "COMUNA": "Palena", "variable": "Sitios de Inter\u00e9s Tur\u00edstico", "Nombres": "RODEO - RODEO OFICIAL DE PALENA", "POINT_X": -71.800834381, "POINT_Y": -43.6167888369}}, {"type": "Feature", "geometry": {"type": "Point", "coordinates": [-72.10096720300001, -43.5050984909]}, "properties": {"CUT_REG": "10", "CUT_PROV": "104", "CUT_COM": "10404", "REGION": "Los Lagos", "PROVINCIA": "Palena", "COMUNA": "Palena", "variable": "Sitios de Inter\u00e9s Tur\u00edstico", "Nombres": "VALLE Y QUEBRADA - VALLE DEL R\u00cdO MALITO", "POINT_X": -72.100967203, "POINT_Y": -43.5050984909}}, {"type": "Feature", "geometry": {"type": "Point", "coordinates": [-72.01285922710001, -43.34572699089997]}, "properties": {"CUT_REG": "10", "CUT_PROV": "104", "CUT_COM": "10402", "REGION": "Los Lagos", "PROVINCIA": "Palena", "COMUNA": "Futaleuf\u00fa", "variable": "Sitios de Inter\u00e9s Tur\u00edstico", "Nombres": "R\u00cdO Y ESTERO - R\u00cdO FUTALEUF\u00da", "POINT_X": -72.0128592271, "POINT_Y": -43.3457269909}}, {"type": "Feature", "geometry": {"type": "Point", "coordinates": [-72.78965534299999, -43.31641933990004]}, "properties": {"CUT_REG": "10", "CUT_PROV": "104", "CUT_COM": "10401", "REGION": "Los Lagos", "PROVINCIA": "Palena", "COMUNA": "Chait\u00e9n", "variable": "Sitios de Inter\u00e9s Tur\u00edstico", "Nombres": "\u00c1REA SILVESTRE PROTEGIDA DEL ESTADO (ASPE) - PARQUE NACIONAL CORCOVADO", "POINT_X": -72.789655343, "POINT_Y": -43.3164193399}}, {"type": "Feature", "geometry": {"type": "Point", "coordinates": [-72.30259607500003, -43.30367686189999]}, "properties": {"CUT_REG": "10", "CUT_PROV": "104", "CUT_COM": "10401", "REGION": "Los Lagos", "PROVINCIA": "Palena", "COMUNA": "Chait\u00e9n", "variable": "Sitios de Inter\u00e9s Tur\u00edstico", "Nombres": "LAGO Y LAGUNA - LAGO YELCHO", "POINT_X": -72.302596075, "POINT_Y": -43.3036768619}}, {"type": "Feature", "geometry": {"type": "Point", "coordinates": [-72.47916877999998, -43.288337439900005]}, "properties": {"CUT_REG": "10", "CUT_PROV": "104", "CUT_COM": "10401", "REGION": "Los Lagos", "PROVINCIA": "Palena", "COMUNA": "Chait\u00e9n", "variable": "Sitios de Inter\u00e9s Tur\u00edstico", "Nombres": "GLACIAR O VENTISQUERO - VENTISQUERO YELCHO", "POINT_X": -72.47916878, "POINT_Y": -43.2883374399}}, {"type": "Feature", "geometry": {"type": "Point", "coordinates": [-71.86628774999998, -43.252317031900034]}, "properties": {"CUT_REG": "10", "CUT_PROV": "104", "CUT_COM": "10402", "REGION": "Los Lagos", "PROVINCIA": "Palena", "COMUNA": "Futaleuf\u00fa", "variable": "Sitios de Inter\u00e9s Tur\u00edstico", "Nombres": "\u00c1REA SILVESTRE PROTEGIDA DEL ESTADO (ASPE) - RESERVA NACIONAL FUTALEUF\u00da", "POINT_X": -71.86628775, "POINT_Y": -43.2523170319}}, {"type": "Feature", "geometry": {"type": "Point", "coordinates": [-71.94581074100003, -43.247689979899995]}, "properties": {"CUT_REG": "10", "CUT_PROV": "104", "CUT_COM": "10402", "REGION": "Los Lagos", "PROVINCIA": "Palena", "COMUNA": "Futaleuf\u00fa", "variable": "Sitios de Inter\u00e9s Tur\u00edstico", "Nombres": "LAGO Y LAGUNA - LAGO LONCONAO", "POINT_X": -71.945810741, "POINT_Y": -43.2476899799}}, {"type": "Feature", "geometry": {"type": "Point", "coordinates": [-71.82520277100002, -43.225722503899966]}, "properties": {"CUT_REG": "10", "CUT_PROV": "104", "CUT_COM": "10402", "REGION": "Los Lagos", "PROVINCIA": "Palena", "COMUNA": "Futaleuf\u00fa", "variable": "Sitios de Inter\u00e9s Tur\u00edstico", "Nombres": "CERRO - CERRO TRES MONJAS", "POINT_X": -71.825202771, "POINT_Y": -43.2257225039}}, {"type": "Feature", "geometry": {"type": "Point", "coordinates": [-72.43957516100002, -43.21943480490002]}, "properties": {"CUT_REG": "10", "CUT_PROV": "104", "CUT_COM": "10401", "REGION": "Los Lagos", "PROVINCIA": "Palena", "COMUNA": "Chait\u00e9n", "variable": "Sitios de Inter\u00e9s Tur\u00edstico", "Nombres": "OBRA DE INGENIER\u00cdA - CARRETERA AUSTRAL SECTOR LAGO YELCHO", "POINT_X": -72.439575161, "POINT_Y": -43.2194348049}}, {"type": "Feature", "geometry": {"type": "Point", "coordinates": [-72.78953165299997, -43.19353568090002]}, "properties": {"CUT_REG": "10", "CUT_PROV": "104", "CUT_COM": "10401", "REGION": "Los Lagos", "PROVINCIA": "Palena", "COMUNA": "Chait\u00e9n", "variable": "Sitios de Inter\u00e9s Tur\u00edstico", "Nombres": "VOLC\u00c1N - VOLC\u00c1N CORCOVADO", "POINT_X": -72.789531653, "POINT_Y": -43.1935356809}}, {"type": "Feature", "geometry": {"type": "Point", "coordinates": [-71.87304593399996, -43.18780294789998]}, "properties": {"CUT_REG": "10", "CUT_PROV": "104", "CUT_COM": "10402", "REGION": "Los Lagos", "PROVINCIA": "Palena", "COMUNA": "Futaleuf\u00fa", "variable": "Sitios de Inter\u00e9s Tur\u00edstico", "Nombres": "R\u00cdO Y ESTERO - R\u00cdO ESPOL\u00d3N", "POINT_X": -71.873045934, "POINT_Y": -43.1878029479}}, {"type": "Feature", "geometry": {"type": "Point", "coordinates": [-71.858814566, -43.18563615790002]}, "properties": {"CUT_REG": "10", "CUT_PROV": "104", "CUT_COM": "10402", "REGION": "Los Lagos", "PROVINCIA": "Palena", "COMUNA": "Futaleuf\u00fa", "variable": "Sitios de Inter\u00e9s Tur\u00edstico", "Nombres": "LAGO Y LAGUNA - LAGUNA ESPEJO", "POINT_X": -71.858814566, "POINT_Y": -43.1856361579}}, {"type": "Feature", "geometry": {"type": "Point", "coordinates": [-71.86008212299998, -43.18347402890001]}, "properties": {"CUT_REG": "10", "CUT_PROV": "104", "CUT_COM": "10402", "REGION": "Los Lagos", "PROVINCIA": "Palena", "COMUNA": "Futaleuf\u00fa", "variable": "Sitios de Inter\u00e9s Tur\u00edstico", "Nombres": "RODEO - RODEO OFICIAL DE FUTALEUF\u00da", "POINT_X": -71.860082123, "POINT_Y": -43.1834740289}}, {"type": "Feature", "geometry": {"type": "Point", "coordinates": [-72.002386702, -43.17078125789998]}, "properties": {"CUT_REG": "10", "CUT_PROV": "104", "CUT_COM": "10402", "REGION": "Los Lagos", "PROVINCIA": "Palena", "COMUNA": "Futaleuf\u00fa", "variable": "Sitios de Inter\u00e9s Tur\u00edstico", "Nombres": "LAGO Y LAGUNA - LAGO ESPOL\u00d3N", "POINT_X": -72.002386702, "POINT_Y": -43.1707812579}}, {"type": "Feature", "geometry": {"type": "Point", "coordinates": [-71.94535772500004, -43.150768288900025]}, "properties": {"CUT_REG": "10", "CUT_PROV": "104", "CUT_COM": "10402", "REGION": "Los Lagos", "PROVINCIA": "Palena", "COMUNA": "Futaleuf\u00fa", "variable": "Sitios de Inter\u00e9s Tur\u00edstico", "Nombres": "LAGO Y LAGUNA - LAGO LEAL", "POINT_X": -71.945357725, "POINT_Y": -43.1507682889}}, {"type": "Feature", "geometry": {"type": "Point", "coordinates": [-71.86237286, -43.1409909879]}, "properties": {"CUT_REG": "10", "CUT_PROV": "104", "CUT_COM": "10402", "REGION": "Los Lagos", "PROVINCIA": "Palena", "COMUNA": "Futaleuf\u00fa", "variable": "Sitios de Inter\u00e9s Tur\u00edstico", "Nombres": "CERRO - CERRO LA BANDERA", "POINT_X": -71.86237286, "POINT_Y": -43.1409909879}}, {"type": "Feature", "geometry": {"type": "Point", "coordinates": [-72.81278740500001, -43.01319985290001]}, "properties": {"CUT_REG": "10", "CUT_PROV": "104", "CUT_COM": "10401", "REGION": "Los Lagos", "PROVINCIA": "Palena", "COMUNA": "Chait\u00e9n", "variable": "Sitios de Inter\u00e9s Tur\u00edstico", "Nombres": "ISLA O ARCHIPI\u00c9LAGO - ISLA AUCHEMO", "POINT_X": -72.812787405, "POINT_Y": -43.0131998529}}, {"type": "Feature", "geometry": {"type": "Point", "coordinates": [-72.44245734300003, -42.997645236899984]}, "properties": {"CUT_REG": "10", "CUT_PROV": "104", "CUT_COM": "10401", "REGION": "Los Lagos", "PROVINCIA": "Palena", "COMUNA": "Chait\u00e9n", "variable": "Sitios de Inter\u00e9s Tur\u00edstico", "Nombres": "FUENTE Y CENTRO TERMAL - TERMAS EL AMARILLO", "POINT_X": -72.442457343, "POINT_Y": -42.9976452369}}, {"type": "Feature", "geometry": {"type": "Point", "coordinates": [-72.65976602700003, -42.95430651489997]}, "properties": {"CUT_REG": "10", "CUT_PROV": "104", "CUT_COM": "10401", "REGION": "Los Lagos", "PROVINCIA": "Palena", "COMUNA": "Chait\u00e9n", "variable": "Sitios de Inter\u00e9s Tur\u00edstico", "Nombres": "OBRA DE INGENIER\u00cdA - CARRETERA AUSTRAL SECTOR CHAIT\u00c9N", "POINT_X": -72.659766027, "POINT_Y": -42.9543065149}}, {"type": "Feature", "geometry": {"type": "Point", "coordinates": [-72.70888173200002, -42.91671652589998]}, "properties": {"CUT_REG": "10", "CUT_PROV": "104", "CUT_COM": "10401", "REGION": "Los Lagos", "PROVINCIA": "Palena", "COMUNA": "Chait\u00e9n", "variable": "Sitios de Inter\u00e9s Tur\u00edstico", "Nombres": "PUEBLO O ALDEA TRADICIONAL - CHAIT\u00c9N", "POINT_X": -72.708881732, "POINT_Y": -42.9167165259}}, {"type": "Feature", "geometry": {"type": "Point", "coordinates": [-72.79504038700003, -42.873241423899955]}, "properties": {"CUT_REG": "10", "CUT_PROV": "104", "CUT_COM": "10401", "REGION": "Los Lagos", "PROVINCIA": "Palena", "COMUNA": "Chait\u00e9n", "variable": "Sitios de Inter\u00e9s Tur\u00edstico", "Nombres": "LUGAR DE OBSERVACI\u00d3N DE FLORA Y FAUNA - LOBER\u00cdAS SANTA B\u00c1RBARA", "POINT_X": -72.795040387, "POINT_Y": -42.8732414239}}, {"type": "Feature", "geometry": {"type": "Point", "coordinates": [-72.651340196, -42.83757802990004]}, "properties": {"CUT_REG": "10", "CUT_PROV": "104", "CUT_COM": "10401", "REGION": "Los Lagos", "PROVINCIA": "Palena", "COMUNA": "Chait\u00e9n", "variable": "Sitios de Inter\u00e9s Tur\u00edstico", "Nombres": "VOLC\u00c1N - VOLC\u00c1N CHAIT\u00c9N", "POINT_X": -72.651340196, "POINT_Y": -42.8375780299}}, {"type": "Feature", "geometry": {"type": "Point", "coordinates": [-72.82869066700002, -42.83089010790001]}, "properties": {"CUT_REG": "10", "CUT_PROV": "104", "CUT_COM": "10401", "REGION": "Los Lagos", "PROVINCIA": "Palena", "COMUNA": "Chait\u00e9n", "variable": "Sitios de Inter\u00e9s Tur\u00edstico", "Nombres": "CERRO - MORRO VILCUN", "POINT_X": -72.828690667, "POINT_Y": -42.8308901079}}, {"type": "Feature", "geometry": {"type": "Point", "coordinates": [-72.44604752099998, -42.80004239490002]}, "properties": {"CUT_REG": "10", "CUT_PROV": "104", "CUT_COM": "10401", "REGION": "Los Lagos", "PROVINCIA": "Palena", "COMUNA": "Chait\u00e9n", "variable": "Sitios de Inter\u00e9s Tur\u00edstico", "Nombres": "VOLC\u00c1N - VOLC\u00c1N MICHIMAHUIDA", "POINT_X": -72.446047521, "POINT_Y": -42.8000423949}}, {"type": "Feature", "geometry": {"type": "Point", "coordinates": [-73.01195432599998, -42.706930752899986]}, "properties": {"CUT_REG": "10", "CUT_PROV": "104", "CUT_COM": "10401", "REGION": "Los Lagos", "PROVINCIA": "Palena", "COMUNA": "Chait\u00e9n", "variable": "Sitios de Inter\u00e9s Tur\u00edstico", "Nombres": "ISLA O ARCHIPI\u00c9LAGO - ISLAS DESERTORES", "POINT_X": -73.011954326, "POINT_Y": -42.7069307529}}, {"type": "Feature", "geometry": {"type": "Point", "coordinates": [-72.478446454, -42.62754677989999]}, "properties": {"CUT_REG": "10", "CUT_PROV": "104", "CUT_COM": "10401", "REGION": "Los Lagos", "PROVINCIA": "Palena", "COMUNA": "Chait\u00e9n", "variable": "Sitios de Inter\u00e9s Tur\u00edstico", "Nombres": "\u00c1REA SILVESTRE PROTEGIDA DEL ESTADO (ASPE) - PARQUE NACIONAL PUMAL\u00cdN DOUGLAS TOMPKINS (SN)", "POINT_X": -72.478446454, "POINT_Y": -42.6275467799}}, {"type": "Feature", "geometry": {"type": "Point", "coordinates": [-72.60458652599996, -42.561010895899976]}, "properties": {"CUT_REG": "10", "CUT_PROV": "104", "CUT_COM": "10401", "REGION": "Los Lagos", "PROVINCIA": "Palena", "COMUNA": "Chait\u00e9n", "variable": "Sitios de Inter\u00e9s Tur\u00edstico", "Nombres": "OBRA DE INGENIER\u00cdA - CARRETERA AUSTRAL SECTOR CALETA GONZALO", "POINT_X": -72.604586526, "POINT_Y": -42.5610108959}}, {"type": "Feature", "geometry": {"type": "Point", "coordinates": [-72.447615931, -42.503581730900024]}, "properties": {"CUT_REG": "10", "CUT_PROV": "104", "CUT_COM": "10401", "REGION": "Los Lagos", "PROVINCIA": "Palena", "COMUNA": "Chait\u00e9n", "variable": "Sitios de Inter\u00e9s Tur\u00edstico", "Nombres": "OBRA DE INGENIER\u00cdA - CARRETERA AUSTRAL SECTOR VODUDAHUE", "POINT_X": -72.447615931, "POINT_Y": -42.5035817309}}, {"type": "Feature", "geometry": {"type": "Point", "coordinates": [-72.45465960599996, -42.41564243890002]}, "properties": {"CUT_REG": "10", "CUT_PROV": "104", "CUT_COM": "10401", "REGION": "Los Lagos", "PROVINCIA": "Palena", "COMUNA": "Chait\u00e9n", "variable": "Sitios de Inter\u00e9s Tur\u00edstico", "Nombres": "FUENTE Y CENTRO TERMAL - TERMAS DE PORCELANA", "POINT_X": -72.454659606, "POINT_Y": -42.4156424389}}, {"type": "Feature", "geometry": {"type": "Point", "coordinates": [-72.16625532850003, -42.29868436290002]}, "properties": {"CUT_REG": "10", "CUT_PROV": "104", "CUT_COM": "10403", "REGION": "Los Lagos", "PROVINCIA": "Palena", "COMUNA": "Hualaihu\u00e9", "variable": "Sitios de Inter\u00e9s Tur\u00edstico", "Nombres": "R\u00cdO Y ESTERO - R\u00cdO BLANCO", "POINT_X": -72.1662553285, "POINT_Y": -42.2986843629}}, {"type": "Feature", "geometry": {"type": "Point", "coordinates": [-72.37180796900002, -42.25173811090003]}, "properties": {"CUT_REG": "10", "CUT_PROV": "104", "CUT_COM": "10403", "REGION": "Los Lagos", "PROVINCIA": "Palena", "COMUNA": "Hualaihu\u00e9", "variable": "Sitios de Inter\u00e9s Tur\u00edstico", "Nombres": "FUENTE Y CENTRO TERMAL - TERMAS DE CAHUELMO", "POINT_X": -72.371807969, "POINT_Y": -42.2517381109}}, {"type": "Feature", "geometry": {"type": "Point", "coordinates": [-72.584969667, -42.18995983790003]}, "properties": {"CUT_REG": "10", "CUT_PROV": "104", "CUT_COM": "10401", "REGION": "Los Lagos", "PROVINCIA": "Palena", "COMUNA": "Chait\u00e9n", "variable": "Sitios de Inter\u00e9s Tur\u00edstico", "Nombres": "PEN\u00cdNSULA, CABO O PUNTA - PEN\u00cdNSULA DE COMAU", "POINT_X": -72.584969667, "POINT_Y": -42.1899598379}}, {"type": "Feature", "geometry": {"type": "Point", "coordinates": [-72.51332764400001, -42.074066257899986]}, "properties": {"CUT_REG": "10", "CUT_PROV": "104", "CUT_COM": "10403", "REGION": "Los Lagos", "PROVINCIA": "Palena", "COMUNA": "Hualaihu\u00e9", "variable": "Sitios de Inter\u00e9s Tur\u00edstico", "Nombres": "FUENTE Y CENTRO TERMAL - TERMAS DE LLANCAHUE", "POINT_X": -72.513327644, "POINT_Y": -42.0740662579}}, {"type": "Feature", "geometry": {"type": "Point", "coordinates": [-72.68686012999996, -42.025674204900014]}, "properties": {"CUT_REG": "10", "CUT_PROV": "104", "CUT_COM": "10403", "REGION": "Los Lagos", "PROVINCIA": "Palena", "COMUNA": "Hualaihu\u00e9", "variable": "Sitios de Inter\u00e9s Tur\u00edstico", "Nombres": "PUEBLO O ALDEA TRADICIONAL - HUALAIHU\u00c9 PUERTO", "POINT_X": -72.68686013, "POINT_Y": -42.0256742049}}, {"type": "Feature", "geometry": {"type": "Point", "coordinates": [-72.68883985599999, -42.02547369990003]}, "properties": {"CUT_REG": "10", "CUT_PROV": "104", "CUT_COM": "10403", "REGION": "Los Lagos", "PROVINCIA": "Palena", "COMUNA": "Hualaihu\u00e9", "variable": "Sitios de Inter\u00e9s Tur\u00edstico", "Nombres": "FIESTA RELIGIOSA - FIESTA DE SAN PEDRO DE HUALAIHU\u00c9", "POINT_X": -72.688839856, "POINT_Y": -42.0254736999}}, {"type": "Feature", "geometry": {"type": "Point", "coordinates": [-72.64645420600004, -42.01681995889997]}, "properties": {"CUT_REG": "10", "CUT_PROV": "104", "CUT_COM": "10403", "REGION": "Los Lagos", "PROVINCIA": "Palena", "COMUNA": "Hualaihu\u00e9", "variable": "Sitios de Inter\u00e9s Tur\u00edstico", "Nombres": "ISLA O ARCHIPI\u00c9LAGO - ISLA MANZANO", "POINT_X": -72.646454206, "POINT_Y": -42.0168199589}}, {"type": "Feature", "geometry": {"type": "Point", "coordinates": [-72.55635312699997, -41.97065372389996]}, "properties": {"CUT_REG": "10", "CUT_PROV": "104", "CUT_COM": "10403", "REGION": "Los Lagos", "PROVINCIA": "Palena", "COMUNA": "Hualaihu\u00e9", "variable": "Sitios de Inter\u00e9s Tur\u00edstico", "Nombres": "FUENTE Y CENTRO TERMAL - TERMAS DE PICHICOLO", "POINT_X": -72.556353127, "POINT_Y": -41.9706537239}}, {"type": "Feature", "geometry": {"type": "Point", "coordinates": [-72.48662969900002, -41.97038682289998]}, "properties": {"CUT_REG": "10", "CUT_PROV": "104", "CUT_COM": "10403", "REGION": "Los Lagos", "PROVINCIA": "Palena", "COMUNA": "Hualaihu\u00e9", "variable": "Sitios de Inter\u00e9s Tur\u00edstico", "Nombres": "PLAYA O BALNEARIO - PLAYA EL COBRE", "POINT_X": -72.486629699, "POINT_Y": -41.9703868229}}, {"type": "Feature", "geometry": {"type": "Point", "coordinates": [-72.470359286, -41.96619278489998]}, "properties": {"CUT_REG": "10", "CUT_PROV": "104", "CUT_COM": "10403", "REGION": "Los Lagos", "PROVINCIA": "Palena", "COMUNA": "Hualaihu\u00e9", "variable": "Sitios de Inter\u00e9s Tur\u00edstico", "Nombres": "M\u00daSICA O CANTO - FESTIVAL DE LA VOZ DE HUALAIHU\u00c9 EN HORNOPIR\u00c9N", "POINT_X": -72.470359286, "POINT_Y": -41.9661927849}}, {"type": "Feature", "geometry": {"type": "Point", "coordinates": [-72.47033588500003, -41.96617425689996]}, "properties": {"CUT_REG": "10", "CUT_PROV": "104", "CUT_COM": "10403", "REGION": "Los Lagos", "PROVINCIA": "Palena", "COMUNA": "Hualaihu\u00e9", "variable": "Sitios de Inter\u00e9s Tur\u00edstico", "Nombres": "PUEBLO O ALDEA TRADICIONAL - HORNOPIR\u00c9N", "POINT_X": -72.470335885, "POINT_Y": -41.9661742569}}, {"type": "Feature", "geometry": {"type": "Point", "coordinates": [-72.47013127999998, -41.96616073989999]}, "properties": {"CUT_REG": "10", "CUT_PROV": "104", "CUT_COM": "10403", "REGION": "Los Lagos", "PROVINCIA": "Palena", "COMUNA": "Hualaihu\u00e9", "variable": "Sitios de Inter\u00e9s Tur\u00edstico", "Nombres": "CARNAVAL O FIESTA COSTUMBRISTA - SEMANA CORDILLERANA DE HORNOPIR\u00c9N", "POINT_X": -72.47013128, "POINT_Y": -41.9661607399}}, {"type": "Feature", "geometry": {"type": "Point", "coordinates": [-72.68405538499997, -41.948104906899964]}, "properties": {"CUT_REG": "10", "CUT_PROV": "104", "CUT_COM": "10403", "REGION": "Los Lagos", "PROVINCIA": "Palena", "COMUNA": "Hualaihu\u00e9", "variable": "Sitios de Inter\u00e9s Tur\u00edstico", "Nombres": "OBRA DE INGENIER\u00cdA - CARRETERA AUSTRAL SECTOR RIO NEGRO", "POINT_X": -72.684055385, "POINT_Y": -41.9481049069}}, {"type": "Feature", "geometry": {"type": "Point", "coordinates": [-72.58863060799996, -41.8842188629]}, "properties": {"CUT_REG": "10", "CUT_PROV": "104", "CUT_COM": "10403", "REGION": "Los Lagos", "PROVINCIA": "Palena", "COMUNA": "Hualaihu\u00e9", "variable": "Sitios de Inter\u00e9s Tur\u00edstico", "Nombres": "VOLC\u00c1N - VOLC\u00c1N APAGADO", "POINT_X": -72.588630608, "POINT_Y": -41.8842188629}}, {"type": "Feature", "geometry": {"type": "Point", "coordinates": [-72.43294730299999, -41.88181497489997]}, "properties": {"CUT_REG": "10", "CUT_PROV": "104", "CUT_COM": "10403", "REGION": "Los Lagos", "PROVINCIA": "Palena", "COMUNA": "Hualaihu\u00e9", "variable": "Sitios de Inter\u00e9s Tur\u00edstico", "Nombres": "VOLC\u00c1N - VOLC\u00c1N HORNOPIR\u00c9N", "POINT_X": -72.432947303, "POINT_Y": -41.8818149749}}, {"type": "Feature", "geometry": {"type": "Point", "coordinates": [-72.43621885799998, -41.8542490679]}, "properties": {"CUT_REG": "10", "CUT_PROV": "104", "CUT_COM": "10403", "REGION": "Los Lagos", "PROVINCIA": "Palena", "COMUNA": "Hualaihu\u00e9", "variable": "Sitios de Inter\u00e9s Tur\u00edstico", "Nombres": "LAGO Y LAGUNA - LAGO CABRERA", "POINT_X": -72.436218858, "POINT_Y": -41.8542490679}}, {"type": "Feature", "geometry": {"type": "Point", "coordinates": [-72.33575505600002, -41.85398733690001]}, "properties": {"CUT_REG": "10", "CUT_PROV": "104", "CUT_COM": "10403", "REGION": "Los Lagos", "PROVINCIA": "Palena", "COMUNA": "Hualaihu\u00e9", "variable": "Sitios de Inter\u00e9s Tur\u00edstico", "Nombres": "\u00c1REA SILVESTRE PROTEGIDA DEL ESTADO (ASPE) - PARQUE NACIONAL HORNOPIR\u00c9N", "POINT_X": -72.335755056, "POINT_Y": -41.8539873369}}, {"type": "Feature", "geometry": {"type": "Point", "coordinates": [-72.78550931299995, -41.84791975789997]}, "properties": {"CUT_REG": "10", "CUT_PROV": "104", "CUT_COM": "10403", "REGION": "Los Lagos", "PROVINCIA": "Palena", "COMUNA": "Hualaihu\u00e9", "variable": "Sitios de Inter\u00e9s Tur\u00edstico", "Nombres": "ARQUITECTURA - IGLESIA DE SAN NICOL\u00c1S DE TOLENTINO (MH)", "POINT_X": -72.785509313, "POINT_Y": -41.8479197579}}, {"type": "Feature", "geometry": {"type": "Point", "coordinates": [-72.71875807499998, -41.80276181789998]}, "properties": {"CUT_REG": "10", "CUT_PROV": "104", "CUT_COM": "10403", "REGION": "Los Lagos", "PROVINCIA": "Palena", "COMUNA": "Hualaihu\u00e9", "variable": "Sitios de Inter\u00e9s Tur\u00edstico", "Nombres": "CARNAVAL O FIESTA COSTUMBRISTA - SEMANA COTAINA", "POINT_X": -72.718758075, "POINT_Y": -41.8027618179}}]}