{"type": "FeatureCollection", "features": [{"type": "Feature", "geometry": {"type": "Point", "coordinates": [-69.62446825099997, -21.274031156]}, "properties": {"CUT_REG": "01", "CUT_PROV": "014", "CUT_COM": "01401", "REGION": "Tarapac\u00e1", "PROVINCIA": "Tamarugal", "COMUNA": "Pozo Almonte", "variable": "Sitios de Inter\u00e9s Tur\u00edstico", "Nombres": "SALINA - SALAR DE LLAMARA", "POINT_X": -69.624468251, "POINT_Y": -21.274031156}}, {"type": "Feature", "geometry": {"type": "Point", "coordinates": [-69.28897188100001, -20.99299942800002]}, "properties": {"CUT_REG": "01", "CUT_PROV": "014", "CUT_COM": "01401", "REGION": "Tarapac\u00e1", "PROVINCIA": "Tamarugal", "COMUNA": "Pozo Almonte", "variable": "Sitios de Inter\u00e9s Tur\u00edstico", "Nombres": "RUINA O LUGAR ARQUEOL\u00d3GICO - PETROGLIFOS TAMENTICA", "POINT_X": -69.288971881, "POINT_Y": -20.992999428}}, {"type": "Feature", "geometry": {"type": "Point", "coordinates": [-69.28896852599999, -20.991255568999975]}, "properties": {"CUT_REG": "01", "CUT_PROV": "014", "CUT_COM": "01401", "REGION": "Tarapac\u00e1", "PROVINCIA": "Tamarugal", "COMUNA": "Pozo Almonte", "variable": "Sitios de Inter\u00e9s Tur\u00edstico", "Nombres": "RUINA O LUGAR ARQUEOL\u00d3GICO - ALDEA PREHISP\u00c1NICA DE HUATACONDO", "POINT_X": -69.288968526, "POINT_Y": -20.991255569}}, {"type": "Feature", "geometry": {"type": "Point", "coordinates": [-69.05437648700001, -20.92773621999998]}, "properties": {"CUT_REG": "01", "CUT_PROV": "014", "CUT_COM": "01401", "REGION": "Tarapac\u00e1", "PROVINCIA": "Tamarugal", "COMUNA": "Pozo Almonte", "variable": "Sitios de Inter\u00e9s Tur\u00edstico", "Nombres": "FIESTA RELIGIOSA - FIESTA DE LA VIRGEN DE ASUNTA, SAN SALVADOR Y CORPUS CHRISTI", "POINT_X": -69.054376487, "POINT_Y": -20.92773622}}, {"type": "Feature", "geometry": {"type": "Point", "coordinates": [-69.63117832799996, -20.911959030000013]}, "properties": {"CUT_REG": "01", "CUT_PROV": "014", "CUT_COM": "01401", "REGION": "Tarapac\u00e1", "PROVINCIA": "Tamarugal", "COMUNA": "Pozo Almonte", "variable": "Sitios de Inter\u00e9s Tur\u00edstico", "Nombres": "LUGAR O SITIO HIST\u00d3RICO - INMUEBLES DE LA EX-OFICINA SALITRERA IRIS (MH)", "POINT_X": -69.631178328, "POINT_Y": -20.91195903}}, {"type": "Feature", "geometry": {"type": "Point", "coordinates": [-69.62732811799998, -20.741601253000027]}, "properties": {"CUT_REG": "01", "CUT_PROV": "014", "CUT_COM": "01401", "REGION": "Tarapac\u00e1", "PROVINCIA": "Tamarugal", "COMUNA": "Pozo Almonte", "variable": "Sitios de Inter\u00e9s Tur\u00edstico", "Nombres": "SALINA - SALAR DE BELLAVISTA", "POINT_X": -69.627328118, "POINT_Y": -20.741601253}}, {"type": "Feature", "geometry": {"type": "Point", "coordinates": [-68.55697130100003, -20.73543208300002]}, "properties": {"CUT_REG": "01", "CUT_PROV": "014", "CUT_COM": "01405", "REGION": "Tarapac\u00e1", "PROVINCIA": "Tamarugal", "COMUNA": "Pica", "variable": "Sitios de Inter\u00e9s Tur\u00edstico", "Nombres": "VOLC\u00c1N - VOLC\u00c1N IRRUPUTUNCU", "POINT_X": -68.556971301, "POINT_Y": -20.735432083}}, {"type": "Feature", "geometry": {"type": "Point", "coordinates": [-68.636293537, -20.642686542999996]}, "properties": {"CUT_REG": "01", "CUT_PROV": "014", "CUT_COM": "01405", "REGION": "Tarapac\u00e1", "PROVINCIA": "Tamarugal", "COMUNA": "Pica", "variable": "Sitios de Inter\u00e9s Tur\u00edstico", "Nombres": "SALINA - SALAR DE COPOSA", "POINT_X": -68.636293537, "POINT_Y": -20.642686543}}, {"type": "Feature", "geometry": {"type": "Point", "coordinates": [-69.572042296, -20.629237072999977]}, "properties": {"CUT_REG": "01", "CUT_PROV": "014", "CUT_COM": "01401", "REGION": "Tarapac\u00e1", "PROVINCIA": "Tamarugal", "COMUNA": "Pozo Almonte", "variable": "Sitios de Inter\u00e9s Tur\u00edstico", "Nombres": "OTROS EXPLOTACI\u00d3N AGRO - OASIS COLONIA AGR\u00cdCOLA DE PINTADOS", "POINT_X": -69.572042296, "POINT_Y": -20.629237073}}, {"type": "Feature", "geometry": {"type": "Point", "coordinates": [-69.67409112499999, -20.61890275399996]}, "properties": {"CUT_REG": "01", "CUT_PROV": "014", "CUT_COM": "01401", "REGION": "Tarapac\u00e1", "PROVINCIA": "Tamarugal", "COMUNA": "Pozo Almonte", "variable": "Sitios de Inter\u00e9s Tur\u00edstico", "Nombres": "RUINA O LUGAR ARQUEOL\u00d3GICO - GEOGLIFOS DE PINTADOS (MH)", "POINT_X": -69.674091125, "POINT_Y": -20.618902754}}, {"type": "Feature", "geometry": {"type": "Point", "coordinates": [-69.451220952, -20.609695136]}, "properties": {"CUT_REG": "01", "CUT_PROV": "014", "CUT_COM": "01405", "REGION": "Tarapac\u00e1", "PROVINCIA": "Tamarugal", "COMUNA": "Pica", "variable": "Sitios de Inter\u00e9s Tur\u00edstico", "Nombres": "LUGAR DE INTER\u00c9S PALEONTOL\u00d3GICO - QUEBRADA DE CHACARILLA (SN)", "POINT_X": -69.451220952, "POINT_Y": -20.609695136}}, {"type": "Feature", "geometry": {"type": "Point", "coordinates": [-69.35371239699995, -20.604711287000015]}, "properties": {"CUT_REG": "01", "CUT_PROV": "014", "CUT_COM": "01405", "REGION": "Tarapac\u00e1", "PROVINCIA": "Tamarugal", "COMUNA": "Pica", "variable": "Sitios de Inter\u00e9s Tur\u00edstico", "Nombres": "OASIS - OASIS PUQUIO DE N\u00da\u00d1EZ", "POINT_X": -69.353712397, "POINT_Y": -20.604711287}}, {"type": "Feature", "geometry": {"type": "Point", "coordinates": [-69.64615743099998, -20.560657265999964]}, "properties": {"CUT_REG": "01", "CUT_PROV": "014", "CUT_COM": "01401", "REGION": "Tarapac\u00e1", "PROVINCIA": "Tamarugal", "COMUNA": "Pozo Almonte", "variable": "Sitios de Inter\u00e9s Tur\u00edstico", "Nombres": "SALINA - SALAR DE PINTADOS", "POINT_X": -69.646157431, "POINT_Y": -20.560657266}}, {"type": "Feature", "geometry": {"type": "Point", "coordinates": [-69.26692542200001, -20.522422982999963]}, "properties": {"CUT_REG": "01", "CUT_PROV": "014", "CUT_COM": "01405", "REGION": "Tarapac\u00e1", "PROVINCIA": "Tamarugal", "COMUNA": "Pica", "variable": "Sitios de Inter\u00e9s Tur\u00edstico", "Nombres": "VALLE Y QUEBRADA - QUEBRADA DE QUISMA", "POINT_X": -69.266925422, "POINT_Y": -20.522422983}}, {"type": "Feature", "geometry": {"type": "Point", "coordinates": [-69.34023480900001, -20.516393457999968]}, "properties": {"CUT_REG": "01", "CUT_PROV": "014", "CUT_COM": "01405", "REGION": "Tarapac\u00e1", "PROVINCIA": "Tamarugal", "COMUNA": "Pica", "variable": "Sitios de Inter\u00e9s Tur\u00edstico", "Nombres": "FIESTA RELIGIOSA - FIESTA DE SANTA ROSA DE QUISMA", "POINT_X": -69.340234809, "POINT_Y": -20.516393458}}, {"type": "Feature", "geometry": {"type": "Point", "coordinates": [-69.360965214, -20.51385763100003]}, "properties": {"CUT_REG": "01", "CUT_PROV": "014", "CUT_COM": "01405", "REGION": "Tarapac\u00e1", "PROVINCIA": "Tamarugal", "COMUNA": "Pica", "variable": "Sitios de Inter\u00e9s Tur\u00edstico", "Nombres": "FIESTA RELIGIOSA - FIESTA DE SAN ANTONIO DE MATILLA", "POINT_X": -69.360965214, "POINT_Y": -20.513857631}}, {"type": "Feature", "geometry": {"type": "Point", "coordinates": [-69.36189503800003, -20.51363883000004]}, "properties": {"CUT_REG": "01", "CUT_PROV": "014", "CUT_COM": "01405", "REGION": "Tarapac\u00e1", "PROVINCIA": "Tamarugal", "COMUNA": "Pica", "variable": "Sitios de Inter\u00e9s Tur\u00edstico", "Nombres": "ARQUITECTURA - IGLESIA Y CAMPANARIO DEL PUEBLO DE MATILLA (MH)", "POINT_X": -69.361895038, "POINT_Y": -20.51363883}}, {"type": "Feature", "geometry": {"type": "Point", "coordinates": [-69.362221028, -20.513592969999976]}, "properties": {"CUT_REG": "01", "CUT_PROV": "014", "CUT_COM": "01405", "REGION": "Tarapac\u00e1", "PROVINCIA": "Tamarugal", "COMUNA": "Pica", "variable": "Sitios de Inter\u00e9s Tur\u00edstico", "Nombres": "OBRA DE INGENIER\u00cdA - LAGAR DE MATILLA (MH)", "POINT_X": -69.362221028, "POINT_Y": -20.51359297}}, {"type": "Feature", "geometry": {"type": "Point", "coordinates": [-69.361807849, -20.51326853499996]}, "properties": {"CUT_REG": "01", "CUT_PROV": "014", "CUT_COM": "01405", "REGION": "Tarapac\u00e1", "PROVINCIA": "Tamarugal", "COMUNA": "Pica", "variable": "Sitios de Inter\u00e9s Tur\u00edstico", "Nombres": "PUEBLO O ALDEA TRADICIONAL - MATILLA", "POINT_X": -69.361807849, "POINT_Y": -20.513268535}}, {"type": "Feature", "geometry": {"type": "Point", "coordinates": [-69.357393826, -20.50821750500001]}, "properties": {"CUT_REG": "01", "CUT_PROV": "014", "CUT_COM": "01405", "REGION": "Tarapac\u00e1", "PROVINCIA": "Tamarugal", "COMUNA": "Pica", "variable": "Sitios de Inter\u00e9s Tur\u00edstico", "Nombres": "ESCULTURA - SANTUARIO EL GOLGOTA DEL REENCUENTRO", "POINT_X": -69.357393826, "POINT_Y": -20.508217505}}, {"type": "Feature", "geometry": {"type": "Point", "coordinates": [-69.32942999099998, -20.49161033400003]}, "properties": {"CUT_REG": "01", "CUT_PROV": "014", "CUT_COM": "01405", "REGION": "Tarapac\u00e1", "PROVINCIA": "Tamarugal", "COMUNA": "Pica", "variable": "Sitios de Inter\u00e9s Tur\u00edstico", "Nombres": "ARQUITECTURA - IGLESIA DE PICA (MH)", "POINT_X": -69.329429991, "POINT_Y": -20.491610334}}, {"type": "Feature", "geometry": {"type": "Point", "coordinates": [-69.32953540099999, -20.491573989000038]}, "properties": {"CUT_REG": "01", "CUT_PROV": "014", "CUT_COM": "01405", "REGION": "Tarapac\u00e1", "PROVINCIA": "Tamarugal", "COMUNA": "Pica", "variable": "Sitios de Inter\u00e9s Tur\u00edstico", "Nombres": "FIESTA RELIGIOSA - FIESTA DE LA VIRGEN DE LOURDES DE PICA", "POINT_X": -69.329535401, "POINT_Y": -20.491573989}}, {"type": "Feature", "geometry": {"type": "Point", "coordinates": [-69.32946821500002, -20.49154700900003]}, "properties": {"CUT_REG": "01", "CUT_PROV": "014", "CUT_COM": "01405", "REGION": "Tarapac\u00e1", "PROVINCIA": "Tamarugal", "COMUNA": "Pica", "variable": "Sitios de Inter\u00e9s Tur\u00edstico", "Nombres": "FIESTA RELIGIOSA - FIESTA CRUZ DE MAYO DE PICA", "POINT_X": -69.329468215, "POINT_Y": -20.491547009}}, {"type": "Feature", "geometry": {"type": "Point", "coordinates": [-69.32939143899998, -20.49152004600002]}, "properties": {"CUT_REG": "01", "CUT_PROV": "014", "CUT_COM": "01405", "REGION": "Tarapac\u00e1", "PROVINCIA": "Tamarugal", "COMUNA": "Pica", "variable": "Sitios de Inter\u00e9s Tur\u00edstico", "Nombres": "FIESTA RELIGIOSA - FIESTA DE SAN ANDR\u00c9S DE PICA", "POINT_X": -69.329391439, "POINT_Y": -20.491520046}}, {"type": "Feature", "geometry": {"type": "Point", "coordinates": [-69.32929467399997, -20.491113605999963]}, "properties": {"CUT_REG": "01", "CUT_PROV": "014", "CUT_COM": "01405", "REGION": "Tarapac\u00e1", "PROVINCIA": "Tamarugal", "COMUNA": "Pica", "variable": "Sitios de Inter\u00e9s Tur\u00edstico", "Nombres": "PUEBLO O ALDEA TRADICIONAL - OASIS DE  PICA", "POINT_X": -69.329294674, "POINT_Y": -20.491113606}}, {"type": "Feature", "geometry": {"type": "Point", "coordinates": [-69.32915061600005, -20.491014483000022]}, "properties": {"CUT_REG": "01", "CUT_PROV": "014", "CUT_COM": "01405", "REGION": "Tarapac\u00e1", "PROVINCIA": "Tamarugal", "COMUNA": "Pica", "variable": "Sitios de Inter\u00e9s Tur\u00edstico", "Nombres": "M\u00daSICA O CANTO - SEMANA CULTURAL INVIERNO", "POINT_X": -69.329150616, "POINT_Y": -20.491014483}}, {"type": "Feature", "geometry": {"type": "Point", "coordinates": [-69.31702129949997, -20.485553781100023]}, "properties": {"CUT_REG": "01", "CUT_PROV": "014", "CUT_COM": "01405", "REGION": "Tarapac\u00e1", "PROVINCIA": "Tamarugal", "COMUNA": "Pica", "variable": "Sitios de Inter\u00e9s Tur\u00edstico", "Nombres": "FUENTE Y CENTRO TERMAL - COCHA RESBALADERO", "POINT_X": -69.3170212995, "POINT_Y": -20.4855537811}}, {"type": "Feature", "geometry": {"type": "Point", "coordinates": [-69.655315285, -20.45822110299998]}, "properties": {"CUT_REG": "01", "CUT_PROV": "014", "CUT_COM": "01401", "REGION": "Tarapac\u00e1", "PROVINCIA": "Tamarugal", "COMUNA": "Pozo Almonte", "variable": "Sitios de Inter\u00e9s Tur\u00edstico", "Nombres": "\u00c1REA SILVESTRE PROTEGIDA DEL ESTADO (ASPE) - RESERVA NACIONAL PAMPA DEL TAMARUGAL", "POINT_X": -69.655315285, "POINT_Y": -20.458221103}}, {"type": "Feature", "geometry": {"type": "Point", "coordinates": [-69.56191239500002, -20.431142064999968]}, "properties": {"CUT_REG": "01", "CUT_PROV": "014", "CUT_COM": "01401", "REGION": "Tarapac\u00e1", "PROVINCIA": "Tamarugal", "COMUNA": "Pozo Almonte", "variable": "Sitios de Inter\u00e9s Tur\u00edstico", "Nombres": "FIESTA RELIGIOSA - FIESTA DE SAN ISIDRO DE LA GUAICA", "POINT_X": -69.561912395, "POINT_Y": -20.431142065}}, {"type": "Feature", "geometry": {"type": "Point", "coordinates": [-69.560502648, -20.43096588999996]}, "properties": {"CUT_REG": "01", "CUT_PROV": "014", "CUT_COM": "01401", "REGION": "Tarapac\u00e1", "PROVINCIA": "Tamarugal", "COMUNA": "Pozo Almonte", "variable": "Sitios de Inter\u00e9s Tur\u00edstico", "Nombres": "PUEBLO O ALDEA TRADICIONAL - LA GUAICA", "POINT_X": -69.560502648, "POINT_Y": -20.43096589}}, {"type": "Feature", "geometry": {"type": "Point", "coordinates": [-69.65674471099996, -20.336304322000025]}, "properties": {"CUT_REG": "01", "CUT_PROV": "014", "CUT_COM": "01401", "REGION": "Tarapac\u00e1", "PROVINCIA": "Tamarugal", "COMUNA": "Pozo Almonte", "variable": "Sitios de Inter\u00e9s Tur\u00edstico", "Nombres": "FIESTA RELIGIOSA - PASCUA DE LOS NEGROS DE LA TIRANA", "POINT_X": -69.656744711, "POINT_Y": -20.336304322}}, {"type": "Feature", "geometry": {"type": "Point", "coordinates": [-69.65607402199998, -20.336279733000033]}, "properties": {"CUT_REG": "01", "CUT_PROV": "014", "CUT_COM": "01401", "REGION": "Tarapac\u00e1", "PROVINCIA": "Tamarugal", "COMUNA": "Pozo Almonte", "variable": "Sitios de Inter\u00e9s Tur\u00edstico", "Nombres": "FIESTA RELIGIOSA - FIESTA CRUZ DE MAYO DE LA TIRANA", "POINT_X": -69.656074022, "POINT_Y": -20.336279733}}, {"type": "Feature", "geometry": {"type": "Point", "coordinates": [-69.656503656, -20.335934756]}, "properties": {"CUT_REG": "01", "CUT_PROV": "014", "CUT_COM": "01401", "REGION": "Tarapac\u00e1", "PROVINCIA": "Tamarugal", "COMUNA": "Pozo Almonte", "variable": "Sitios de Inter\u00e9s Tur\u00edstico", "Nombres": "PUEBLO O ALDEA TRADICIONAL - PUEBLO DE LA TIRANA (ZT)", "POINT_X": -69.656503656, "POINT_Y": -20.335934756}}, {"type": "Feature", "geometry": {"type": "Point", "coordinates": [-69.656732307, -20.335635713000038]}, "properties": {"CUT_REG": "01", "CUT_PROV": "014", "CUT_COM": "01401", "REGION": "Tarapac\u00e1", "PROVINCIA": "Tamarugal", "COMUNA": "Pozo Almonte", "variable": "Sitios de Inter\u00e9s Tur\u00edstico", "Nombres": "FIESTA RELIGIOSA - FIESTA DE LA VIRGEN DE LA TIRANA", "POINT_X": -69.656732307, "POINT_Y": -20.335635713}}, {"type": "Feature", "geometry": {"type": "Point", "coordinates": [-68.87574560200002, -20.298393752999985]}, "properties": {"CUT_REG": "01", "CUT_PROV": "014", "CUT_COM": "01405", "REGION": "Tarapac\u00e1", "PROVINCIA": "Tamarugal", "COMUNA": "Pica", "variable": "Sitios de Inter\u00e9s Tur\u00edstico", "Nombres": "\u00c1REA SILVESTRE PROTEGIDA DEL ESTADO (ASPE) - PARQUE NACIONAL SALAR DEL HUASCO", "POINT_X": -68.875745602, "POINT_Y": -20.298393753}}, {"type": "Feature", "geometry": {"type": "Point", "coordinates": [-69.78612437700002, -20.25968038399995]}, "properties": {"CUT_REG": "01", "CUT_PROV": "014", "CUT_COM": "01401", "REGION": "Tarapac\u00e1", "PROVINCIA": "Tamarugal", "COMUNA": "Pozo Almonte", "variable": "Sitios de Inter\u00e9s Tur\u00edstico", "Nombres": "PUEBLO O ALDEA TRADICIONAL - POZO ALMONTE", "POINT_X": -69.786124377, "POINT_Y": -20.259680384}}, {"type": "Feature", "geometry": {"type": "Point", "coordinates": [-69.7969054413, -20.209598569899953]}, "properties": {"CUT_REG": "01", "CUT_PROV": "014", "CUT_COM": "01401", "REGION": "Tarapac\u00e1", "PROVINCIA": "Tamarugal", "COMUNA": "Pozo Almonte", "variable": "Sitios de Inter\u00e9s Tur\u00edstico", "Nombres": "LUGAR O SITIO HIST\u00d3RICO - OFICINAS SALITRERAS HUMBERSTONE Y SANTA LAURA (MH)(PHU)", "POINT_X": -69.7969054413, "POINT_Y": -20.2095985699}}, {"type": "Feature", "geometry": {"type": "Point", "coordinates": [-69.181617087, -20.133943823999964]}, "properties": {"CUT_REG": "01", "CUT_PROV": "014", "CUT_COM": "01401", "REGION": "Tarapac\u00e1", "PROVINCIA": "Tamarugal", "COMUNA": "Pozo Almonte", "variable": "Sitios de Inter\u00e9s Tur\u00edstico", "Nombres": "FIESTA RELIGIOSA - FIESTA DE SAN SANTIAGO DE MACAYA", "POINT_X": -69.181617087, "POINT_Y": -20.133943824}}, {"type": "Feature", "geometry": {"type": "Point", "coordinates": [-69.18193274100001, -20.13387120699999]}, "properties": {"CUT_REG": "01", "CUT_PROV": "014", "CUT_COM": "01401", "REGION": "Tarapac\u00e1", "PROVINCIA": "Tamarugal", "COMUNA": "Pozo Almonte", "variable": "Sitios de Inter\u00e9s Tur\u00edstico", "Nombres": "PUEBLO O ALDEA TRADICIONAL - MACAYA", "POINT_X": -69.181932741, "POINT_Y": -20.133871207}}, {"type": "Feature", "geometry": {"type": "Point", "coordinates": [-69.17621131600002, -20.133609427000003]}, "properties": {"CUT_REG": "01", "CUT_PROV": "014", "CUT_COM": "01401", "REGION": "Tarapac\u00e1", "PROVINCIA": "Tamarugal", "COMUNA": "Pozo Almonte", "variable": "Sitios de Inter\u00e9s Tur\u00edstico", "Nombres": "FUENTE Y CENTRO TERMAL - TERMAS DE MACAYA", "POINT_X": -69.176211316, "POINT_Y": -20.133609427}}, {"type": "Feature", "geometry": {"type": "Point", "coordinates": [-69.739041417, -20.08839219299999]}, "properties": {"CUT_REG": "01", "CUT_PROV": "014", "CUT_COM": "01401", "REGION": "Tarapac\u00e1", "PROVINCIA": "Tamarugal", "COMUNA": "Pozo Almonte", "variable": "Sitios de Inter\u00e9s Tur\u00edstico", "Nombres": "LUGAR O SITIO HIST\u00d3RICO - RUINAS EX OFICINA SALITRERA MAPOCHO", "POINT_X": -69.739041417, "POINT_Y": -20.088392193}}, {"type": "Feature", "geometry": {"type": "Point", "coordinates": [-69.19869620399996, -20.08131467999997]}, "properties": {"CUT_REG": "01", "CUT_PROV": "014", "CUT_COM": "01401", "REGION": "Tarapac\u00e1", "PROVINCIA": "Tamarugal", "COMUNA": "Pozo Almonte", "variable": "Sitios de Inter\u00e9s Tur\u00edstico", "Nombres": "OTROS CIRCUITOS TUR\u00cdSTICOS - CAMINO DE ACANTILADOS MAMI\u00d1A - MACAYA", "POINT_X": -69.198696204, "POINT_Y": -20.08131468}}, {"type": "Feature", "geometry": {"type": "Point", "coordinates": [-69.21380809900003, -20.074103930000028]}, "properties": {"CUT_REG": "01", "CUT_PROV": "014", "CUT_COM": "01401", "REGION": "Tarapac\u00e1", "PROVINCIA": "Tamarugal", "COMUNA": "Pozo Almonte", "variable": "Sitios de Inter\u00e9s Tur\u00edstico", "Nombres": "FUENTE Y CENTRO TERMAL - TERMAS DE MAMI\u00d1A", "POINT_X": -69.213808099, "POINT_Y": -20.07410393}}, {"type": "Feature", "geometry": {"type": "Point", "coordinates": [-69.21723955600001, -20.07259063799996]}, "properties": {"CUT_REG": "01", "CUT_PROV": "014", "CUT_COM": "01401", "REGION": "Tarapac\u00e1", "PROVINCIA": "Tamarugal", "COMUNA": "Pozo Almonte", "variable": "Sitios de Inter\u00e9s Tur\u00edstico", "Nombres": "FIESTA RELIGIOSA - FIESTA CRUZ DE MAYO DE MAMI\u00d1A", "POINT_X": -69.217239556, "POINT_Y": -20.072590638}}, {"type": "Feature", "geometry": {"type": "Point", "coordinates": [-69.21739251899996, -20.072545267000024]}, "properties": {"CUT_REG": "01", "CUT_PROV": "014", "CUT_COM": "01401", "REGION": "Tarapac\u00e1", "PROVINCIA": "Tamarugal", "COMUNA": "Pozo Almonte", "variable": "Sitios de Inter\u00e9s Tur\u00edstico", "Nombres": "PUEBLO O ALDEA TRADICIONAL - MAMI\u00d1A", "POINT_X": -69.217392519, "POINT_Y": -20.072545267}}, {"type": "Feature", "geometry": {"type": "Point", "coordinates": [-69.21725852299997, -20.07247313900001]}, "properties": {"CUT_REG": "01", "CUT_PROV": "014", "CUT_COM": "01401", "REGION": "Tarapac\u00e1", "PROVINCIA": "Tamarugal", "COMUNA": "Pozo Almonte", "variable": "Sitios de Inter\u00e9s Tur\u00edstico", "Nombres": "FIESTA RELIGIOSA - FIESTA DE LA VIRGEN DE ROSARIO DE MAMI\u00d1A", "POINT_X": -69.217258523, "POINT_Y": -20.072473139}}, {"type": "Feature", "geometry": {"type": "Point", "coordinates": [-69.21739233200003, -20.072409719]}, "properties": {"CUT_REG": "01", "CUT_PROV": "014", "CUT_COM": "01401", "REGION": "Tarapac\u00e1", "PROVINCIA": "Tamarugal", "COMUNA": "Pozo Almonte", "variable": "Sitios de Inter\u00e9s Tur\u00edstico", "Nombres": "FIESTA RELIGIOSA - FIESTA DE PENTECOST\u00c9S DE MAMI\u00d1A", "POINT_X": -69.217392332, "POINT_Y": -20.072409719}}, {"type": "Feature", "geometry": {"type": "Point", "coordinates": [-69.21718104199996, -20.072376791000032]}, "properties": {"CUT_REG": "01", "CUT_PROV": "014", "CUT_COM": "01401", "REGION": "Tarapac\u00e1", "PROVINCIA": "Tamarugal", "COMUNA": "Pozo Almonte", "variable": "Sitios de Inter\u00e9s Tur\u00edstico", "Nombres": "ARQUITECTURA - IGLESIA SAN MARCOS DE MAMI\u00d1A (MH)", "POINT_X": -69.217181042, "POINT_Y": -20.072376791}}, {"type": "Feature", "geometry": {"type": "Point", "coordinates": [-68.83010041900003, -20.03920707900003]}, "properties": {"CUT_REG": "01", "CUT_PROV": "014", "CUT_COM": "01405", "REGION": "Tarapac\u00e1", "PROVINCIA": "Tamarugal", "COMUNA": "Pica", "variable": "Sitios de Inter\u00e9s Tur\u00edstico", "Nombres": "PUEBLO O ALDEA TRADICIONAL - COLLACAGUA", "POINT_X": -68.830100419, "POINT_Y": -20.039207079}}, {"type": "Feature", "geometry": {"type": "Point", "coordinates": [-68.817901235, -20.01252785799997]}, "properties": {"CUT_REG": "01", "CUT_PROV": "014", "CUT_COM": "01405", "REGION": "Tarapac\u00e1", "PROVINCIA": "Tamarugal", "COMUNA": "Pica", "variable": "Sitios de Inter\u00e9s Tur\u00edstico", "Nombres": "LAGO Y LAGUNA - LAGUNA HUANTIJA", "POINT_X": -68.817901235, "POINT_Y": -20.012527858}}, {"type": "Feature", "geometry": {"type": "Point", "coordinates": [-69.20358011500002, -20.011736357000025]}, "properties": {"CUT_REG": "01", "CUT_PROV": "014", "CUT_COM": "01401", "REGION": "Tarapac\u00e1", "PROVINCIA": "Tamarugal", "COMUNA": "Pozo Almonte", "variable": "Sitios de Inter\u00e9s Tur\u00edstico", "Nombres": "PUEBLO O ALDEA TRADICIONAL - PARCA", "POINT_X": -69.203580115, "POINT_Y": -20.011736357}}, {"type": "Feature", "geometry": {"type": "Point", "coordinates": [-69.77224312999999, -19.997167089999998]}, "properties": {"CUT_REG": "01", "CUT_PROV": "014", "CUT_COM": "01404", "REGION": "Tarapac\u00e1", "PROVINCIA": "Tamarugal", "COMUNA": "Huara", "variable": "Sitios de Inter\u00e9s Tur\u00edstico", "Nombres": "FIESTA RELIGIOSA - FIESTA DE SAN SALVADOR DE HUARA", "POINT_X": -69.77224313, "POINT_Y": -19.99716709}}, {"type": "Feature", "geometry": {"type": "Point", "coordinates": [-69.77257675899997, -19.996975877999986]}, "properties": {"CUT_REG": "01", "CUT_PROV": "014", "CUT_COM": "01404", "REGION": "Tarapac\u00e1", "PROVINCIA": "Tamarugal", "COMUNA": "Huara", "variable": "Sitios de Inter\u00e9s Tur\u00edstico", "Nombres": "FIESTA RELIGIOSA - FIESTA VIRGEN DEL PERPETUO SOCORRO DE HUARA", "POINT_X": -69.772576759, "POINT_Y": -19.996975878}}, {"type": "Feature", "geometry": {"type": "Point", "coordinates": [-69.77116145600002, -19.996855537999977]}, "properties": {"CUT_REG": "01", "CUT_PROV": "014", "CUT_COM": "01404", "REGION": "Tarapac\u00e1", "PROVINCIA": "Tamarugal", "COMUNA": "Huara", "variable": "Sitios de Inter\u00e9s Tur\u00edstico", "Nombres": "MUSEO - MUSEO BOTICA DE HUARA", "POINT_X": -69.771161456, "POINT_Y": -19.996855538}}, {"type": "Feature", "geometry": {"type": "Point", "coordinates": [-69.77233607300003, -19.99662452099996]}, "properties": {"CUT_REG": "01", "CUT_PROV": "014", "CUT_COM": "01404", "REGION": "Tarapac\u00e1", "PROVINCIA": "Tamarugal", "COMUNA": "Huara", "variable": "Sitios de Inter\u00e9s Tur\u00edstico", "Nombres": "FIESTA RELIGIOSA - FIESTA DE LA VIRGEN DEL PERPETUO SOCORRO DE HUARA", "POINT_X": -69.772336073, "POINT_Y": -19.996624521}}, {"type": "Feature", "geometry": {"type": "Point", "coordinates": [-69.77199759300001, -19.996512969999962]}, "properties": {"CUT_REG": "01", "CUT_PROV": "014", "CUT_COM": "01404", "REGION": "Tarapac\u00e1", "PROVINCIA": "Tamarugal", "COMUNA": "Huara", "variable": "Sitios de Inter\u00e9s Tur\u00edstico", "Nombres": "ARQUITECTURA - TEATRO PRINCIPAL DE HUARA (MH)", "POINT_X": -69.771997593, "POINT_Y": -19.99651297}}, {"type": "Feature", "geometry": {"type": "Point", "coordinates": [-69.634398005, -19.953165231999996]}, "properties": {"CUT_REG": "01", "CUT_PROV": "014", "CUT_COM": "01404", "REGION": "Tarapac\u00e1", "PROVINCIA": "Tamarugal", "COMUNA": "Huara", "variable": "Sitios de Inter\u00e9s Tur\u00edstico", "Nombres": "RUINA O LUGAR ARQUEOL\u00d3GICO - GEOGLIFOS CERRO UNITAS", "POINT_X": -69.634398005, "POINT_Y": -19.953165232}}, {"type": "Feature", "geometry": {"type": "Point", "coordinates": [-69.53905862400002, -19.94936870300002]}, "properties": {"CUT_REG": "01", "CUT_PROV": "014", "CUT_COM": "01404", "REGION": "Tarapac\u00e1", "PROVINCIA": "Tamarugal", "COMUNA": "Huara", "variable": "Sitios de Inter\u00e9s Tur\u00edstico", "Nombres": "FIESTA RELIGIOSA - FIESTA DE SAN LORENZO DE HUARASI\u00d1A", "POINT_X": -69.539058624, "POINT_Y": -19.949368703}}, {"type": "Feature", "geometry": {"type": "Point", "coordinates": [-69.53908643400001, -19.94911559799995]}, "properties": {"CUT_REG": "01", "CUT_PROV": "014", "CUT_COM": "01404", "REGION": "Tarapac\u00e1", "PROVINCIA": "Tamarugal", "COMUNA": "Huara", "variable": "Sitios de Inter\u00e9s Tur\u00edstico", "Nombres": "PUEBLO O ALDEA TRADICIONAL - HUARASI\u00d1A", "POINT_X": -69.539086434, "POINT_Y": -19.949115598}}, {"type": "Feature", "geometry": {"type": "Point", "coordinates": [-69.63360067620003, -19.949054984400036]}, "properties": {"CUT_REG": "01", "CUT_PROV": "014", "CUT_COM": "01404", "REGION": "Tarapac\u00e1", "PROVINCIA": "Tamarugal", "COMUNA": "Huara", "variable": "Sitios de Inter\u00e9s Tur\u00edstico", "Nombres": "RUINA O LUGAR ARQUEOL\u00d3GICO - GIGANTE DE ATACAMA", "POINT_X": -69.6336006762, "POINT_Y": -19.9490549844}}, {"type": "Feature", "geometry": {"type": "Point", "coordinates": [-69.51077641400002, -19.924077878]}, "properties": {"CUT_REG": "01", "CUT_PROV": "014", "CUT_COM": "01404", "REGION": "Tarapac\u00e1", "PROVINCIA": "Tamarugal", "COMUNA": "Huara", "variable": "Sitios de Inter\u00e9s Tur\u00edstico", "Nombres": "PUEBLO O ALDEA TRADICIONAL - PUEBLO DE TARAPAC\u00c1 (ZT)", "POINT_X": -69.510776414, "POINT_Y": -19.924077878}}, {"type": "Feature", "geometry": {"type": "Point", "coordinates": [-69.51101499299996, -19.923986827000014]}, "properties": {"CUT_REG": "01", "CUT_PROV": "014", "CUT_COM": "01404", "REGION": "Tarapac\u00e1", "PROVINCIA": "Tamarugal", "COMUNA": "Huara", "variable": "Sitios de Inter\u00e9s Tur\u00edstico", "Nombres": "FIESTA RELIGIOSA - FIESTA VIRGEN DE LA CANDELARIA DE TARAPAC\u00c1", "POINT_X": -69.511014993, "POINT_Y": -19.923986827}}, {"type": "Feature", "geometry": {"type": "Point", "coordinates": [-69.51122470499999, -19.923832603999955]}, "properties": {"CUT_REG": "01", "CUT_PROV": "014", "CUT_COM": "01404", "REGION": "Tarapac\u00e1", "PROVINCIA": "Tamarugal", "COMUNA": "Huara", "variable": "Sitios de Inter\u00e9s Tur\u00edstico", "Nombres": "FIESTA RELIGIOSA - FIESTA DE SAN LORENZO DE TARAPAC\u00c1", "POINT_X": -69.511224705, "POINT_Y": -19.923832604}}, {"type": "Feature", "geometry": {"type": "Point", "coordinates": [-69.51107174099994, -19.923805933999965]}, "properties": {"CUT_REG": "01", "CUT_PROV": "014", "CUT_COM": "01404", "REGION": "Tarapac\u00e1", "PROVINCIA": "Tamarugal", "COMUNA": "Huara", "variable": "Sitios de Inter\u00e9s Tur\u00edstico", "Nombres": "ARQUITECTURA - IGLESIA Y CAMPANARIO PUEBLO DE SAN LORENZO DE TARAPAC\u00c1 (MH)", "POINT_X": -69.511071741, "POINT_Y": -19.923805934}}, {"type": "Feature", "geometry": {"type": "Point", "coordinates": [-69.79246731, -19.90094303500001]}, "properties": {"CUT_REG": "01", "CUT_PROV": "014", "CUT_COM": "01404", "REGION": "Tarapac\u00e1", "PROVINCIA": "Tamarugal", "COMUNA": "Huara", "variable": "Sitios de Inter\u00e9s Tur\u00edstico", "Nombres": "RUINA O LUGAR ARQUEOL\u00d3GICO - GEOGLIFOS DEL CERRO ROSITA", "POINT_X": -69.79246731, "POINT_Y": -19.900943035}}, {"type": "Feature", "geometry": {"type": "Point", "coordinates": [-69.81686383500002, -19.894968294000023]}, "properties": {"CUT_REG": "01", "CUT_PROV": "014", "CUT_COM": "01404", "REGION": "Tarapac\u00e1", "PROVINCIA": "Tamarugal", "COMUNA": "Huara", "variable": "Sitios de Inter\u00e9s Tur\u00edstico", "Nombres": "LUGAR O SITIO HIST\u00d3RICO - RUINAS EX OFICINA SALITRERA EX-AURA", "POINT_X": -69.816863835, "POINT_Y": -19.894968294}}, {"type": "Feature", "geometry": {"type": "Point", "coordinates": [-69.79510345499999, -19.885533721000023]}, "properties": {"CUT_REG": "01", "CUT_PROV": "014", "CUT_COM": "01404", "REGION": "Tarapac\u00e1", "PROVINCIA": "Tamarugal", "COMUNA": "Huara", "variable": "Sitios de Inter\u00e9s Tur\u00edstico", "Nombres": "RUINA O LUGAR ARQUEOL\u00d3GICO - GEOGLIFOS CERRO SOL DE AURA", "POINT_X": -69.795103455, "POINT_Y": -19.885533721}}, {"type": "Feature", "geometry": {"type": "Point", "coordinates": [-69.182987613, -19.871256023999955]}, "properties": {"CUT_REG": "01", "CUT_PROV": "014", "CUT_COM": "01404", "REGION": "Tarapac\u00e1", "PROVINCIA": "Tamarugal", "COMUNA": "Huara", "variable": "Sitios de Inter\u00e9s Tur\u00edstico", "Nombres": "PUEBLO O ALDEA TRADICIONAL - POROMA", "POINT_X": -69.182987613, "POINT_Y": -19.871256024}}, {"type": "Feature", "geometry": {"type": "Point", "coordinates": [-69.43152349900004, -19.866065126999985]}, "properties": {"CUT_REG": "01", "CUT_PROV": "014", "CUT_COM": "01404", "REGION": "Tarapac\u00e1", "PROVINCIA": "Tamarugal", "COMUNA": "Huara", "variable": "Sitios de Inter\u00e9s Tur\u00edstico", "Nombres": "FIESTA RELIGIOSA - FIESTA DE SANTA B\u00c1RBARA DE PACHICA", "POINT_X": -69.431523499, "POINT_Y": -19.866065127}}, {"type": "Feature", "geometry": {"type": "Point", "coordinates": [-69.43259298899997, -19.86596313099998]}, "properties": {"CUT_REG": "01", "CUT_PROV": "014", "CUT_COM": "01404", "REGION": "Tarapac\u00e1", "PROVINCIA": "Tamarugal", "COMUNA": "Huara", "variable": "Sitios de Inter\u00e9s Tur\u00edstico", "Nombres": "FIESTA RELIGIOSA - FIESTA SAN JOS\u00c9 OBRERO DE PACHICA", "POINT_X": -69.432592989, "POINT_Y": -19.865963131}}, {"type": "Feature", "geometry": {"type": "Point", "coordinates": [-69.432363657, -19.86592754099997]}, "properties": {"CUT_REG": "01", "CUT_PROV": "014", "CUT_COM": "01404", "REGION": "Tarapac\u00e1", "PROVINCIA": "Tamarugal", "COMUNA": "Huara", "variable": "Sitios de Inter\u00e9s Tur\u00edstico", "Nombres": "PUEBLO O ALDEA TRADICIONAL - PACHICA", "POINT_X": -69.432363657, "POINT_Y": -19.865927541}}, {"type": "Feature", "geometry": {"type": "Point", "coordinates": [-69.431704512, -19.86589299199995]}, "properties": {"CUT_REG": "01", "CUT_PROV": "014", "CUT_COM": "01404", "REGION": "Tarapac\u00e1", "PROVINCIA": "Tamarugal", "COMUNA": "Huara", "variable": "Sitios de Inter\u00e9s Tur\u00edstico", "Nombres": "FIESTA RELIGIOSA - FIESTA DE SAN ISIDRO DE PACHICA", "POINT_X": -69.431704512, "POINT_Y": -19.865892992}}, {"type": "Feature", "geometry": {"type": "Point", "coordinates": [-69.13812687599997, -19.864296883999963]}, "properties": {"CUT_REG": "01", "CUT_PROV": "014", "CUT_COM": "01404", "REGION": "Tarapac\u00e1", "PROVINCIA": "Tamarugal", "COMUNA": "Huara", "variable": "Sitios de Inter\u00e9s Tur\u00edstico", "Nombres": "FIESTA RELIGIOSA - FIESTA SAN PEDRO y SAN PABLO DE COSCAYA", "POINT_X": -69.138126876, "POINT_Y": -19.864296884}}, {"type": "Feature", "geometry": {"type": "Point", "coordinates": [-69.35984943099997, -19.862076429000005]}, "properties": {"CUT_REG": "01", "CUT_PROV": "014", "CUT_COM": "01404", "REGION": "Tarapac\u00e1", "PROVINCIA": "Tamarugal", "COMUNA": "Huara", "variable": "Sitios de Inter\u00e9s Tur\u00edstico", "Nombres": "OTROS CIRCUITOS TUR\u00cdSTICOS - CAMINO Y VADEOS A LAONZANA", "POINT_X": -69.359849431, "POINT_Y": -19.862076429}}, {"type": "Feature", "geometry": {"type": "Point", "coordinates": [-69.34639275599997, -19.85819923400001]}, "properties": {"CUT_REG": "01", "CUT_PROV": "014", "CUT_COM": "01404", "REGION": "Tarapac\u00e1", "PROVINCIA": "Tamarugal", "COMUNA": "Huara", "variable": "Sitios de Inter\u00e9s Tur\u00edstico", "Nombres": "ARQUITECTURA - CAPILLA DE LAONZANA (MH)", "POINT_X": -69.346392756, "POINT_Y": -19.858199234}}, {"type": "Feature", "geometry": {"type": "Point", "coordinates": [-68.90746071500001, -19.85383067799996]}, "properties": {"CUT_REG": "01", "CUT_PROV": "014", "CUT_COM": "01405", "REGION": "Tarapac\u00e1", "PROVINCIA": "Tamarugal", "COMUNA": "Pica", "variable": "Sitios de Inter\u00e9s Tur\u00edstico", "Nombres": "FUENTE Y CENTRO TERMAL - TERMAS DE LIRIMA", "POINT_X": -68.907460715, "POINT_Y": -19.853830678}}, {"type": "Feature", "geometry": {"type": "Point", "coordinates": [-68.855145756, -19.848156877999998]}, "properties": {"CUT_REG": "01", "CUT_PROV": "014", "CUT_COM": "01405", "REGION": "Tarapac\u00e1", "PROVINCIA": "Tamarugal", "COMUNA": "Pica", "variable": "Sitios de Inter\u00e9s Tur\u00edstico", "Nombres": "PUEBLO O ALDEA TRADICIONAL - LIRIMA", "POINT_X": -68.855145756, "POINT_Y": -19.848156878}}, {"type": "Feature", "geometry": {"type": "Point", "coordinates": [-69.27544492499996, -19.812651115999977]}, "properties": {"CUT_REG": "01", "CUT_PROV": "014", "CUT_COM": "01404", "REGION": "Tarapac\u00e1", "PROVINCIA": "Tamarugal", "COMUNA": "Huara", "variable": "Sitios de Inter\u00e9s Tur\u00edstico", "Nombres": "FIESTA RELIGIOSA - FIESTA DE SAN ANTONIO DE MOCHA", "POINT_X": -69.275444925, "POINT_Y": -19.812651116}}, {"type": "Feature", "geometry": {"type": "Point", "coordinates": [-69.27533023499998, -19.812588034999997]}, "properties": {"CUT_REG": "01", "CUT_PROV": "014", "CUT_COM": "01404", "REGION": "Tarapac\u00e1", "PROVINCIA": "Tamarugal", "COMUNA": "Huara", "variable": "Sitios de Inter\u00e9s Tur\u00edstico", "Nombres": "ARQUITECTURA - CAPILLA DE  MOCHA (MH)", "POINT_X": -69.275330235, "POINT_Y": -19.812588035}}, {"type": "Feature", "geometry": {"type": "Point", "coordinates": [-69.24972125400001, -19.800281382000037]}, "properties": {"CUT_REG": "01", "CUT_PROV": "014", "CUT_COM": "01404", "REGION": "Tarapac\u00e1", "PROVINCIA": "Tamarugal", "COMUNA": "Huara", "variable": "Sitios de Inter\u00e9s Tur\u00edstico", "Nombres": "CIRCUITO TUR\u00cdSTICO - CIRCUITO QUEBRADA DE TARAPAC\u00c1", "POINT_X": -69.249721254, "POINT_Y": -19.800281382}}, {"type": "Feature", "geometry": {"type": "Point", "coordinates": [-69.22348730000002, -19.795689253999953]}, "properties": {"CUT_REG": "01", "CUT_PROV": "014", "CUT_COM": "01404", "REGION": "Tarapac\u00e1", "PROVINCIA": "Tamarugal", "COMUNA": "Huara", "variable": "Sitios de Inter\u00e9s Tur\u00edstico", "Nombres": "FIESTA RELIGIOSA - FIESTA VIRGEN DE LA CANDELARIA DE HUAVI\u00d1A", "POINT_X": -69.2234873, "POINT_Y": -19.795689254}}, {"type": "Feature", "geometry": {"type": "Point", "coordinates": [-69.22356364100003, -19.79566204800001]}, "properties": {"CUT_REG": "01", "CUT_PROV": "014", "CUT_COM": "01404", "REGION": "Tarapac\u00e1", "PROVINCIA": "Tamarugal", "COMUNA": "Huara", "variable": "Sitios de Inter\u00e9s Tur\u00edstico", "Nombres": "FIESTA RELIGIOSA - FIESTA DE SAN JUAN BAUTISTA DE HUAVI\u00d1A", "POINT_X": -69.223563641, "POINT_Y": -19.795662048}}, {"type": "Feature", "geometry": {"type": "Point", "coordinates": [-69.22334363500005, -19.795364106999962]}, "properties": {"CUT_REG": "01", "CUT_PROV": "014", "CUT_COM": "01404", "REGION": "Tarapac\u00e1", "PROVINCIA": "Tamarugal", "COMUNA": "Huara", "variable": "Sitios de Inter\u00e9s Tur\u00edstico", "Nombres": "PUEBLO O ALDEA TRADICIONAL - GUAVI\u00d1A", "POINT_X": -69.223343635, "POINT_Y": -19.795364107}}, {"type": "Feature", "geometry": {"type": "Point", "coordinates": [-69.18541091600002, -19.786433875000036]}, "properties": {"CUT_REG": "01", "CUT_PROV": "014", "CUT_COM": "01404", "REGION": "Tarapac\u00e1", "PROVINCIA": "Tamarugal", "COMUNA": "Huara", "variable": "Sitios de Inter\u00e9s Tur\u00edstico", "Nombres": "PUEBLO O ALDEA TRADICIONAL - LIMACSI\u00d1A", "POINT_X": -69.185410916, "POINT_Y": -19.786433875}}, {"type": "Feature", "geometry": {"type": "Point", "coordinates": [-69.18513384700002, -19.786253425000027]}, "properties": {"CUT_REG": "01", "CUT_PROV": "014", "CUT_COM": "01404", "REGION": "Tarapac\u00e1", "PROVINCIA": "Tamarugal", "COMUNA": "Huara", "variable": "Sitios de Inter\u00e9s Tur\u00edstico", "Nombres": "FIESTA RELIGIOSA - FIESTA VIRGEN DE LA CANDELARIA DE LIMACSI\u00d1A", "POINT_X": -69.185133847, "POINT_Y": -19.786253425}}, {"type": "Feature", "geometry": {"type": "Point", "coordinates": [-69.14755065699998, -19.779095026999975]}, "properties": {"CUT_REG": "01", "CUT_PROV": "014", "CUT_COM": "01404", "REGION": "Tarapac\u00e1", "PROVINCIA": "Tamarugal", "COMUNA": "Huara", "variable": "Sitios de Inter\u00e9s Tur\u00edstico", "Nombres": "PUEBLO O ALDEA TRADICIONAL - SIBAYA", "POINT_X": -69.147550657, "POINT_Y": -19.779095027}}, {"type": "Feature", "geometry": {"type": "Point", "coordinates": [-69.14821885900002, -19.779040252999977]}, "properties": {"CUT_REG": "01", "CUT_PROV": "014", "CUT_COM": "01404", "REGION": "Tarapac\u00e1", "PROVINCIA": "Tamarugal", "COMUNA": "Huara", "variable": "Sitios de Inter\u00e9s Tur\u00edstico", "Nombres": "FIESTA RELIGIOSA - FIESTA ASUNCI\u00d3N DE LA VIRGEN DE SIBAYA", "POINT_X": -69.148218859, "POINT_Y": -19.779040253}}, {"type": "Feature", "geometry": {"type": "Point", "coordinates": [-69.14746459699995, -19.77894146999997]}, "properties": {"CUT_REG": "01", "CUT_PROV": "014", "CUT_COM": "01404", "REGION": "Tarapac\u00e1", "PROVINCIA": "Tamarugal", "COMUNA": "Huara", "variable": "Sitios de Inter\u00e9s Tur\u00edstico", "Nombres": "FIESTA RELIGIOSA - FIESTA DE SAN NICOL\u00c1S DE SIBAYA", "POINT_X": -69.147464597, "POINT_Y": -19.77894147}}, {"type": "Feature", "geometry": {"type": "Point", "coordinates": [-69.14769369499999, -19.778923207999973]}, "properties": {"CUT_REG": "01", "CUT_PROV": "014", "CUT_COM": "01404", "REGION": "Tarapac\u00e1", "PROVINCIA": "Tamarugal", "COMUNA": "Huara", "variable": "Sitios de Inter\u00e9s Tur\u00edstico", "Nombres": "FIESTA RELIGIOSA - FIESTA DE PENTECOST\u00c9S DE SIBAYA", "POINT_X": -69.147693695, "POINT_Y": -19.778923208}}, {"type": "Feature", "geometry": {"type": "Point", "coordinates": [-69.87166223700001, -19.754729650999963]}, "properties": {"CUT_REG": "01", "CUT_PROV": "014", "CUT_COM": "01404", "REGION": "Tarapac\u00e1", "PROVINCIA": "Tamarugal", "COMUNA": "Huara", "variable": "Sitios de Inter\u00e9s Tur\u00edstico", "Nombres": "FIESTA RELIGIOSA - ROMER\u00cdA A LOS CEMENTERIOS DE LA PAMPA", "POINT_X": -69.871662237, "POINT_Y": -19.754729651}}, {"type": "Feature", "geometry": {"type": "Point", "coordinates": [-68.70472200100002, -19.752221996999957]}, "properties": {"CUT_REG": "01", "CUT_PROV": "014", "CUT_COM": "01403", "REGION": "Tarapac\u00e1", "PROVINCIA": "Tamarugal", "COMUNA": "Colchane", "variable": "Sitios de Inter\u00e9s Tur\u00edstico", "Nombres": "CERRO - CERRO SILLAJHUAY", "POINT_X": -68.704722001, "POINT_Y": -19.752221997}}, {"type": "Feature", "geometry": {"type": "Point", "coordinates": [-69.39852791499996, -19.745321076999986]}, "properties": {"CUT_REG": "01", "CUT_PROV": "014", "CUT_COM": "01404", "REGION": "Tarapac\u00e1", "PROVINCIA": "Tamarugal", "COMUNA": "Huara", "variable": "Sitios de Inter\u00e9s Tur\u00edstico", "Nombres": "ARQUITECTURA - IGLESIA DE HUASQUI\u00d1A (MH)", "POINT_X": -69.398527915, "POINT_Y": -19.745321077}}, {"type": "Feature", "geometry": {"type": "Point", "coordinates": [-69.21995882000002, -19.742981565000036]}, "properties": {"CUT_REG": "01", "CUT_PROV": "014", "CUT_COM": "01404", "REGION": "Tarapac\u00e1", "PROVINCIA": "Tamarugal", "COMUNA": "Huara", "variable": "Sitios de Inter\u00e9s Tur\u00edstico", "Nombres": "ARQUITECTURA - IGLESIA DE USMAGAMA (MH)", "POINT_X": -69.21995882, "POINT_Y": -19.742981565}}, {"type": "Feature", "geometry": {"type": "Point", "coordinates": [-69.18290670999995, -19.683270960999963]}, "properties": {"CUT_REG": "01", "CUT_PROV": "014", "CUT_COM": "01404", "REGION": "Tarapac\u00e1", "PROVINCIA": "Tamarugal", "COMUNA": "Huara", "variable": "Sitios de Inter\u00e9s Tur\u00edstico", "Nombres": "FUENTE Y CENTRO TERMAL - TERMAS DE CHUSMIZA", "POINT_X": -69.18290671, "POINT_Y": -19.683270961}}, {"type": "Feature", "geometry": {"type": "Point", "coordinates": [-68.643608056, -19.63855799000001]}, "properties": {"CUT_REG": "01", "CUT_PROV": "014", "CUT_COM": "01403", "REGION": "Tarapac\u00e1", "PROVINCIA": "Tamarugal", "COMUNA": "Colchane", "variable": "Sitios de Inter\u00e9s Tur\u00edstico", "Nombres": "PUEBLO O ALDEA TRADICIONAL - CHULLUNCANE", "POINT_X": -68.643608056, "POINT_Y": -19.63855799}}, {"type": "Feature", "geometry": {"type": "Point", "coordinates": [-69.24250601899996, -19.637626937999983]}, "properties": {"CUT_REG": "01", "CUT_PROV": "014", "CUT_COM": "01404", "REGION": "Tarapac\u00e1", "PROVINCIA": "Tamarugal", "COMUNA": "Huara", "variable": "Sitios de Inter\u00e9s Tur\u00edstico", "Nombres": "PUEBLO O ALDEA TRADICIONAL - SIPIZA", "POINT_X": -69.242506019, "POINT_Y": -19.637626938}}, {"type": "Feature", "geometry": {"type": "Point", "coordinates": [-69.556492224, -19.623112668999973]}, "properties": {"CUT_REG": "01", "CUT_PROV": "014", "CUT_COM": "01404", "REGION": "Tarapac\u00e1", "PROVINCIA": "Tamarugal", "COMUNA": "Huara", "variable": "Sitios de Inter\u00e9s Tur\u00edstico", "Nombres": "RUINA O LUGAR ARQUEOL\u00d3GICO - PETROGLIFOS DE ARIQUILDA", "POINT_X": -69.556492224, "POINT_Y": -19.623112669}}, {"type": "Feature", "geometry": {"type": "Point", "coordinates": [-70.23696077699996, -19.601399725999954]}, "properties": {"CUT_REG": "01", "CUT_PROV": "014", "CUT_COM": "01404", "REGION": "Tarapac\u00e1", "PROVINCIA": "Tamarugal", "COMUNA": "Huara", "variable": "Sitios de Inter\u00e9s Tur\u00edstico", "Nombres": "PEN\u00cdNSULA, CABO O PUNTA - PUNTA PICHALO", "POINT_X": -70.236960777, "POINT_Y": -19.601399726}}, {"type": "Feature", "geometry": {"type": "Point", "coordinates": [-70.21694560399999, -19.59850008500002]}, "properties": {"CUT_REG": "01", "CUT_PROV": "014", "CUT_COM": "01404", "REGION": "Tarapac\u00e1", "PROVINCIA": "Tamarugal", "COMUNA": "Huara", "variable": "Sitios de Inter\u00e9s Tur\u00edstico", "Nombres": "ARQUITECTURA - HOSPITAL DE PISAGUA (MH)", "POINT_X": -70.216945604, "POINT_Y": -19.598500085}}, {"type": "Feature", "geometry": {"type": "Point", "coordinates": [-70.21229594699994, -19.597627871999975]}, "properties": {"CUT_REG": "01", "CUT_PROV": "014", "CUT_COM": "01404", "REGION": "Tarapac\u00e1", "PROVINCIA": "Tamarugal", "COMUNA": "Huara", "variable": "Sitios de Inter\u00e9s Tur\u00edstico", "Nombres": "LUGAR O SITIO HIST\u00d3RICO - C\u00c1RCEL PUBLICA DE PISAGUA (MH)", "POINT_X": -70.212295947, "POINT_Y": -19.597627872}}, {"type": "Feature", "geometry": {"type": "Point", "coordinates": [-70.21099898900002, -19.59758037400004]}, "properties": {"CUT_REG": "01", "CUT_PROV": "014", "CUT_COM": "01404", "REGION": "Tarapac\u00e1", "PROVINCIA": "Tamarugal", "COMUNA": "Huara", "variable": "Sitios de Inter\u00e9s Tur\u00edstico", "Nombres": "ARQUITECTURA - TORRE RELOJ DE PISAGUA (MH)", "POINT_X": -70.210998989, "POINT_Y": -19.597580374}}, {"type": "Feature", "geometry": {"type": "Point", "coordinates": [-70.21802516399997, -19.597525992999984]}, "properties": {"CUT_REG": "01", "CUT_PROV": "014", "CUT_COM": "01404", "REGION": "Tarapac\u00e1", "PROVINCIA": "Tamarugal", "COMUNA": "Huara", "variable": "Sitios de Inter\u00e9s Tur\u00edstico", "Nombres": "ACANTILADO - ACANTILADOS Y RADA DE PISAGUA", "POINT_X": -70.218025164, "POINT_Y": -19.597525993}}, {"type": "Feature", "geometry": {"type": "Point", "coordinates": [-70.21194603999996, -19.596735708999965]}, "properties": {"CUT_REG": "01", "CUT_PROV": "014", "CUT_COM": "01404", "REGION": "Tarapac\u00e1", "PROVINCIA": "Tamarugal", "COMUNA": "Huara", "variable": "Sitios de Inter\u00e9s Tur\u00edstico", "Nombres": "FIESTA RELIGIOSA - FIESTA SAN PEDRO y SAN PABLO DE PISAGUA", "POINT_X": -70.21194604, "POINT_Y": -19.596735709}}, {"type": "Feature", "geometry": {"type": "Point", "coordinates": [-70.21103007500002, -19.596642474999975]}, "properties": {"CUT_REG": "01", "CUT_PROV": "014", "CUT_COM": "01404", "REGION": "Tarapac\u00e1", "PROVINCIA": "Tamarugal", "COMUNA": "Huara", "variable": "Sitios de Inter\u00e9s Tur\u00edstico", "Nombres": "PUEBLO O ALDEA TRADICIONAL - PISAGUA", "POINT_X": -70.211030075, "POINT_Y": -19.596642475}}, {"type": "Feature", "geometry": {"type": "Point", "coordinates": [-70.21206828500004, -19.596508999000037]}, "properties": {"CUT_REG": "01", "CUT_PROV": "014", "CUT_COM": "01404", "REGION": "Tarapac\u00e1", "PROVINCIA": "Tamarugal", "COMUNA": "Huara", "variable": "Sitios de Inter\u00e9s Tur\u00edstico", "Nombres": "ARQUITECTURA - TEATRO MUNICIPAL DE PISAGUA (MH)", "POINT_X": -70.212068285, "POINT_Y": -19.596508999}}, {"type": "Feature", "geometry": {"type": "Point", "coordinates": [-70.21181919500003, -19.59634803499995]}, "properties": {"CUT_REG": "01", "CUT_PROV": "014", "CUT_COM": "01404", "REGION": "Tarapac\u00e1", "PROVINCIA": "Tamarugal", "COMUNA": "Huara", "variable": "Sitios de Inter\u00e9s Tur\u00edstico", "Nombres": "ARQUITECTURA - IGLESIA Y EDIFICIO PAREDA\u00d1O COSTADO NORTE AL TEATRO MUNICIPAL DE PISAGUA (MH)", "POINT_X": -70.211819195, "POINT_Y": -19.596348035}}, {"type": "Feature", "geometry": {"type": "Point", "coordinates": [-69.23308945300003, -19.596186584]}, "properties": {"CUT_REG": "01", "CUT_PROV": "014", "CUT_COM": "01404", "REGION": "Tarapac\u00e1", "PROVINCIA": "Tamarugal", "COMUNA": "Huara", "variable": "Sitios de Inter\u00e9s Tur\u00edstico", "Nombres": "FIESTA RELIGIOSA - FIESTA SAN PEDRO y SAN PABLO DE SOTOCA", "POINT_X": -69.233089453, "POINT_Y": -19.596186584}}, {"type": "Feature", "geometry": {"type": "Point", "coordinates": [-69.23318477000001, -19.59615934899997]}, "properties": {"CUT_REG": "01", "CUT_PROV": "014", "CUT_COM": "01404", "REGION": "Tarapac\u00e1", "PROVINCIA": "Tamarugal", "COMUNA": "Huara", "variable": "Sitios de Inter\u00e9s Tur\u00edstico", "Nombres": "ARQUITECTURA - IGLESIA DE SOTOCA (MH)", "POINT_X": -69.23318477, "POINT_Y": -19.596159349}}, {"type": "Feature", "geometry": {"type": "Point", "coordinates": [-68.649248933, -19.593729800000034]}, "properties": {"CUT_REG": "01", "CUT_PROV": "014", "CUT_COM": "01403", "REGION": "Tarapac\u00e1", "PROVINCIA": "Tamarugal", "COMUNA": "Colchane", "variable": "Sitios de Inter\u00e9s Tur\u00edstico", "Nombres": "FIESTA RELIGIOSA - FIESTA DE SANTA ROSA LIMA", "POINT_X": -68.649248933, "POINT_Y": -19.5937298}}, {"type": "Feature", "geometry": {"type": "Point", "coordinates": [-68.64923739900001, -19.593709660999963]}, "properties": {"CUT_REG": "01", "CUT_PROV": "014", "CUT_COM": "01403", "REGION": "Tarapac\u00e1", "PROVINCIA": "Tamarugal", "COMUNA": "Colchane", "variable": "Sitios de Inter\u00e9s Tur\u00edstico", "Nombres": "FIESTA RELIGIOSA - FIESTA SANTA ROSA DE VILLABLANCA", "POINT_X": -68.649237399, "POINT_Y": -19.593709661}}, {"type": "Feature", "geometry": {"type": "Point", "coordinates": [-70.20848630299996, -19.593054374000012]}, "properties": {"CUT_REG": "01", "CUT_PROV": "014", "CUT_COM": "01404", "REGION": "Tarapac\u00e1", "PROVINCIA": "Tamarugal", "COMUNA": "Huara", "variable": "Sitios de Inter\u00e9s Tur\u00edstico", "Nombres": "PLAYA O BALNEARIO - PLAYA PISAGUA", "POINT_X": -70.208486303, "POINT_Y": -19.593054374}}, {"type": "Feature", "geometry": {"type": "Point", "coordinates": [-68.99555560000002, -19.566666690000005]}, "properties": {"CUT_REG": "01", "CUT_PROV": "014", "CUT_COM": "01403", "REGION": "Tarapac\u00e1", "PROVINCIA": "Tamarugal", "COMUNA": "Colchane", "variable": "Sitios de Inter\u00e9s Tur\u00edstico", "Nombres": "CERRO - CERRO DE TAPA", "POINT_X": -68.9955556, "POINT_Y": -19.56666669}}, {"type": "Feature", "geometry": {"type": "Point", "coordinates": [-70.21184823000004, -19.564542758999956]}, "properties": {"CUT_REG": "01", "CUT_PROV": "014", "CUT_COM": "01404", "REGION": "Tarapac\u00e1", "PROVINCIA": "Tamarugal", "COMUNA": "Huara", "variable": "Sitios de Inter\u00e9s Tur\u00edstico", "Nombres": "PEN\u00cdNSULA, CABO O PUNTA - PUNTA PISAGUA", "POINT_X": -70.21184823, "POINT_Y": -19.564542759}}, {"type": "Feature", "geometry": {"type": "Point", "coordinates": [-70.206101531, -19.559575551000016]}, "properties": {"CUT_REG": "01", "CUT_PROV": "014", "CUT_COM": "01404", "REGION": "Tarapac\u00e1", "PROVINCIA": "Tamarugal", "COMUNA": "Huara", "variable": "Sitios de Inter\u00e9s Tur\u00edstico", "Nombres": "LUGAR O SITIO HIST\u00d3RICO - RUINAS PISAGUA VIEJO", "POINT_X": -70.206101531, "POINT_Y": -19.559575551}}, {"type": "Feature", "geometry": {"type": "Point", "coordinates": [-69.94441704399995, -19.550263796999964]}, "properties": {"CUT_REG": "01", "CUT_PROV": "014", "CUT_COM": "01404", "REGION": "Tarapac\u00e1", "PROVINCIA": "Tamarugal", "COMUNA": "Huara", "variable": "Sitios de Inter\u00e9s Tur\u00edstico", "Nombres": "HACIENDAS Y ESTANCIAS - HACIENDA DE TILIVICHE", "POINT_X": -69.944417044, "POINT_Y": -19.550263797}}, {"type": "Feature", "geometry": {"type": "Point", "coordinates": [-69.94648862400004, -19.549168611000027]}, "properties": {"CUT_REG": "01", "CUT_PROV": "014", "CUT_COM": "01404", "REGION": "Tarapac\u00e1", "PROVINCIA": "Tamarugal", "COMUNA": "Huara", "variable": "Sitios de Inter\u00e9s Tur\u00edstico", "Nombres": "ARQUITECTURA - CEMENTERIO DE LOS INGLESES EN HACIENDA TILIVICHE  (MH)", "POINT_X": -69.946488624, "POINT_Y": -19.549168611}}, {"type": "Feature", "geometry": {"type": "Point", "coordinates": [-68.67125944400003, -19.544309695999992]}, "properties": {"CUT_REG": "01", "CUT_PROV": "014", "CUT_COM": "01403", "REGION": "Tarapac\u00e1", "PROVINCIA": "Tamarugal", "COMUNA": "Colchane", "variable": "Sitios de Inter\u00e9s Tur\u00edstico", "Nombres": "CERRO - CERRO CARIQUIMA", "POINT_X": -68.671259444, "POINT_Y": -19.544309696}}, {"type": "Feature", "geometry": {"type": "Point", "coordinates": [-69.96756458200002, -19.542939462999946]}, "properties": {"CUT_REG": "01", "CUT_PROV": "014", "CUT_COM": "01404", "REGION": "Tarapac\u00e1", "PROVINCIA": "Tamarugal", "COMUNA": "Huara", "variable": "Sitios de Inter\u00e9s Tur\u00edstico", "Nombres": "RUINA O LUGAR ARQUEOL\u00d3GICO - GEOGLIFOS DE TILIVICHE", "POINT_X": -69.967564582, "POINT_Y": -19.542939463}}, {"type": "Feature", "geometry": {"type": "Point", "coordinates": [-69.20706711599996, -19.536736293999972]}, "properties": {"CUT_REG": "01", "CUT_PROV": "014", "CUT_COM": "01404", "REGION": "Tarapac\u00e1", "PROVINCIA": "Tamarugal", "COMUNA": "Huara", "variable": "Sitios de Inter\u00e9s Tur\u00edstico", "Nombres": "ARQUITECTURA - TEMPLO SANTA MARIA MAGDALENA DE CHIAPA", "POINT_X": -69.207067116, "POINT_Y": -19.536736294}}, {"type": "Feature", "geometry": {"type": "Point", "coordinates": [-69.20694310600001, -19.536664138999953]}, "properties": {"CUT_REG": "01", "CUT_PROV": "014", "CUT_COM": "01404", "REGION": "Tarapac\u00e1", "PROVINCIA": "Tamarugal", "COMUNA": "Huara", "variable": "Sitios de Inter\u00e9s Tur\u00edstico", "Nombres": "FIESTA RELIGIOSA - FIESTA ASUNCI\u00d3N DE LA VIRGEN DE CHIAPA", "POINT_X": -69.206943106, "POINT_Y": -19.536664139}}, {"type": "Feature", "geometry": {"type": "Point", "coordinates": [-68.722157883, -19.525055805999955]}, "properties": {"CUT_REG": "01", "CUT_PROV": "014", "CUT_COM": "01403", "REGION": "Tarapac\u00e1", "PROVINCIA": "Tamarugal", "COMUNA": "Colchane", "variable": "Sitios de Inter\u00e9s Tur\u00edstico", "Nombres": "LUGAR DE INTER\u00c9S GEOL\u00d3GICO - BARRENAS DE LAVA DE ANCUAQUE", "POINT_X": -68.722157883, "POINT_Y": -19.525055806}}, {"type": "Feature", "geometry": {"type": "Point", "coordinates": [-68.72208197100002, -19.52485687300001]}, "properties": {"CUT_REG": "01", "CUT_PROV": "014", "CUT_COM": "01403", "REGION": "Tarapac\u00e1", "PROVINCIA": "Tamarugal", "COMUNA": "Colchane", "variable": "Sitios de Inter\u00e9s Tur\u00edstico", "Nombres": "FIESTA RELIGIOSA - FIESTA DE LA CANDELARIA DE ANCUAQUE", "POINT_X": -68.722081971, "POINT_Y": -19.524856873}}, {"type": "Feature", "geometry": {"type": "Point", "coordinates": [-68.72149122799999, -19.52473848199999]}, "properties": {"CUT_REG": "01", "CUT_PROV": "014", "CUT_COM": "01403", "REGION": "Tarapac\u00e1", "PROVINCIA": "Tamarugal", "COMUNA": "Colchane", "variable": "Sitios de Inter\u00e9s Tur\u00edstico", "Nombres": "PUEBLO O ALDEA TRADICIONAL - ANCUAQUE", "POINT_X": -68.721491228, "POINT_Y": -19.524738482}}, {"type": "Feature", "geometry": {"type": "Point", "coordinates": [-68.72960357600002, -19.524054940000006]}, "properties": {"CUT_REG": "01", "CUT_PROV": "014", "CUT_COM": "01403", "REGION": "Tarapac\u00e1", "PROVINCIA": "Tamarugal", "COMUNA": "Colchane", "variable": "Sitios de Inter\u00e9s Tur\u00edstico", "Nombres": "FUENTE Y CENTRO TERMAL - TERMAS DE ANCUAQUE", "POINT_X": -68.729603576, "POINT_Y": -19.52405494}}, {"type": "Feature", "geometry": {"type": "Point", "coordinates": [-69.10403434279999, -19.502171893900027]}, "properties": {"CUT_REG": "01", "CUT_PROV": "014", "CUT_COM": "01404", "REGION": "Tarapac\u00e1", "PROVINCIA": "Tamarugal", "COMUNA": "Huara", "variable": "Sitios de Inter\u00e9s Tur\u00edstico", "Nombres": "CERRO - CERRO TATA JACHURA", "POINT_X": -69.1040343428, "POINT_Y": -19.5021718939}}, {"type": "Feature", "geometry": {"type": "Point", "coordinates": [-68.64384700799997, -19.468924891000036]}, "properties": {"CUT_REG": "01", "CUT_PROV": "014", "CUT_COM": "01403", "REGION": "Tarapac\u00e1", "PROVINCIA": "Tamarugal", "COMUNA": "Colchane", "variable": "Sitios de Inter\u00e9s Tur\u00edstico", "Nombres": "FIESTA RELIGIOSA - SOLSTICIO DE INVIERNO DE CARIQUIMA", "POINT_X": -68.643847008, "POINT_Y": -19.468924891}}, {"type": "Feature", "geometry": {"type": "Point", "coordinates": [-68.64442837500002, -19.468853736000007]}, "properties": {"CUT_REG": "01", "CUT_PROV": "014", "CUT_COM": "01403", "REGION": "Tarapac\u00e1", "PROVINCIA": "Tamarugal", "COMUNA": "Colchane", "variable": "Sitios de Inter\u00e9s Tur\u00edstico", "Nombres": "FIESTA RELIGIOSA - FIESTA DE SAN JUAN BAUTISTA DE CARIQUIMA", "POINT_X": -68.644428375, "POINT_Y": -19.468853736}}, {"type": "Feature", "geometry": {"type": "Point", "coordinates": [-68.64459058800003, -19.46874560900003]}, "properties": {"CUT_REG": "01", "CUT_PROV": "014", "CUT_COM": "01403", "REGION": "Tarapac\u00e1", "PROVINCIA": "Tamarugal", "COMUNA": "Colchane", "variable": "Sitios de Inter\u00e9s Tur\u00edstico", "Nombres": "ARQUITECTURA - IGLESIA DE CARIQUIMA (MH)", "POINT_X": -68.644590588, "POINT_Y": -19.468745609}}, {"type": "Feature", "geometry": {"type": "Point", "coordinates": [-68.81638503999996, -19.457939543999977]}, "properties": {"CUT_REG": "01", "CUT_PROV": "014", "CUT_COM": "01403", "REGION": "Tarapac\u00e1", "PROVINCIA": "Tamarugal", "COMUNA": "Colchane", "variable": "Sitios de Inter\u00e9s Tur\u00edstico", "Nombres": "FIESTA RELIGIOSA - FIESTA SANTIAGO AP\u00d3STOL DE QUEBE", "POINT_X": -68.81638504, "POINT_Y": -19.457939544}}, {"type": "Feature", "geometry": {"type": "Point", "coordinates": [-68.81606161400002, -19.45748735700004]}, "properties": {"CUT_REG": "01", "CUT_PROV": "014", "CUT_COM": "01403", "REGION": "Tarapac\u00e1", "PROVINCIA": "Tamarugal", "COMUNA": "Colchane", "variable": "Sitios de Inter\u00e9s Tur\u00edstico", "Nombres": "PUEBLO O ALDEA TRADICIONAL - QUEBE", "POINT_X": -68.816061614, "POINT_Y": -19.457487357}}, {"type": "Feature", "geometry": {"type": "Point", "coordinates": [-69.87253523900003, -19.445243192000014]}, "properties": {"CUT_REG": "01", "CUT_PROV": "014", "CUT_COM": "01404", "REGION": "Tarapac\u00e1", "PROVINCIA": "Tamarugal", "COMUNA": "Huara", "variable": "Sitios de Inter\u00e9s Tur\u00edstico", "Nombres": "VALLE Y QUEBRADA - QUEBRADA DE TANA O CAMI\u00d1A", "POINT_X": -69.872535239, "POINT_Y": -19.445243192}}, {"type": "Feature", "geometry": {"type": "Point", "coordinates": [-68.58039846899996, -19.443521525000023]}, "properties": {"CUT_REG": "01", "CUT_PROV": "014", "CUT_COM": "01403", "REGION": "Tarapac\u00e1", "PROVINCIA": "Tamarugal", "COMUNA": "Colchane", "variable": "Sitios de Inter\u00e9s Tur\u00edstico", "Nombres": "FIESTA RELIGIOSA - FIESTA DE LA VIRGEN DE LOS DOLORES DE CHIJO", "POINT_X": -68.580398469, "POINT_Y": -19.443521525}}, {"type": "Feature", "geometry": {"type": "Point", "coordinates": [-68.58040831999998, -19.443395027999948]}, "properties": {"CUT_REG": "01", "CUT_PROV": "014", "CUT_COM": "01403", "REGION": "Tarapac\u00e1", "PROVINCIA": "Tamarugal", "COMUNA": "Colchane", "variable": "Sitios de Inter\u00e9s Tur\u00edstico", "Nombres": "PUEBLO O ALDEA TRADICIONAL - CHIJO", "POINT_X": -68.58040832, "POINT_Y": -19.443395028}}, {"type": "Feature", "geometry": {"type": "Point", "coordinates": [-68.58040873800002, -19.44323236199999]}, "properties": {"CUT_REG": "01", "CUT_PROV": "014", "CUT_COM": "01403", "REGION": "Tarapac\u00e1", "PROVINCIA": "Tamarugal", "COMUNA": "Colchane", "variable": "Sitios de Inter\u00e9s Tur\u00edstico", "Nombres": "FIESTA RELIGIOSA - FIESTA CRUZ DE MAYO DE CHIJO", "POINT_X": -68.580408738, "POINT_Y": -19.443232362}}, {"type": "Feature", "geometry": {"type": "Point", "coordinates": [-68.50540732599998, -19.424201286000006]}, "properties": {"CUT_REG": "01", "CUT_PROV": "014", "CUT_COM": "01403", "REGION": "Tarapac\u00e1", "PROVINCIA": "Tamarugal", "COMUNA": "Colchane", "variable": "Sitios de Inter\u00e9s Tur\u00edstico", "Nombres": "PUEBLO O ALDEA TRADICIONAL - PANAVINTO", "POINT_X": -68.505407326, "POINT_Y": -19.424201286}}, {"type": "Feature", "geometry": {"type": "Point", "coordinates": [-68.956139392, -19.406469646999973]}, "properties": {"CUT_REG": "01", "CUT_PROV": "014", "CUT_COM": "01403", "REGION": "Tarapac\u00e1", "PROVINCIA": "Tamarugal", "COMUNA": "Colchane", "variable": "Sitios de Inter\u00e9s Tur\u00edstico", "Nombres": "G\u00c9ISER - G\u00c9ISER DE PUCHULDIZA", "POINT_X": -68.956139392, "POINT_Y": -19.406469647}}, {"type": "Feature", "geometry": {"type": "Point", "coordinates": [-68.58690688499996, -19.405119816000024]}, "properties": {"CUT_REG": "01", "CUT_PROV": "014", "CUT_COM": "01403", "REGION": "Tarapac\u00e1", "PROVINCIA": "Tamarugal", "COMUNA": "Colchane", "variable": "Sitios de Inter\u00e9s Tur\u00edstico", "Nombres": "LUGAR DE OBSERVACI\u00d3N DE FLORA Y FAUNA - BOSQUE DE CACTUS GIGANTES DE ANCOVINTO", "POINT_X": -68.586906885, "POINT_Y": -19.405119816}}, {"type": "Feature", "geometry": {"type": "Point", "coordinates": [-69.56418796900002, -19.374609098000022]}, "properties": {"CUT_REG": "01", "CUT_PROV": "014", "CUT_COM": "01402", "REGION": "Tarapac\u00e1", "PROVINCIA": "Tamarugal", "COMUNA": "Cami\u00f1a", "variable": "Sitios de Inter\u00e9s Tur\u00edstico", "Nombres": "FIESTA RELIGIOSA - FIESTA VIRGEN DE LOURDES DE FRANCIA-CAMI\u00d1A", "POINT_X": -69.564187969, "POINT_Y": -19.374609098}}, {"type": "Feature", "geometry": {"type": "Point", "coordinates": [-69.51738769500002, -19.352157948000034]}, "properties": {"CUT_REG": "01", "CUT_PROV": "014", "CUT_COM": "01402", "REGION": "Tarapac\u00e1", "PROVINCIA": "Tamarugal", "COMUNA": "Cami\u00f1a", "variable": "Sitios de Inter\u00e9s Tur\u00edstico", "Nombres": "FIESTA RELIGIOSA - FIESTA VIRGEN DEL ROSARIO DE MOQUELLA", "POINT_X": -69.517387695, "POINT_Y": -19.352157948}}, {"type": "Feature", "geometry": {"type": "Point", "coordinates": [-69.49679031900001, -19.341659979999974]}, "properties": {"CUT_REG": "01", "CUT_PROV": "014", "CUT_COM": "01402", "REGION": "Tarapac\u00e1", "PROVINCIA": "Tamarugal", "COMUNA": "Cami\u00f1a", "variable": "Sitios de Inter\u00e9s Tur\u00edstico", "Nombres": "FIESTA RELIGIOSA - FIESTA DE SAN ANTONIO DE PADUA DE QUISTAGAMA", "POINT_X": -69.496790319, "POINT_Y": -19.34165998}}, {"type": "Feature", "geometry": {"type": "Point", "coordinates": [-68.88059513799999, -19.321801284999992]}, "properties": {"CUT_REG": "01", "CUT_PROV": "014", "CUT_COM": "01403", "REGION": "Tarapac\u00e1", "PROVINCIA": "Tamarugal", "COMUNA": "Colchane", "variable": "Sitios de Inter\u00e9s Tur\u00edstico", "Nombres": "ARQUITECTURA - IGLESIA DE MAUQUE (MH)", "POINT_X": -68.880595138, "POINT_Y": -19.321801285}}, {"type": "Feature", "geometry": {"type": "Point", "coordinates": [-69.409320775, -19.31707036699997]}, "properties": {"CUT_REG": "01", "CUT_PROV": "014", "CUT_COM": "01402", "REGION": "Tarapac\u00e1", "PROVINCIA": "Tamarugal", "COMUNA": "Cami\u00f1a", "variable": "Sitios de Inter\u00e9s Tur\u00edstico", "Nombres": "FIESTA RELIGIOSA - FIESTA CRUZ DE MAYO DE CHAPIQUILTA", "POINT_X": -69.409320775, "POINT_Y": -19.317070367}}, {"type": "Feature", "geometry": {"type": "Point", "coordinates": [-69.41024367999997, -19.316887550000033]}, "properties": {"CUT_REG": "01", "CUT_PROV": "014", "CUT_COM": "01402", "REGION": "Tarapac\u00e1", "PROVINCIA": "Tamarugal", "COMUNA": "Cami\u00f1a", "variable": "Sitios de Inter\u00e9s Tur\u00edstico", "Nombres": "FIESTA RELIGIOSA - FIESTA OCTAVA SANTA CRUZ DE CHAPIQUILTA", "POINT_X": -69.41024368, "POINT_Y": -19.31688755}}, {"type": "Feature", "geometry": {"type": "Point", "coordinates": [-69.41095704900002, -19.316660014999947]}, "properties": {"CUT_REG": "01", "CUT_PROV": "014", "CUT_COM": "01402", "REGION": "Tarapac\u00e1", "PROVINCIA": "Tamarugal", "COMUNA": "Cami\u00f1a", "variable": "Sitios de Inter\u00e9s Tur\u00edstico", "Nombres": "CARNAVAL O FIESTA COSTUMBRISTA - FIESTA DEL SAPITO LORITO DE CHAPIQUILTA", "POINT_X": -69.410957049, "POINT_Y": -19.316660015}}, {"type": "Feature", "geometry": {"type": "Point", "coordinates": [-69.08023686799999, -19.313164921999956]}, "properties": {"CUT_REG": "01", "CUT_PROV": "014", "CUT_COM": "01404", "REGION": "Tarapac\u00e1", "PROVINCIA": "Tamarugal", "COMUNA": "Huara", "variable": "Sitios de Inter\u00e9s Tur\u00edstico", "Nombres": "\u00c1REA SILVESTRE PROTEGIDA DEL ESTADO (ASPE) - PARQUE NACIONAL VOLC\u00c1N ISLUGA", "POINT_X": -69.080236868, "POINT_Y": -19.313164922}}, {"type": "Feature", "geometry": {"type": "Point", "coordinates": [-69.42642604799997, -19.31313616399997]}, "properties": {"CUT_REG": "01", "CUT_PROV": "014", "CUT_COM": "01402", "REGION": "Tarapac\u00e1", "PROVINCIA": "Tamarugal", "COMUNA": "Cami\u00f1a", "variable": "Sitios de Inter\u00e9s Tur\u00edstico", "Nombres": "FIESTA RELIGIOSA - SEMANA SANTA DE CAMI\u00d1A", "POINT_X": -69.426426048, "POINT_Y": -19.313136164}}, {"type": "Feature", "geometry": {"type": "Point", "coordinates": [-69.42622610399995, -19.313118556000028]}, "properties": {"CUT_REG": "01", "CUT_PROV": "014", "CUT_COM": "01402", "REGION": "Tarapac\u00e1", "PROVINCIA": "Tamarugal", "COMUNA": "Cami\u00f1a", "variable": "Sitios de Inter\u00e9s Tur\u00edstico", "Nombres": "FIESTA RELIGIOSA - BAILES PASTORCITOS KARANGOS DE CAMI\u00d1A", "POINT_X": -69.426226104, "POINT_Y": -19.313118556}}, {"type": "Feature", "geometry": {"type": "Point", "coordinates": [-69.426463936, -19.31306377800002]}, "properties": {"CUT_REG": "01", "CUT_PROV": "014", "CUT_COM": "01402", "REGION": "Tarapac\u00e1", "PROVINCIA": "Tamarugal", "COMUNA": "Cami\u00f1a", "variable": "Sitios de Inter\u00e9s Tur\u00edstico", "Nombres": "CARNAVAL O FIESTA COSTUMBRISTA - MACHAQ MARA O A\u00d1O NUEVO AYMARA DE CAMI\u00d1A", "POINT_X": -69.426463936, "POINT_Y": -19.313063778}}, {"type": "Feature", "geometry": {"type": "Point", "coordinates": [-69.42630202100001, -19.313028006999993]}, "properties": {"CUT_REG": "01", "CUT_PROV": "014", "CUT_COM": "01402", "REGION": "Tarapac\u00e1", "PROVINCIA": "Tamarugal", "COMUNA": "Cami\u00f1a", "variable": "Sitios de Inter\u00e9s Tur\u00edstico", "Nombres": "ARQUITECTURA - IGLESIA DE CAMI\u00d1A (MH)", "POINT_X": -69.426302021, "POINT_Y": -19.313028007}}, {"type": "Feature", "geometry": {"type": "Point", "coordinates": [-69.42640663499996, -19.312991614000005]}, "properties": {"CUT_REG": "01", "CUT_PROV": "014", "CUT_COM": "01402", "REGION": "Tarapac\u00e1", "PROVINCIA": "Tamarugal", "COMUNA": "Cami\u00f1a", "variable": "Sitios de Inter\u00e9s Tur\u00edstico", "Nombres": "FIESTA RELIGIOSA - FIESTA CORPUS CHRISTI DE CAMI\u00d1A", "POINT_X": -69.426406635, "POINT_Y": -19.312991614}}, {"type": "Feature", "geometry": {"type": "Point", "coordinates": [-69.42644454699999, -19.312928265000004]}, "properties": {"CUT_REG": "01", "CUT_PROV": "014", "CUT_COM": "01402", "REGION": "Tarapac\u00e1", "PROVINCIA": "Tamarugal", "COMUNA": "Cami\u00f1a", "variable": "Sitios de Inter\u00e9s Tur\u00edstico", "Nombres": "FIESTA RELIGIOSA - PASCUA DE LOS NEGROS DE CAMI\u00d1A", "POINT_X": -69.426444547, "POINT_Y": -19.312928265}}, {"type": "Feature", "geometry": {"type": "Point", "coordinates": [-69.42633022600003, -19.312892383999966]}, "properties": {"CUT_REG": "01", "CUT_PROV": "014", "CUT_COM": "01402", "REGION": "Tarapac\u00e1", "PROVINCIA": "Tamarugal", "COMUNA": "Cami\u00f1a", "variable": "Sitios de Inter\u00e9s Tur\u00edstico", "Nombres": "CARNAVAL O FIESTA COSTUMBRISTA - CARNAVAL D\u00cdA DE LA SUERTE DE CAMI\u00d1A", "POINT_X": -69.426330226, "POINT_Y": -19.312892384}}, {"type": "Feature", "geometry": {"type": "Point", "coordinates": [-69.42674900999995, -19.312873329999988]}, "properties": {"CUT_REG": "01", "CUT_PROV": "014", "CUT_COM": "01402", "REGION": "Tarapac\u00e1", "PROVINCIA": "Tamarugal", "COMUNA": "Cami\u00f1a", "variable": "Sitios de Inter\u00e9s Tur\u00edstico", "Nombres": "PUEBLO O ALDEA TRADICIONAL - CAMI\u00d1A", "POINT_X": -69.42674901, "POINT_Y": -19.31287333}}, {"type": "Feature", "geometry": {"type": "Point", "coordinates": [-69.42651094399997, -19.31283773799997]}, "properties": {"CUT_REG": "01", "CUT_PROV": "014", "CUT_COM": "01402", "REGION": "Tarapac\u00e1", "PROVINCIA": "Tamarugal", "COMUNA": "Cami\u00f1a", "variable": "Sitios de Inter\u00e9s Tur\u00edstico", "Nombres": "FERIA O EXPOSICI\u00d3N - FERIA AGR\u00cdCOLA DE CAMI\u00d1A (FARCAM)", "POINT_X": -69.426510944, "POINT_Y": -19.312837738}}, {"type": "Feature", "geometry": {"type": "Point", "coordinates": [-69.42631090800003, -19.312783981999964]}, "properties": {"CUT_REG": "01", "CUT_PROV": "014", "CUT_COM": "01402", "REGION": "Tarapac\u00e1", "PROVINCIA": "Tamarugal", "COMUNA": "Cami\u00f1a", "variable": "Sitios de Inter\u00e9s Tur\u00edstico", "Nombres": "FIESTA RELIGIOSA - FIESTA LA TOMA DEL GALLO DE CAMI\u00d1A", "POINT_X": -69.426310908, "POINT_Y": -19.312783982}}, {"type": "Feature", "geometry": {"type": "Point", "coordinates": [-69.39236744699997, -19.309236203999966]}, "properties": {"CUT_REG": "01", "CUT_PROV": "014", "CUT_COM": "01402", "REGION": "Tarapac\u00e1", "PROVINCIA": "Tamarugal", "COMUNA": "Cami\u00f1a", "variable": "Sitios de Inter\u00e9s Tur\u00edstico", "Nombres": "FIESTA RELIGIOSA - FIESTA VIRGEN DE LA CANDELARIA DE APAMILCA", "POINT_X": -69.392367447, "POINT_Y": -19.309236204}}, {"type": "Feature", "geometry": {"type": "Point", "coordinates": [-68.61703206499996, -19.303210266]}, "properties": {"CUT_REG": "01", "CUT_PROV": "014", "CUT_COM": "01403", "REGION": "Tarapac\u00e1", "PROVINCIA": "Tamarugal", "COMUNA": "Colchane", "variable": "Sitios de Inter\u00e9s Tur\u00edstico", "Nombres": "FIESTA RELIGIOSA - FIESTA DE SAN JOS\u00c9 DE PISIGA CHOQUE", "POINT_X": -68.617032065, "POINT_Y": -19.303210266}}, {"type": "Feature", "geometry": {"type": "Point", "coordinates": [-68.65074826599997, -19.284335777000003]}, "properties": {"CUT_REG": "01", "CUT_PROV": "014", "CUT_COM": "01403", "REGION": "Tarapac\u00e1", "PROVINCIA": "Tamarugal", "COMUNA": "Colchane", "variable": "Sitios de Inter\u00e9s Tur\u00edstico", "Nombres": "ARQUITECTURA - IGLESIA DE COTASAYA (MH)", "POINT_X": -68.650748266, "POINT_Y": -19.284335777}}, {"type": "Feature", "geometry": {"type": "Point", "coordinates": [-68.662667046, -19.277373450000006]}, "properties": {"CUT_REG": "01", "CUT_PROV": "014", "CUT_COM": "01403", "REGION": "Tarapac\u00e1", "PROVINCIA": "Tamarugal", "COMUNA": "Colchane", "variable": "Sitios de Inter\u00e9s Tur\u00edstico", "Nombres": "ARQUITECTURA - IGLESIA DE ACHAUTA (MH)", "POINT_X": -68.662667046, "POINT_Y": -19.27737345}}, {"type": "Feature", "geometry": {"type": "Point", "coordinates": [-68.63595704799997, -19.276299885]}, "properties": {"CUT_REG": "01", "CUT_PROV": "014", "CUT_COM": "01403", "REGION": "Tarapac\u00e1", "PROVINCIA": "Tamarugal", "COMUNA": "Colchane", "variable": "Sitios de Inter\u00e9s Tur\u00edstico", "Nombres": "FERIA O EXPOSICI\u00d3N - FERIA EXPO COLCHANE", "POINT_X": -68.635957048, "POINT_Y": -19.276299885}}, {"type": "Feature", "geometry": {"type": "Point", "coordinates": [-68.63663284200001, -19.27625604300001]}, "properties": {"CUT_REG": "01", "CUT_PROV": "014", "CUT_COM": "01403", "REGION": "Tarapac\u00e1", "PROVINCIA": "Tamarugal", "COMUNA": "Colchane", "variable": "Sitios de Inter\u00e9s Tur\u00edstico", "Nombres": "FIESTA RELIGIOSA - SOLSTICIO DE INVIERNO DE COLCHANE", "POINT_X": -68.636632842, "POINT_Y": -19.276256043}}, {"type": "Feature", "geometry": {"type": "Point", "coordinates": [-68.63812722100002, -19.276150560999987]}, "properties": {"CUT_REG": "01", "CUT_PROV": "014", "CUT_COM": "01403", "REGION": "Tarapac\u00e1", "PROVINCIA": "Tamarugal", "COMUNA": "Colchane", "variable": "Sitios de Inter\u00e9s Tur\u00edstico", "Nombres": "PUEBLO O ALDEA TRADICIONAL - COLCHANE", "POINT_X": -68.638127221, "POINT_Y": -19.276150561}}, {"type": "Feature", "geometry": {"type": "Point", "coordinates": [-68.63876502600003, -19.276070487000027]}, "properties": {"CUT_REG": "01", "CUT_PROV": "014", "CUT_COM": "01403", "REGION": "Tarapac\u00e1", "PROVINCIA": "Tamarugal", "COMUNA": "Colchane", "variable": "Sitios de Inter\u00e9s Tur\u00edstico", "Nombres": "CARNAVAL O FIESTA COSTUMBRISTA - PREPARACI\u00d3N DE LA TIERRA PARA SIEMBRA DE LA QUINUA EN COLCHANE", "POINT_X": -68.638765026, "POINT_Y": -19.276070487}}, {"type": "Feature", "geometry": {"type": "Point", "coordinates": [-68.63929800699998, -19.27605346500004]}, "properties": {"CUT_REG": "01", "CUT_PROV": "014", "CUT_COM": "01403", "REGION": "Tarapac\u00e1", "PROVINCIA": "Tamarugal", "COMUNA": "Colchane", "variable": "Sitios de Inter\u00e9s Tur\u00edstico", "Nombres": "CARNAVAL O FIESTA COSTUMBRISTA - FLOREO DE ANIMALES DE COLCHANE", "POINT_X": -68.639298007, "POINT_Y": -19.276053465}}, {"type": "Feature", "geometry": {"type": "Point", "coordinates": [-69.795589649, -19.265207522999965]}, "properties": {"CUT_REG": "01", "CUT_PROV": "014", "CUT_COM": "01404", "REGION": "Tarapac\u00e1", "PROVINCIA": "Tamarugal", "COMUNA": "Huara", "variable": "Sitios de Inter\u00e9s Tur\u00edstico", "Nombres": "PUEBLO O ALDEA TRADICIONAL - SUCA", "POINT_X": -69.795589649, "POINT_Y": -19.265207523}}, {"type": "Feature", "geometry": {"type": "Point", "coordinates": [-68.99225416699997, -19.254629037999997]}, "properties": {"CUT_REG": "01", "CUT_PROV": "014", "CUT_COM": "01403", "REGION": "Tarapac\u00e1", "PROVINCIA": "Tamarugal", "COMUNA": "Colchane", "variable": "Sitios de Inter\u00e9s Tur\u00edstico", "Nombres": "LAGO Y LAGUNA - LAGUNA PARINACOTA", "POINT_X": -68.992254167, "POINT_Y": -19.254629038}}, {"type": "Feature", "geometry": {"type": "Point", "coordinates": [-68.722336143, -19.251472310000025]}, "properties": {"CUT_REG": "01", "CUT_PROV": "014", "CUT_COM": "01403", "REGION": "Tarapac\u00e1", "PROVINCIA": "Tamarugal", "COMUNA": "Colchane", "variable": "Sitios de Inter\u00e9s Tur\u00edstico", "Nombres": "ARQUITECTURA - IGLESIA SANTUARIO DE ISLUGA (MH)", "POINT_X": -68.722336143, "POINT_Y": -19.25147231}}, {"type": "Feature", "geometry": {"type": "Point", "coordinates": [-68.72235561500001, -19.251210256000014]}, "properties": {"CUT_REG": "01", "CUT_PROV": "014", "CUT_COM": "01403", "REGION": "Tarapac\u00e1", "PROVINCIA": "Tamarugal", "COMUNA": "Colchane", "variable": "Sitios de Inter\u00e9s Tur\u00edstico", "Nombres": "CARNAVAL O FIESTA COSTUMBRISTA - ANATA (CARNAVAL) DE ISLUGA", "POINT_X": -68.722355615, "POINT_Y": -19.251210256}}, {"type": "Feature", "geometry": {"type": "Point", "coordinates": [-68.722165412, -19.251146705999993]}, "properties": {"CUT_REG": "01", "CUT_PROV": "014", "CUT_COM": "01403", "REGION": "Tarapac\u00e1", "PROVINCIA": "Tamarugal", "COMUNA": "Colchane", "variable": "Sitios de Inter\u00e9s Tur\u00edstico", "Nombres": "FIESTA RELIGIOSA - FIESTA DE SANTO TOM\u00c1S DE ISLUGA", "POINT_X": -68.722165412, "POINT_Y": -19.251146706}}, {"type": "Feature", "geometry": {"type": "Point", "coordinates": [-68.72252705999999, -19.25111110499998]}, "properties": {"CUT_REG": "01", "CUT_PROV": "014", "CUT_COM": "01403", "REGION": "Tarapac\u00e1", "PROVINCIA": "Tamarugal", "COMUNA": "Colchane", "variable": "Sitios de Inter\u00e9s Tur\u00edstico", "Nombres": "PUEBLO O ALDEA TRADICIONAL - PUEBLO DE  ISLUGA (ZT)", "POINT_X": -68.72252706, "POINT_Y": -19.251111105}}, {"type": "Feature", "geometry": {"type": "Point", "coordinates": [-68.72033035499996, -19.25030343600003]}, "properties": {"CUT_REG": "01", "CUT_PROV": "014", "CUT_COM": "01403", "REGION": "Tarapac\u00e1", "PROVINCIA": "Tamarugal", "COMUNA": "Colchane", "variable": "Sitios de Inter\u00e9s Tur\u00edstico", "Nombres": "RUINA O LUGAR ARQUEOL\u00d3GICO - PUKARA DE ISLUGA", "POINT_X": -68.720330355, "POINT_Y": -19.250303436}}, {"type": "Feature", "geometry": {"type": "Point", "coordinates": [-68.80360782299996, -19.243778317999976]}, "properties": {"CUT_REG": "01", "CUT_PROV": "014", "CUT_COM": "01403", "REGION": "Tarapac\u00e1", "PROVINCIA": "Tamarugal", "COMUNA": "Colchane", "variable": "Sitios de Inter\u00e9s Tur\u00edstico", "Nombres": "FIESTA RELIGIOSA - FIESTA SANTIAGO AP\u00d3STOL DE CARAHUANO", "POINT_X": -68.803607823, "POINT_Y": -19.243778318}}, {"type": "Feature", "geometry": {"type": "Point", "coordinates": [-68.80363661500004, -19.243570489000014]}, "properties": {"CUT_REG": "01", "CUT_PROV": "014", "CUT_COM": "01403", "REGION": "Tarapac\u00e1", "PROVINCIA": "Tamarugal", "COMUNA": "Colchane", "variable": "Sitios de Inter\u00e9s Tur\u00edstico", "Nombres": "ARQUITECTURA - IGLESIA DE CARAGUANO (MH)", "POINT_X": -68.803636615, "POINT_Y": -19.243570489}}, {"type": "Feature", "geometry": {"type": "Point", "coordinates": [-68.85326810199999, -19.23762900200002]}, "properties": {"CUT_REG": "01", "CUT_PROV": "014", "CUT_COM": "01403", "REGION": "Tarapac\u00e1", "PROVINCIA": "Tamarugal", "COMUNA": "Colchane", "variable": "Sitios de Inter\u00e9s Tur\u00edstico", "Nombres": "LUGAR DE OBSERVACI\u00d3N DE FLORA Y FAUNA - LAGUNA Y BOFEDALES DE ARABILLA", "POINT_X": -68.853268102, "POINT_Y": -19.237629002}}, {"type": "Feature", "geometry": {"type": "Point", "coordinates": [-68.79223876999995, -19.235035634000027]}, "properties": {"CUT_REG": "01", "CUT_PROV": "014", "CUT_COM": "01403", "REGION": "Tarapac\u00e1", "PROVINCIA": "Tamarugal", "COMUNA": "Colchane", "variable": "Sitios de Inter\u00e9s Tur\u00edstico", "Nombres": "FUENTE Y CENTRO TERMAL - TERMAS DE ENQUELGA", "POINT_X": -68.79223877, "POINT_Y": -19.235035634}}, {"type": "Feature", "geometry": {"type": "Point", "coordinates": [-68.80460529199999, -19.229057441000016]}, "properties": {"CUT_REG": "01", "CUT_PROV": "014", "CUT_COM": "01403", "REGION": "Tarapac\u00e1", "PROVINCIA": "Tamarugal", "COMUNA": "Colchane", "variable": "Sitios de Inter\u00e9s Tur\u00edstico", "Nombres": "PUEBLO O ALDEA TRADICIONAL - ENQUELGA", "POINT_X": -68.804605292, "POINT_Y": -19.229057441}}, {"type": "Feature", "geometry": {"type": "Point", "coordinates": [-68.80407282699997, -19.22877671199997]}, "properties": {"CUT_REG": "01", "CUT_PROV": "014", "CUT_COM": "01403", "REGION": "Tarapac\u00e1", "PROVINCIA": "Tamarugal", "COMUNA": "Colchane", "variable": "Sitios de Inter\u00e9s Tur\u00edstico", "Nombres": "FIESTA RELIGIOSA - FIESTA DE SAN FELIPE DE ENQUELGA", "POINT_X": -68.804072827, "POINT_Y": -19.228776712}}, {"type": "Feature", "geometry": {"type": "Point", "coordinates": [-70.00782695999996, -19.204086972000027]}, "properties": {"CUT_REG": "01", "CUT_PROV": "014", "CUT_COM": "01404", "REGION": "Tarapac\u00e1", "PROVINCIA": "Tamarugal", "COMUNA": "Huara", "variable": "Sitios de Inter\u00e9s Tur\u00edstico", "Nombres": "RUINA O LUGAR ARQUEOL\u00d3GICO - GEOGLIFOS QUEBRADA DE CHIZA", "POINT_X": -70.00782696, "POINT_Y": -19.204086972}}, {"type": "Feature", "geometry": {"type": "Point", "coordinates": [-69.98699795799999, -19.195255332000002]}, "properties": {"CUT_REG": "01", "CUT_PROV": "014", "CUT_COM": "01404", "REGION": "Tarapac\u00e1", "PROVINCIA": "Tamarugal", "COMUNA": "Huara", "variable": "Sitios de Inter\u00e9s Tur\u00edstico", "Nombres": "PUEBLO O ALDEA TRADICIONAL - CHIZA", "POINT_X": -69.986997958, "POINT_Y": -19.195255332}}, {"type": "Feature", "geometry": {"type": "Point", "coordinates": [-69.41163019500001, -19.18968508399999]}, "properties": {"CUT_REG": "01", "CUT_PROV": "014", "CUT_COM": "01402", "REGION": "Tarapac\u00e1", "PROVINCIA": "Tamarugal", "COMUNA": "Cami\u00f1a", "variable": "Sitios de Inter\u00e9s Tur\u00edstico", "Nombres": "FIESTA RELIGIOSA - FIESTA SE\u00d1OR ESPIRITU SANTO DE NAMA", "POINT_X": -69.411630195, "POINT_Y": -19.189685084}}, {"type": "Feature", "geometry": {"type": "Point", "coordinates": [-69.41181089699997, -19.189675641000008]}, "properties": {"CUT_REG": "01", "CUT_PROV": "014", "CUT_COM": "01402", "REGION": "Tarapac\u00e1", "PROVINCIA": "Tamarugal", "COMUNA": "Cami\u00f1a", "variable": "Sitios de Inter\u00e9s Tur\u00edstico", "Nombres": "ARQUITECTURA - CAPILLA DE NAMA (MH)", "POINT_X": -69.411810897, "POINT_Y": -19.189675641}}, {"type": "Feature", "geometry": {"type": "Point", "coordinates": [-69.68462470799997, -19.18275141499997]}, "properties": {"CUT_REG": "01", "CUT_PROV": "014", "CUT_COM": "01404", "REGION": "Tarapac\u00e1", "PROVINCIA": "Tamarugal", "COMUNA": "Huara", "variable": "Sitios de Inter\u00e9s Tur\u00edstico", "Nombres": "FIESTA RELIGIOSA - FIESTA DE SAN JUAN DE TOURS DE MI\u00d1I MI\u00d1E", "POINT_X": -69.684624708, "POINT_Y": -19.182751415}}, {"type": "Feature", "geometry": {"type": "Point", "coordinates": [-69.6845293, -19.182679474999972]}, "properties": {"CUT_REG": "01", "CUT_PROV": "014", "CUT_COM": "01404", "REGION": "Tarapac\u00e1", "PROVINCIA": "Tamarugal", "COMUNA": "Huara", "variable": "Sitios de Inter\u00e9s Tur\u00edstico", "Nombres": "PUEBLO O ALDEA TRADICIONAL - MI\u00d1I-MI\u00d1E", "POINT_X": -69.6845293, "POINT_Y": -19.182679475}}, {"type": "Feature", "geometry": {"type": "Point", "coordinates": [-69.684709747, -19.182615542000008]}, "properties": {"CUT_REG": "01", "CUT_PROV": "014", "CUT_COM": "01404", "REGION": "Tarapac\u00e1", "PROVINCIA": "Tamarugal", "COMUNA": "Huara", "variable": "Sitios de Inter\u00e9s Tur\u00edstico", "Nombres": "FIESTA RELIGIOSA - FIESTA DE LA VIRGEN DEL CARMEN DE MI\u00d1I MI\u00d1E", "POINT_X": -69.684709747, "POINT_Y": -19.182615542}}, {"type": "Feature", "geometry": {"type": "Point", "coordinates": [-68.82187277099997, -19.159413418999968]}, "properties": {"CUT_REG": "01", "CUT_PROV": "014", "CUT_COM": "01403", "REGION": "Tarapac\u00e1", "PROVINCIA": "Tamarugal", "COMUNA": "Colchane", "variable": "Sitios de Inter\u00e9s Tur\u00edstico", "Nombres": "VOLC\u00c1N - VOLC\u00c1N ISLUGA", "POINT_X": -68.821872771, "POINT_Y": -19.159413419}}, {"type": "Feature", "geometry": {"type": "Point", "coordinates": [-69.59659391599996, -19.091225464999958]}, "properties": {"CUT_REG": "01", "CUT_PROV": "014", "CUT_COM": "01404", "REGION": "Tarapac\u00e1", "PROVINCIA": "Tamarugal", "COMUNA": "Huara", "variable": "Sitios de Inter\u00e9s Tur\u00edstico", "Nombres": "FIESTA RELIGIOSA - FIESTA DE PENTECOST\u00c9S DE MI\u00d1ITA", "POINT_X": -69.596593916, "POINT_Y": -19.091225465}}, {"type": "Feature", "geometry": {"type": "Point", "coordinates": [-69.59632621100002, -19.090916652999987]}, "properties": {"CUT_REG": "01", "CUT_PROV": "014", "CUT_COM": "01404", "REGION": "Tarapac\u00e1", "PROVINCIA": "Tamarugal", "COMUNA": "Huara", "variable": "Sitios de Inter\u00e9s Tur\u00edstico", "Nombres": "PUEBLO O ALDEA TRADICIONAL - MI\u00d1ITA", "POINT_X": -69.596326211, "POINT_Y": -19.090916653}}]}