{"type": "FeatureCollection", "features": [{"type": "Feature", "geometry": {"type": "Point", "coordinates": [-69.97468494000003, -28.13428609999996]}, "properties": {"CUT_REG": "03", "CUT_PROV": "031", "CUT_COM": "03103", "REGION": "Atacama", "PROVINCIA": "Copiap\u00f3", "COMUNA": "Tierra Amarilla", "variable": "Sitios de Inter\u00e9s Tur\u00edstico", "Nombres": "HACIENDAS Y ESTANCIAS - HACIENDA MANFLAS", "POINT_X": -69.97468494, "POINT_Y": -28.1342861}}, {"type": "Feature", "geometry": {"type": "Point", "coordinates": [-69.72724108400001, -28.051266186000035]}, "properties": {"CUT_REG": "03", "CUT_PROV": "031", "CUT_COM": "03103", "REGION": "Atacama", "PROVINCIA": "Copiap\u00f3", "COMUNA": "Tierra Amarilla", "variable": "Sitios de Inter\u00e9s Tur\u00edstico", "Nombres": "PUEBLO O ALDEA TRADICIONAL - PASTOS LARGOS", "POINT_X": -69.727241084, "POINT_Y": -28.051266186}}, {"type": "Feature", "geometry": {"type": "Point", "coordinates": [-70.00260003500003, -27.979623988000036]}, "properties": {"CUT_REG": "03", "CUT_PROV": "031", "CUT_COM": "03103", "REGION": "Atacama", "PROVINCIA": "Copiap\u00f3", "COMUNA": "Tierra Amarilla", "variable": "Sitios de Inter\u00e9s Tur\u00edstico", "Nombres": "OBRA DE INGENIER\u00cdA - ACUEDUCTO DE AMOLANAS (MH)", "POINT_X": -70.002600035, "POINT_Y": -27.979623988}}, {"type": "Feature", "geometry": {"type": "Point", "coordinates": [-69.99680608899999, -27.978194963000014]}, "properties": {"CUT_REG": "03", "CUT_PROV": "031", "CUT_COM": "03103", "REGION": "Atacama", "PROVINCIA": "Copiap\u00f3", "COMUNA": "Tierra Amarilla", "variable": "Sitios de Inter\u00e9s Tur\u00edstico", "Nombres": "OBRA DE INGENIER\u00cdA - EMBALSE LAUTARO", "POINT_X": -69.996806089, "POINT_Y": -27.978194963}}, {"type": "Feature", "geometry": {"type": "Point", "coordinates": [-71.13706968900004, -27.964194866]}, "properties": {"CUT_REG": "03", "CUT_PROV": "031", "CUT_COM": "03101", "REGION": "Atacama", "PROVINCIA": "Copiap\u00f3", "COMUNA": "Copiap\u00f3", "variable": "Sitios de Inter\u00e9s Tur\u00edstico", "Nombres": "BAH\u00cdA O CALETA - CALETA MATAMOROS", "POINT_X": -71.137069689, "POINT_Y": -27.964194866}}, {"type": "Feature", "geometry": {"type": "Point", "coordinates": [-70.00631328100005, -27.93877893800002]}, "properties": {"CUT_REG": "03", "CUT_PROV": "031", "CUT_COM": "03103", "REGION": "Atacama", "PROVINCIA": "Copiap\u00f3", "COMUNA": "Tierra Amarilla", "variable": "Sitios de Inter\u00e9s Tur\u00edstico", "Nombres": "OBRA DE INGENIER\u00cdA - MOLINO HIDR\u00c1ULICO DE LAS JUNTAS", "POINT_X": -70.006313281, "POINT_Y": -27.938778938}}, {"type": "Feature", "geometry": {"type": "Point", "coordinates": [-70.77476003000002, -27.936405748000034]}, "properties": {"CUT_REG": "03", "CUT_PROV": "031", "CUT_COM": "03101", "REGION": "Atacama", "PROVINCIA": "Copiap\u00f3", "COMUNA": "Copiap\u00f3", "variable": "Sitios de Inter\u00e9s Tur\u00edstico", "Nombres": "LUGAR DE OBSERVACI\u00d3N DE FLORA Y FAUNA - DESIERTO FLORIDO EN TOTORAL", "POINT_X": -70.77476003, "POINT_Y": -27.936405748}}, {"type": "Feature", "geometry": {"type": "Point", "coordinates": [-70.03070336599995, -27.90198671999996]}, "properties": {"CUT_REG": "03", "CUT_PROV": "031", "CUT_COM": "03103", "REGION": "Atacama", "PROVINCIA": "Copiap\u00f3", "COMUNA": "Tierra Amarilla", "variable": "Sitios de Inter\u00e9s Tur\u00edstico", "Nombres": "RUINA O LUGAR ARQUEOL\u00d3GICO - ESTABLECIMIENTO METALURGISTA VI\u00d1A DEL CERRO (MH)", "POINT_X": -70.030703366, "POINT_Y": -27.90198672}}, {"type": "Feature", "geometry": {"type": "Point", "coordinates": [-70.95924879600001, -27.901749624999972]}, "properties": {"CUT_REG": "03", "CUT_PROV": "031", "CUT_COM": "03101", "REGION": "Atacama", "PROVINCIA": "Copiap\u00f3", "COMUNA": "Copiap\u00f3", "variable": "Sitios de Inter\u00e9s Tur\u00edstico", "Nombres": "PUEBLO O ALDEA TRADICIONAL - TOTORAL", "POINT_X": -70.959248796, "POINT_Y": -27.901749625}}, {"type": "Feature", "geometry": {"type": "Point", "coordinates": [-70.05401648100005, -27.878377383999975]}, "properties": {"CUT_REG": "03", "CUT_PROV": "031", "CUT_COM": "03103", "REGION": "Atacama", "PROVINCIA": "Copiap\u00f3", "COMUNA": "Tierra Amarilla", "variable": "Sitios de Inter\u00e9s Tur\u00edstico", "Nombres": "ARQUITECTURA - IGLESIA DE SAN ANTONIO", "POINT_X": -70.054016481, "POINT_Y": -27.878377384}}, {"type": "Feature", "geometry": {"type": "Point", "coordinates": [-70.52374877999998, -27.870917584000033]}, "properties": {"CUT_REG": "03", "CUT_PROV": "031", "CUT_COM": "03101", "REGION": "Atacama", "PROVINCIA": "Copiap\u00f3", "COMUNA": "Copiap\u00f3", "variable": "Sitios de Inter\u00e9s Tur\u00edstico", "Nombres": "LUGAR DE OBSERVACI\u00d3N DE FLORA Y FAUNA - DESIERTO FLORIDO EN TRAVES\u00cdA", "POINT_X": -70.52374878, "POINT_Y": -27.870917584}}, {"type": "Feature", "geometry": {"type": "Point", "coordinates": [-70.107678771, -27.83107291600001]}, "properties": {"CUT_REG": "03", "CUT_PROV": "031", "CUT_COM": "03103", "REGION": "Atacama", "PROVINCIA": "Copiap\u00f3", "COMUNA": "Tierra Amarilla", "variable": "Sitios de Inter\u00e9s Tur\u00edstico", "Nombres": "FIESTA RELIGIOSA - FIESTA RELIGIOSA VIRGEN DEL CARMEN EN LOS LOROS", "POINT_X": -70.107678771, "POINT_Y": -27.831072916}}, {"type": "Feature", "geometry": {"type": "Point", "coordinates": [-70.10811507100003, -27.831042333999967]}, "properties": {"CUT_REG": "03", "CUT_PROV": "031", "CUT_COM": "03103", "REGION": "Atacama", "PROVINCIA": "Copiap\u00f3", "COMUNA": "Tierra Amarilla", "variable": "Sitios de Inter\u00e9s Tur\u00edstico", "Nombres": "PUEBLO O ALDEA TRADICIONAL - LOS LOROS", "POINT_X": -70.108115071, "POINT_Y": -27.831042334}}, {"type": "Feature", "geometry": {"type": "Point", "coordinates": [-71.08759367299999, -27.83028890399998]}, "properties": {"CUT_REG": "03", "CUT_PROV": "031", "CUT_COM": "03101", "REGION": "Atacama", "PROVINCIA": "Copiap\u00f3", "COMUNA": "Copiap\u00f3", "variable": "Sitios de Inter\u00e9s Tur\u00edstico", "Nombres": "BAH\u00cdA O CALETA - CALETA TOTORAL BAJO", "POINT_X": -71.087593673, "POINT_Y": -27.830288904}}, {"type": "Feature", "geometry": {"type": "Point", "coordinates": [-71.08687727199995, -27.829983895999966]}, "properties": {"CUT_REG": "03", "CUT_PROV": "031", "CUT_COM": "03101", "REGION": "Atacama", "PROVINCIA": "Copiap\u00f3", "COMUNA": "Copiap\u00f3", "variable": "Sitios de Inter\u00e9s Tur\u00edstico", "Nombres": "FIESTA RELIGIOSA - FIESTA CHICA DE LA VIRGEN DE LA CANDELARIA DE TOTORAL", "POINT_X": -71.086877272, "POINT_Y": -27.829983896}}, {"type": "Feature", "geometry": {"type": "Point", "coordinates": [-70.12933944600003, -27.82349564100003]}, "properties": {"CUT_REG": "03", "CUT_PROV": "031", "CUT_COM": "03103", "REGION": "Atacama", "PROVINCIA": "Copiap\u00f3", "COMUNA": "Tierra Amarilla", "variable": "Sitios de Inter\u00e9s Tur\u00edstico", "Nombres": "RUINA O LUGAR ARQUEOL\u00d3GICO - PALACIO INCAICO DE LA PUERTA (MH)", "POINT_X": -70.129339446, "POINT_Y": -27.823495641}}, {"type": "Feature", "geometry": {"type": "Point", "coordinates": [-70.41793319199998, -27.81910021499997]}, "properties": {"CUT_REG": "03", "CUT_PROV": "031", "CUT_COM": "03101", "REGION": "Atacama", "PROVINCIA": "Copiap\u00f3", "COMUNA": "Copiap\u00f3", "variable": "Sitios de Inter\u00e9s Tur\u00edstico", "Nombres": "LUGAR O SITIO HIST\u00d3RICO - RUINAS MINERAL CHA\u00d1ARCILLO", "POINT_X": -70.417933192, "POINT_Y": -27.819100215}}, {"type": "Feature", "geometry": {"type": "Point", "coordinates": [-70.15145251600003, -27.784011519999993]}, "properties": {"CUT_REG": "03", "CUT_PROV": "031", "CUT_COM": "03103", "REGION": "Atacama", "PROVINCIA": "Copiap\u00f3", "COMUNA": "Tierra Amarilla", "variable": "Sitios de Inter\u00e9s Tur\u00edstico", "Nombres": "RUINA O LUGAR ARQUEOL\u00d3GICO - PUKARA DE PUNTA BRAVA (MH)", "POINT_X": -70.151452516, "POINT_Y": -27.78401152}}, {"type": "Feature", "geometry": {"type": "Point", "coordinates": [-70.17046637800001, -27.757864411]}, "properties": {"CUT_REG": "03", "CUT_PROV": "031", "CUT_COM": "03103", "REGION": "Atacama", "PROVINCIA": "Copiap\u00f3", "COMUNA": "Tierra Amarilla", "variable": "Sitios de Inter\u00e9s Tur\u00edstico", "Nombres": "OTROS \u00c1REA PROTEGIDA - SITIO NATURAL DE HORNITOS", "POINT_X": -70.170466378, "POINT_Y": -27.757864411}}, {"type": "Feature", "geometry": {"type": "Point", "coordinates": [-69.22504418499997, -27.699109314000026]}, "properties": {"CUT_REG": "03", "CUT_PROV": "031", "CUT_COM": "03103", "REGION": "Atacama", "PROVINCIA": "Copiap\u00f3", "COMUNA": "Tierra Amarilla", "variable": "Sitios de Inter\u00e9s Tur\u00edstico", "Nombres": "VOLC\u00c1N - VOLC\u00c1N JOTABECHE", "POINT_X": -69.225044185, "POINT_Y": -27.699109314}}, {"type": "Feature", "geometry": {"type": "Point", "coordinates": [-70.24490282900001, -27.608556957000005]}, "properties": {"CUT_REG": "03", "CUT_PROV": "031", "CUT_COM": "03103", "REGION": "Atacama", "PROVINCIA": "Copiap\u00f3", "COMUNA": "Tierra Amarilla", "variable": "Sitios de Inter\u00e9s Tur\u00edstico", "Nombres": "ARQUITECTURA - CASA DE JOS\u00c9 JOAQU\u00cdN  VALLEJOS (JOTABECHE) (MH)", "POINT_X": -70.244902829, "POINT_Y": -27.608556957}}, {"type": "Feature", "geometry": {"type": "Point", "coordinates": [-70.26416872599998, -27.553194260999966]}, "properties": {"CUT_REG": "03", "CUT_PROV": "031", "CUT_COM": "03103", "REGION": "Atacama", "PROVINCIA": "Copiap\u00f3", "COMUNA": "Tierra Amarilla", "variable": "Sitios de Inter\u00e9s Tur\u00edstico", "Nombres": "VI\u00d1AS Y BODEGAS - PARRONALES VALLE DE COPIAP\u00d3", "POINT_X": -70.264168726, "POINT_Y": -27.553194261}}, {"type": "Feature", "geometry": {"type": "Point", "coordinates": [-70.264743231, -27.552161677999976]}, "properties": {"CUT_REG": "03", "CUT_PROV": "031", "CUT_COM": "03103", "REGION": "Atacama", "PROVINCIA": "Copiap\u00f3", "COMUNA": "Tierra Amarilla", "variable": "Sitios de Inter\u00e9s Tur\u00edstico", "Nombres": "ARQUITECTURA - CASA E IGLESIA DE LA EX HACIENDA NANTOCO (MH)", "POINT_X": -70.264743231, "POINT_Y": -27.552161678}}, {"type": "Feature", "geometry": {"type": "Point", "coordinates": [-70.341285691, -27.523604582999972]}, "properties": {"CUT_REG": "03", "CUT_PROV": "031", "CUT_COM": "03103", "REGION": "Atacama", "PROVINCIA": "Copiap\u00f3", "COMUNA": "Tierra Amarilla", "variable": "Sitios de Inter\u00e9s Tur\u00edstico", "Nombres": "MUSEO - MUSEO DE SITIO MINA TRANSITO", "POINT_X": -70.341285691, "POINT_Y": -27.523604583}}, {"type": "Feature", "geometry": {"type": "Point", "coordinates": [-70.83582353000003, -27.521952809999995]}, "properties": {"CUT_REG": "03", "CUT_PROV": "031", "CUT_COM": "03102", "REGION": "Atacama", "PROVINCIA": "Copiap\u00f3", "COMUNA": "Caldera", "variable": "Sitios de Inter\u00e9s Tur\u00edstico", "Nombres": "LUGAR DE OBSERVACI\u00d3N DE FLORA Y FAUNA - DESIERTO FLORIDO EN LLANOS DE CALDERA", "POINT_X": -70.83582353, "POINT_Y": -27.52195281}}, {"type": "Feature", "geometry": {"type": "Point", "coordinates": [-70.88789286099998, -27.509252123000024]}, "properties": {"CUT_REG": "03", "CUT_PROV": "031", "CUT_COM": "03102", "REGION": "Atacama", "PROVINCIA": "Copiap\u00f3", "COMUNA": "Caldera", "variable": "Sitios de Inter\u00e9s Tur\u00edstico", "Nombres": "PLAYA O BALNEARIO - PLAYA BARRANQUILLA", "POINT_X": -70.887892861, "POINT_Y": -27.509252123}}, {"type": "Feature", "geometry": {"type": "Point", "coordinates": [-70.26226924149998, -27.496355468599972]}, "properties": {"CUT_REG": "03", "CUT_PROV": "031", "CUT_COM": "03103", "REGION": "Atacama", "PROVINCIA": "Copiap\u00f3", "COMUNA": "Tierra Amarilla", "variable": "Sitios de Inter\u00e9s Tur\u00edstico", "Nombres": "MUSEO - MUSEO MINERO TIERRA AMARILLA", "POINT_X": -70.2622692415, "POINT_Y": -27.4963554686}}, {"type": "Feature", "geometry": {"type": "Point", "coordinates": [-70.26587640199998, -27.481236263000042]}, "properties": {"CUT_REG": "03", "CUT_PROV": "031", "CUT_COM": "03103", "REGION": "Atacama", "PROVINCIA": "Copiap\u00f3", "COMUNA": "Tierra Amarilla", "variable": "Sitios de Inter\u00e9s Tur\u00edstico", "Nombres": "ARQUITECTURA - IGLESIA NUESTRA SE\u00d1ORA DE LORETO DE TIERRA AMARILLA", "POINT_X": -70.265876402, "POINT_Y": -27.481236263}}, {"type": "Feature", "geometry": {"type": "Point", "coordinates": [-70.26599226999997, -27.480747767000032]}, "properties": {"CUT_REG": "03", "CUT_PROV": "031", "CUT_COM": "03103", "REGION": "Atacama", "PROVINCIA": "Copiap\u00f3", "COMUNA": "Tierra Amarilla", "variable": "Sitios de Inter\u00e9s Tur\u00edstico", "Nombres": "FIESTA RELIGIOSA - FIESTA RELIGIOSA DE SAN ANTONIO DE TIERRA AMARILLA", "POINT_X": -70.26599227, "POINT_Y": -27.480747767}}, {"type": "Feature", "geometry": {"type": "Point", "coordinates": [-70.265706249, -27.469891237999974]}, "properties": {"CUT_REG": "03", "CUT_PROV": "031", "CUT_COM": "03103", "REGION": "Atacama", "PROVINCIA": "Copiap\u00f3", "COMUNA": "Tierra Amarilla", "variable": "Sitios de Inter\u00e9s Tur\u00edstico", "Nombres": "CARNAVAL O FIESTA COSTUMBRISTA - CARNAVAL DE PULLAY", "POINT_X": -70.265706249, "POINT_Y": -27.469891238}}, {"type": "Feature", "geometry": {"type": "Point", "coordinates": [-70.26567765799996, -27.469160333999987]}, "properties": {"CUT_REG": "03", "CUT_PROV": "031", "CUT_COM": "03103", "REGION": "Atacama", "PROVINCIA": "Copiap\u00f3", "COMUNA": "Tierra Amarilla", "variable": "Sitios de Inter\u00e9s Tur\u00edstico", "Nombres": "PUEBLO O ALDEA TRADICIONAL - TIERRA  AMARILLA", "POINT_X": -70.265677658, "POINT_Y": -27.469160334}}, {"type": "Feature", "geometry": {"type": "Point", "coordinates": [-69.22217542800001, -27.467903805000027]}, "properties": {"CUT_REG": "03", "CUT_PROV": "031", "CUT_COM": "03103", "REGION": "Atacama", "PROVINCIA": "Copiap\u00f3", "COMUNA": "Tierra Amarilla", "variable": "Sitios de Inter\u00e9s Tur\u00edstico", "Nombres": "LAGO Y LAGUNA - LAGUNA DEL NEGRO FRANCISCO", "POINT_X": -69.222175428, "POINT_Y": -27.467903805}}, {"type": "Feature", "geometry": {"type": "Point", "coordinates": [-70.30053972500001, -27.39223855199996]}, "properties": {"CUT_REG": "03", "CUT_PROV": "031", "CUT_COM": "03101", "REGION": "Atacama", "PROVINCIA": "Copiap\u00f3", "COMUNA": "Copiap\u00f3", "variable": "Sitios de Inter\u00e9s Tur\u00edstico", "Nombres": "CARNAVAL O FIESTA COSTUMBRISTA - FIESTA COSTUMBRISTA DEL PUEBLO DE SAN FERNANDO", "POINT_X": -70.300539725, "POINT_Y": -27.392238552}}, {"type": "Feature", "geometry": {"type": "Point", "coordinates": [-70.31969373100003, -27.383736038999984]}, "properties": {"CUT_REG": "03", "CUT_PROV": "031", "CUT_COM": "03101", "REGION": "Atacama", "PROVINCIA": "Copiap\u00f3", "COMUNA": "Copiap\u00f3", "variable": "Sitios de Inter\u00e9s Tur\u00edstico", "Nombres": "REALIZACI\u00d3N URBANA - PARQUE EL PRETIL DE COPIAP\u00d3", "POINT_X": -70.319693731, "POINT_Y": -27.383736039}}, {"type": "Feature", "geometry": {"type": "Point", "coordinates": [-70.31103192600003, -27.380710269000005]}, "properties": {"CUT_REG": "03", "CUT_PROV": "031", "CUT_COM": "03101", "REGION": "Atacama", "PROVINCIA": "Copiap\u00f3", "COMUNA": "Copiap\u00f3", "variable": "Sitios de Inter\u00e9s Tur\u00edstico", "Nombres": "ARQUITECTURA - CAPILLA CANDELARIA DE COPIAP\u00d3", "POINT_X": -70.311031926, "POINT_Y": -27.380710269}}, {"type": "Feature", "geometry": {"type": "Point", "coordinates": [-70.31134311500003, -27.38047488399998]}, "properties": {"CUT_REG": "03", "CUT_PROV": "031", "CUT_COM": "03101", "REGION": "Atacama", "PROVINCIA": "Copiap\u00f3", "COMUNA": "Copiap\u00f3", "variable": "Sitios de Inter\u00e9s Tur\u00edstico", "Nombres": "FIESTA RELIGIOSA - FIESTA RELIGIOSA VIRGEN DE LA CANDELARIA DE COPIAP\u00d3", "POINT_X": -70.311343115, "POINT_Y": -27.380474884}}, {"type": "Feature", "geometry": {"type": "Point", "coordinates": [-70.325695927, -27.37064457600001]}, "properties": {"CUT_REG": "03", "CUT_PROV": "031", "CUT_COM": "03101", "REGION": "Atacama", "PROVINCIA": "Copiap\u00f3", "COMUNA": "Copiap\u00f3", "variable": "Sitios de Inter\u00e9s Tur\u00edstico", "Nombres": "CARNAVAL O FIESTA COSTUMBRISTA - RE EDICI\u00d3N EXPEDICI\u00d3N ZELADA DAVILA", "POINT_X": -70.325695927, "POINT_Y": -27.370644576}}, {"type": "Feature", "geometry": {"type": "Point", "coordinates": [-70.33236363600003, -27.36664326399997]}, "properties": {"CUT_REG": "03", "CUT_PROV": "031", "CUT_COM": "03101", "REGION": "Atacama", "PROVINCIA": "Copiap\u00f3", "COMUNA": "Copiap\u00f3", "variable": "Sitios de Inter\u00e9s Tur\u00edstico", "Nombres": "REALIZACI\u00d3N URBANA - PLAZA PRAT DE COPIAP\u00d3", "POINT_X": -70.332363636, "POINT_Y": -27.366643264}}, {"type": "Feature", "geometry": {"type": "Point", "coordinates": [-70.332238727, -27.36651123299997]}, "properties": {"CUT_REG": "03", "CUT_PROV": "031", "CUT_COM": "03101", "REGION": "Atacama", "PROVINCIA": "Copiap\u00f3", "COMUNA": "Copiap\u00f3", "variable": "Sitios de Inter\u00e9s Tur\u00edstico", "Nombres": "CIUDAD - COPIAP\u00d3", "POINT_X": -70.332238727, "POINT_Y": -27.366511233}}, {"type": "Feature", "geometry": {"type": "Point", "coordinates": [-70.33341032900003, -27.36640977900001]}, "properties": {"CUT_REG": "03", "CUT_PROV": "031", "CUT_COM": "03101", "REGION": "Atacama", "PROVINCIA": "Copiap\u00f3", "COMUNA": "Copiap\u00f3", "variable": "Sitios de Inter\u00e9s Tur\u00edstico", "Nombres": "TEATRO - FESTIVAL LATINOAMERICANO DE TEATRO", "POINT_X": -70.333410329, "POINT_Y": -27.366409779}}, {"type": "Feature", "geometry": {"type": "Point", "coordinates": [-70.33217535099999, -27.366328806999974]}, "properties": {"CUT_REG": "03", "CUT_PROV": "031", "CUT_COM": "03101", "REGION": "Atacama", "PROVINCIA": "Copiap\u00f3", "COMUNA": "Copiap\u00f3", "variable": "Sitios de Inter\u00e9s Tur\u00edstico", "Nombres": "CARNAVAL O FIESTA COSTUMBRISTA - FIESTA DE LA CHALLA", "POINT_X": -70.332175351, "POINT_Y": -27.366328807}}, {"type": "Feature", "geometry": {"type": "Point", "coordinates": [-70.333115753, -27.36629524500004]}, "properties": {"CUT_REG": "03", "CUT_PROV": "031", "CUT_COM": "03101", "REGION": "Atacama", "PROVINCIA": "Copiap\u00f3", "COMUNA": "Copiap\u00f3", "variable": "Sitios de Inter\u00e9s Tur\u00edstico", "Nombres": "ARQUITECTURA - CATEDRAL DE COPIAP\u00d3 Y CASAS PARROQUIALES (MH)", "POINT_X": -70.333115753, "POINT_Y": -27.366295245}}, {"type": "Feature", "geometry": {"type": "Point", "coordinates": [-70.33264304099997, -27.366294010000026]}, "properties": {"CUT_REG": "03", "CUT_PROV": "031", "CUT_COM": "03101", "REGION": "Atacama", "PROVINCIA": "Copiap\u00f3", "COMUNA": "Copiap\u00f3", "variable": "Sitios de Inter\u00e9s Tur\u00edstico", "Nombres": "RUTA TUR\u00cdSTICA - RUTA COPAYAPU", "POINT_X": -70.332643041, "POINT_Y": -27.36629401}}, {"type": "Feature", "geometry": {"type": "Point", "coordinates": [-70.332001566, -27.36612534800001]}, "properties": {"CUT_REG": "03", "CUT_PROV": "031", "CUT_COM": "03101", "REGION": "Atacama", "PROVINCIA": "Copiap\u00f3", "COMUNA": "Copiap\u00f3", "variable": "Sitios de Inter\u00e9s Tur\u00edstico", "Nombres": "CARNAVAL O FIESTA COSTUMBRISTA - ANIVERSARIO DE COPIAP\u00d3", "POINT_X": -70.332001566, "POINT_Y": -27.366125348}}, {"type": "Feature", "geometry": {"type": "Point", "coordinates": [-70.33171386000001, -27.36573994500001]}, "properties": {"CUT_REG": "03", "CUT_PROV": "031", "CUT_COM": "03101", "REGION": "Atacama", "PROVINCIA": "Copiap\u00f3", "COMUNA": "Copiap\u00f3", "variable": "Sitios de Inter\u00e9s Tur\u00edstico", "Nombres": "ARQUITECTURA - EDIFICIO CONSISTORIAL (MH)", "POINT_X": -70.33171386, "POINT_Y": -27.365739945}}, {"type": "Feature", "geometry": {"type": "Point", "coordinates": [-70.34197624700002, -27.364089069000016]}, "properties": {"CUT_REG": "03", "CUT_PROV": "031", "CUT_COM": "03101", "REGION": "Atacama", "PROVINCIA": "Copiap\u00f3", "COMUNA": "Copiap\u00f3", "variable": "Sitios de Inter\u00e9s Tur\u00edstico", "Nombres": "ARQUITECTURA - IGLESIA SAN FRANCISCO", "POINT_X": -70.341976247, "POINT_Y": -27.364089069}}, {"type": "Feature", "geometry": {"type": "Point", "coordinates": [-70.34305290800002, -27.363663486999975]}, "properties": {"CUT_REG": "03", "CUT_PROV": "031", "CUT_COM": "03101", "REGION": "Atacama", "PROVINCIA": "Copiap\u00f3", "COMUNA": "Copiap\u00f3", "variable": "Sitios de Inter\u00e9s Tur\u00edstico", "Nombres": "LUGAR O SITIO HIST\u00d3RICO - SITIO HIST\u00d3RICO PLAZOLETA AVALOS", "POINT_X": -70.343052908, "POINT_Y": -27.363663487}}, {"type": "Feature", "geometry": {"type": "Point", "coordinates": [-70.341715249, -27.363405549999953]}, "properties": {"CUT_REG": "03", "CUT_PROV": "031", "CUT_COM": "03101", "REGION": "Atacama", "PROVINCIA": "Copiap\u00f3", "COMUNA": "Copiap\u00f3", "variable": "Sitios de Inter\u00e9s Tur\u00edstico", "Nombres": "REALIZACI\u00d3N URBANA - CENTRO C\u00cdVICO DE COPIAP\u00d3", "POINT_X": -70.341715249, "POINT_Y": -27.36340555}}, {"type": "Feature", "geometry": {"type": "Point", "coordinates": [-70.34018769900001, -27.363329957000005]}, "properties": {"CUT_REG": "03", "CUT_PROV": "031", "CUT_COM": "03101", "REGION": "Atacama", "PROVINCIA": "Copiap\u00f3", "COMUNA": "Copiap\u00f3", "variable": "Sitios de Inter\u00e9s Tur\u00edstico", "Nombres": "MUSEO - CASA DE LOS HERMANOS MATTA (MH)", "POINT_X": -70.340187699, "POINT_Y": -27.363329957}}, {"type": "Feature", "geometry": {"type": "Point", "coordinates": [-70.95820797699996, -27.362683565999987]}, "properties": {"CUT_REG": "03", "CUT_PROV": "031", "CUT_COM": "03102", "REGION": "Atacama", "PROVINCIA": "Copiap\u00f3", "COMUNA": "Caldera", "variable": "Sitios de Inter\u00e9s Tur\u00edstico", "Nombres": "PLAYA O BALNEARIO - PLAYA LA VIRGEN", "POINT_X": -70.958207977, "POINT_Y": -27.362683566}}, {"type": "Feature", "geometry": {"type": "Point", "coordinates": [-70.34156175300001, -27.362414088999984]}, "properties": {"CUT_REG": "03", "CUT_PROV": "031", "CUT_COM": "03101", "REGION": "Atacama", "PROVINCIA": "Copiap\u00f3", "COMUNA": "Copiap\u00f3", "variable": "Sitios de Inter\u00e9s Tur\u00edstico", "Nombres": "REALIZACI\u00d3N URBANA - ALAMEDA MANUEL ANTONIO MATTA", "POINT_X": -70.341561753, "POINT_Y": -27.362414089}}, {"type": "Feature", "geometry": {"type": "Point", "coordinates": [-70.33326126999997, -27.361563861999983]}, "properties": {"CUT_REG": "03", "CUT_PROV": "031", "CUT_COM": "03101", "REGION": "Atacama", "PROVINCIA": "Copiap\u00f3", "COMUNA": "Copiap\u00f3", "variable": "Sitios de Inter\u00e9s Tur\u00edstico", "Nombres": "ARQUITECTURA - IGLESIA BEL\u00c9N DE COPIAP\u00d3", "POINT_X": -70.33326127, "POINT_Y": -27.361563862}}, {"type": "Feature", "geometry": {"type": "Point", "coordinates": [-70.34907075200002, -27.36134878900004]}, "properties": {"CUT_REG": "03", "CUT_PROV": "031", "CUT_COM": "03101", "REGION": "Atacama", "PROVINCIA": "Copiap\u00f3", "COMUNA": "Copiap\u00f3", "variable": "Sitios de Inter\u00e9s Tur\u00edstico", "Nombres": "ARQUITECTURA - VILLA VI\u00d1A DE CRISTO (MH)", "POINT_X": -70.349070752, "POINT_Y": -27.361348789}}, {"type": "Feature", "geometry": {"type": "Point", "coordinates": [-70.34275999500002, -27.36033545700004]}, "properties": {"CUT_REG": "03", "CUT_PROV": "031", "CUT_COM": "03101", "REGION": "Atacama", "PROVINCIA": "Copiap\u00f3", "COMUNA": "Copiap\u00f3", "variable": "Sitios de Inter\u00e9s Tur\u00edstico", "Nombres": "LUGAR O SITIO HIST\u00d3RICO - SECTOR DE LA ESTACI\u00d3N DE FERROCARRILES DE COPIAP\u00d3 (ZT)", "POINT_X": -70.342759995, "POINT_Y": -27.360335457}}, {"type": "Feature", "geometry": {"type": "Point", "coordinates": [-70.34425311500003, -27.359237885]}, "properties": {"CUT_REG": "03", "CUT_PROV": "031", "CUT_COM": "03101", "REGION": "Atacama", "PROVINCIA": "Copiap\u00f3", "COMUNA": "Copiap\u00f3", "variable": "Sitios de Inter\u00e9s Tur\u00edstico", "Nombres": "ARQUITECTURA - ESTACI\u00d3N DE FERROCARRILES DE COPIAP\u00d3 (MH)", "POINT_X": -70.344253115, "POINT_Y": -27.359237885}}, {"type": "Feature", "geometry": {"type": "Point", "coordinates": [-70.34466451599997, -27.358981175999986]}, "properties": {"CUT_REG": "03", "CUT_PROV": "031", "CUT_COM": "03101", "REGION": "Atacama", "PROVINCIA": "Copiap\u00f3", "COMUNA": "Copiap\u00f3", "variable": "Sitios de Inter\u00e9s Tur\u00edstico", "Nombres": "ARQUITECTURA - CASA DE LOS EMPLEADOS DE LOS FERROCARRILES (MH)", "POINT_X": -70.344664516, "POINT_Y": -27.358981176}}, {"type": "Feature", "geometry": {"type": "Point", "coordinates": [-70.35223576199998, -27.35806856599997]}, "properties": {"CUT_REG": "03", "CUT_PROV": "031", "CUT_COM": "03101", "REGION": "Atacama", "PROVINCIA": "Copiap\u00f3", "COMUNA": "Copiap\u00f3", "variable": "Sitios de Inter\u00e9s Tur\u00edstico", "Nombres": "MUSEO - MUSEO MINERAL\u00d3GICO DE ATACAMA", "POINT_X": -70.352235762, "POINT_Y": -27.358068566}}, {"type": "Feature", "geometry": {"type": "Point", "coordinates": [-70.33859762999998, -27.357216085000047]}, "properties": {"CUT_REG": "03", "CUT_PROV": "031", "CUT_COM": "03101", "REGION": "Atacama", "PROVINCIA": "Copiap\u00f3", "COMUNA": "Copiap\u00f3", "variable": "Sitios de Inter\u00e9s Tur\u00edstico", "Nombres": "CERRO - CERRO LA CRUZ DE COPIAP\u00d3", "POINT_X": -70.33859763, "POINT_Y": -27.357216085}}, {"type": "Feature", "geometry": {"type": "Point", "coordinates": [-70.35311093600001, -27.356877593000014]}, "properties": {"CUT_REG": "03", "CUT_PROV": "031", "CUT_COM": "03101", "REGION": "Atacama", "PROVINCIA": "Copiap\u00f3", "COMUNA": "Copiap\u00f3", "variable": "Sitios de Inter\u00e9s Tur\u00edstico", "Nombres": "OBRA DE INGENIER\u00cdA - LOCOMOTORA NORRIS BROTHERS PHILADELPHIA 1850 (MH)", "POINT_X": -70.353110936, "POINT_Y": -27.356877593}}, {"type": "Feature", "geometry": {"type": "Point", "coordinates": [-70.22571086000005, -27.342428555999987]}, "properties": {"CUT_REG": "03", "CUT_PROV": "031", "CUT_COM": "03101", "REGION": "Atacama", "PROVINCIA": "Copiap\u00f3", "COMUNA": "Copiap\u00f3", "variable": "Sitios de Inter\u00e9s Tur\u00edstico", "Nombres": "CARNAVAL O FIESTA COSTUMBRISTA - A\u00d1O NUEVO IND\u00cdGENA", "POINT_X": -70.22571086, "POINT_Y": -27.342428556}}, {"type": "Feature", "geometry": {"type": "Point", "coordinates": [-70.93842746999997, -27.33475239399999]}, "properties": {"CUT_REG": "03", "CUT_PROV": "031", "CUT_COM": "03102", "REGION": "Atacama", "PROVINCIA": "Copiap\u00f3", "COMUNA": "Caldera", "variable": "Sitios de Inter\u00e9s Tur\u00edstico", "Nombres": "PLAYA O BALNEARIO - PLAYA PUERTO VIEJO", "POINT_X": -70.93842747, "POINT_Y": -27.334752394}}, {"type": "Feature", "geometry": {"type": "Point", "coordinates": [-70.41558594, -27.32254394199999]}, "properties": {"CUT_REG": "03", "CUT_PROV": "031", "CUT_COM": "03101", "REGION": "Atacama", "PROVINCIA": "Copiap\u00f3", "COMUNA": "Copiap\u00f3", "variable": "Sitios de Inter\u00e9s Tur\u00edstico", "Nombres": "CERRO - CERRO BRAMADOR", "POINT_X": -70.41558594, "POINT_Y": -27.322543942}}, {"type": "Feature", "geometry": {"type": "Point", "coordinates": [-70.92462323599999, -27.318977712999967]}, "properties": {"CUT_REG": "03", "CUT_PROV": "031", "CUT_COM": "03102", "REGION": "Atacama", "PROVINCIA": "Copiap\u00f3", "COMUNA": "Caldera", "variable": "Sitios de Inter\u00e9s Tur\u00edstico", "Nombres": "LUGAR DE OBSERVACI\u00d3N DE FLORA Y FAUNA - HUMEDAL DEL R\u00cdO COPIAP\u00d3", "POINT_X": -70.924623236, "POINT_Y": -27.318977713}}, {"type": "Feature", "geometry": {"type": "Point", "coordinates": [-70.49652227700003, -27.31169027699999]}, "properties": {"CUT_REG": "03", "CUT_PROV": "031", "CUT_COM": "03101", "REGION": "Atacama", "PROVINCIA": "Copiap\u00f3", "COMUNA": "Copiap\u00f3", "variable": "Sitios de Inter\u00e9s Tur\u00edstico", "Nombres": "ARQUITECTURA - IGLESIA DE PIEDRA COLGADA", "POINT_X": -70.496522277, "POINT_Y": -27.311690277}}, {"type": "Feature", "geometry": {"type": "Point", "coordinates": [-69.13099145299996, -27.30660003399999]}, "properties": {"CUT_REG": "03", "CUT_PROV": "031", "CUT_COM": "03103", "REGION": "Atacama", "PROVINCIA": "Copiap\u00f3", "COMUNA": "Tierra Amarilla", "variable": "Sitios de Inter\u00e9s Tur\u00edstico", "Nombres": "VOLC\u00c1N - VOLC\u00c1N COPIAP\u00d3", "POINT_X": -69.130991453, "POINT_Y": -27.306600034}}, {"type": "Feature", "geometry": {"type": "Point", "coordinates": [-70.41719040299998, -27.26783085199996]}, "properties": {"CUT_REG": "03", "CUT_PROV": "031", "CUT_COM": "03101", "REGION": "Atacama", "PROVINCIA": "Copiap\u00f3", "COMUNA": "Copiap\u00f3", "variable": "Sitios de Inter\u00e9s Tur\u00edstico", "Nombres": "EXPLOTACI\u00d3N MINERA - MINA CERRO IM\u00c1N", "POINT_X": -70.417190403, "POINT_Y": -27.267830852}}, {"type": "Feature", "geometry": {"type": "Point", "coordinates": [-70.94941867599996, -27.236197896000014]}, "properties": {"CUT_REG": "03", "CUT_PROV": "031", "CUT_COM": "03102", "REGION": "Atacama", "PROVINCIA": "Copiap\u00f3", "COMUNA": "Caldera", "variable": "Sitios de Inter\u00e9s Tur\u00edstico", "Nombres": "BAH\u00cdA O CALETA - BAH\u00cdA CISNE", "POINT_X": -70.949418676, "POINT_Y": -27.236197896}}, {"type": "Feature", "geometry": {"type": "Point", "coordinates": [-70.47288602300003, -27.218941221000023]}, "properties": {"CUT_REG": "03", "CUT_PROV": "031", "CUT_COM": "03101", "REGION": "Atacama", "PROVINCIA": "Copiap\u00f3", "COMUNA": "Copiap\u00f3", "variable": "Sitios de Inter\u00e9s Tur\u00edstico", "Nombres": "EVENTOS DEPORTIVOS - RAID DE PRIMAVERA", "POINT_X": -70.472886023, "POINT_Y": -27.218941221}}, {"type": "Feature", "geometry": {"type": "Point", "coordinates": [-70.40639100300004, -27.21595972399998]}, "properties": {"CUT_REG": "03", "CUT_PROV": "031", "CUT_COM": "03101", "REGION": "Atacama", "PROVINCIA": "Copiap\u00f3", "COMUNA": "Copiap\u00f3", "variable": "Sitios de Inter\u00e9s Tur\u00edstico", "Nombres": "DUNA O CAMPO DUNARIO - DUNAS DE ATACAMA", "POINT_X": -70.406391003, "POINT_Y": -27.215959724}}, {"type": "Feature", "geometry": {"type": "Point", "coordinates": [-70.35682502420002, -27.192801001099987]}, "properties": {"CUT_REG": "03", "CUT_PROV": "031", "CUT_COM": "03101", "REGION": "Atacama", "PROVINCIA": "Copiap\u00f3", "COMUNA": "Copiap\u00f3", "variable": "Sitios de Inter\u00e9s Tur\u00edstico", "Nombres": "DUNA O CAMPO DUNARIO - MAR DE DUNAS", "POINT_X": -70.3568250242, "POINT_Y": -27.1928010011}}, {"type": "Feature", "geometry": {"type": "Point", "coordinates": [-69.89044393699996, -27.16034427199999]}, "properties": {"CUT_REG": "03", "CUT_PROV": "031", "CUT_COM": "03101", "REGION": "Atacama", "PROVINCIA": "Copiap\u00f3", "COMUNA": "Copiap\u00f3", "variable": "Sitios de Inter\u00e9s Tur\u00edstico", "Nombres": "RUINA O LUGAR ARQUEOL\u00d3GICO - RUINAS DE PUQUIOS", "POINT_X": -69.890443937, "POINT_Y": -27.160344272}}, {"type": "Feature", "geometry": {"type": "Point", "coordinates": [-70.49747771700004, -27.157754573000034]}, "properties": {"CUT_REG": "03", "CUT_PROV": "031", "CUT_COM": "03101", "REGION": "Atacama", "PROVINCIA": "Copiap\u00f3", "COMUNA": "Copiap\u00f3", "variable": "Sitios de Inter\u00e9s Tur\u00edstico", "Nombres": "EXPLOTACI\u00d3N MINERA - CENTRO DE VISITANTES LOS 33", "POINT_X": -70.497477717, "POINT_Y": -27.157754573}}, {"type": "Feature", "geometry": {"type": "Point", "coordinates": [-70.88283366099998, -27.144543754999958]}, "properties": {"CUT_REG": "03", "CUT_PROV": "031", "CUT_COM": "03102", "REGION": "Atacama", "PROVINCIA": "Copiap\u00f3", "COMUNA": "Caldera", "variable": "Sitios de Inter\u00e9s Tur\u00edstico", "Nombres": "LUGAR DE INTER\u00c9S PALEONTOL\u00d3GICO - SITIO PALEONTOL\u00d3GICO DE  BAH\u00cdA INGLESA", "POINT_X": -70.882833661, "POINT_Y": -27.144543755}}, {"type": "Feature", "geometry": {"type": "Point", "coordinates": [-70.87217138800001, -27.134352118000024]}, "properties": {"CUT_REG": "03", "CUT_PROV": "031", "CUT_COM": "03102", "REGION": "Atacama", "PROVINCIA": "Copiap\u00f3", "COMUNA": "Caldera", "variable": "Sitios de Inter\u00e9s Tur\u00edstico", "Nombres": "PLAYA O BALNEARIO - PLAYA ROCAS NEGRAS", "POINT_X": -70.872171388, "POINT_Y": -27.134352118}}, {"type": "Feature", "geometry": {"type": "Point", "coordinates": [-69.89699175100003, -27.117068591000034]}, "properties": {"CUT_REG": "03", "CUT_PROV": "031", "CUT_COM": "03101", "REGION": "Atacama", "PROVINCIA": "Copiap\u00f3", "COMUNA": "Copiap\u00f3", "variable": "Sitios de Inter\u00e9s Tur\u00edstico", "Nombres": "LUGAR O SITIO HIST\u00d3RICO - RUINAS PLANTA MINA DULCINEA", "POINT_X": -69.896991751, "POINT_Y": -27.117068591}}, {"type": "Feature", "geometry": {"type": "Point", "coordinates": [-70.93184617899996, -27.116458375999997]}, "properties": {"CUT_REG": "03", "CUT_PROV": "031", "CUT_COM": "03102", "REGION": "Atacama", "PROVINCIA": "Copiap\u00f3", "COMUNA": "Caldera", "variable": "Sitios de Inter\u00e9s Tur\u00edstico", "Nombres": "ACANTILADO - \u00c1REA NATURAL EL MORRO", "POINT_X": -70.931846179, "POINT_Y": -27.116458376}}, {"type": "Feature", "geometry": {"type": "Point", "coordinates": [-70.85307517799995, -27.11629826199998]}, "properties": {"CUT_REG": "03", "CUT_PROV": "031", "CUT_COM": "03102", "REGION": "Atacama", "PROVINCIA": "Copiap\u00f3", "COMUNA": "Caldera", "variable": "Sitios de Inter\u00e9s Tur\u00edstico", "Nombres": "PLAYA O BALNEARIO - PLAYA LAS MACHAS DE BAH\u00cdA INGLESA", "POINT_X": -70.853075178, "POINT_Y": -27.116298262}}, {"type": "Feature", "geometry": {"type": "Point", "coordinates": [-68.54076227499996, -27.108749976]}, "properties": {"CUT_REG": "03", "CUT_PROV": "031", "CUT_COM": "03101", "REGION": "Atacama", "PROVINCIA": "Copiap\u00f3", "COMUNA": "Copiap\u00f3", "variable": "Sitios de Inter\u00e9s Tur\u00edstico", "Nombres": "VOLC\u00c1N - VOLC\u00c1N NEVADO OJOS DEL SALADO", "POINT_X": -68.540762275, "POINT_Y": -27.108749976}}, {"type": "Feature", "geometry": {"type": "Point", "coordinates": [-70.85627637040001, -27.104080627000016]}, "properties": {"CUT_REG": "03", "CUT_PROV": "031", "CUT_COM": "03102", "REGION": "Atacama", "PROVINCIA": "Copiap\u00f3", "COMUNA": "Caldera", "variable": "Sitios de Inter\u00e9s Tur\u00edstico", "Nombres": "PLAYA O BALNEARIO - BAH\u00cdA INGLESA", "POINT_X": -70.8562763704, "POINT_Y": -27.104080627}}, {"type": "Feature", "geometry": {"type": "Point", "coordinates": [-70.85866060099998, -27.102721932000037]}, "properties": {"CUT_REG": "03", "CUT_PROV": "031", "CUT_COM": "03102", "REGION": "Atacama", "PROVINCIA": "Copiap\u00f3", "COMUNA": "Caldera", "variable": "Sitios de Inter\u00e9s Tur\u00edstico", "Nombres": "PLAYA O BALNEARIO - PLAYA EL CHUNCHO DE BAH\u00cdA INGLESA", "POINT_X": -70.858660601, "POINT_Y": -27.102721932}}, {"type": "Feature", "geometry": {"type": "Point", "coordinates": [-70.86026146100002, -27.101061432999963]}, "properties": {"CUT_REG": "03", "CUT_PROV": "031", "CUT_COM": "03102", "REGION": "Atacama", "PROVINCIA": "Copiap\u00f3", "COMUNA": "Caldera", "variable": "Sitios de Inter\u00e9s Tur\u00edstico", "Nombres": "PLAYA O BALNEARIO - PLAYA LAS PISCINAS DE BAH\u00cdA INGLESA", "POINT_X": -70.860261461, "POINT_Y": -27.101061433}}, {"type": "Feature", "geometry": {"type": "Point", "coordinates": [-68.792506766, -27.09537320499996]}, "properties": {"CUT_REG": "03", "CUT_PROV": "031", "CUT_COM": "03101", "REGION": "Atacama", "PROVINCIA": "Copiap\u00f3", "COMUNA": "Copiap\u00f3", "variable": "Sitios de Inter\u00e9s Tur\u00edstico", "Nombres": "VOLC\u00c1N - VOLC\u00c1N NEVADO TRES CRUCES", "POINT_X": -68.792506766, "POINT_Y": -27.095373205}}, {"type": "Feature", "geometry": {"type": "Point", "coordinates": [-70.84752297000003, -27.09177962399999]}, "properties": {"CUT_REG": "03", "CUT_PROV": "031", "CUT_COM": "03102", "REGION": "Atacama", "PROVINCIA": "Copiap\u00f3", "COMUNA": "Caldera", "variable": "Sitios de Inter\u00e9s Tur\u00edstico", "Nombres": "BAH\u00cdA O CALETA - BAH\u00cdA CALDERILLA", "POINT_X": -70.84752297, "POINT_Y": -27.091779624}}, {"type": "Feature", "geometry": {"type": "Point", "coordinates": [-68.93331858499997, -27.082078537999962]}, "properties": {"CUT_REG": "03", "CUT_PROV": "031", "CUT_COM": "03101", "REGION": "Atacama", "PROVINCIA": "Copiap\u00f3", "COMUNA": "Copiap\u00f3", "variable": "Sitios de Inter\u00e9s Tur\u00edstico", "Nombres": "CA\u00cdDA DE AGUA - CASCADA R\u00cdO LAMAS", "POINT_X": -68.933318585, "POINT_Y": -27.082078538}}, {"type": "Feature", "geometry": {"type": "Point", "coordinates": [-69.16313417999999, -27.078712563999993]}, "properties": {"CUT_REG": "03", "CUT_PROV": "031", "CUT_COM": "03101", "REGION": "Atacama", "PROVINCIA": "Copiap\u00f3", "COMUNA": "Copiap\u00f3", "variable": "Sitios de Inter\u00e9s Tur\u00edstico", "Nombres": "LAGO Y LAGUNA - LAGUNA SANTA ROSA", "POINT_X": -69.16313418, "POINT_Y": -27.078712564}}, {"type": "Feature", "geometry": {"type": "Point", "coordinates": [-70.82988082000003, -27.070384719999993]}, "properties": {"CUT_REG": "03", "CUT_PROV": "031", "CUT_COM": "03102", "REGION": "Atacama", "PROVINCIA": "Copiap\u00f3", "COMUNA": "Caldera", "variable": "Sitios de Inter\u00e9s Tur\u00edstico", "Nombres": "MANIFESTACIONES RELIGIOSAS Y CREENCIAS POPULARES - GRUTA DEL PADRE NEGRO", "POINT_X": -70.82988082, "POINT_Y": -27.07038472}}, {"type": "Feature", "geometry": {"type": "Point", "coordinates": [-70.82934202600003, -27.070111931999982]}, "properties": {"CUT_REG": "03", "CUT_PROV": "031", "CUT_COM": "03102", "REGION": "Atacama", "PROVINCIA": "Copiap\u00f3", "COMUNA": "Caldera", "variable": "Sitios de Inter\u00e9s Tur\u00edstico", "Nombres": "FIESTA RELIGIOSA - ROMER\u00cdA AL PADRE NEGRO DE CALDERA", "POINT_X": -70.829342026, "POINT_Y": -27.070111932}}, {"type": "Feature", "geometry": {"type": "Point", "coordinates": [-70.82228795200001, -27.067838778000016]}, "properties": {"CUT_REG": "03", "CUT_PROV": "031", "CUT_COM": "03102", "REGION": "Atacama", "PROVINCIA": "Copiap\u00f3", "COMUNA": "Caldera", "variable": "Sitios de Inter\u00e9s Tur\u00edstico", "Nombres": "ARQUITECTURA - IGLESIA SAN VICENTE DE PAUL", "POINT_X": -70.822287952, "POINT_Y": -27.067838778}}, {"type": "Feature", "geometry": {"type": "Point", "coordinates": [-70.82231249199998, -27.06765794699998]}, "properties": {"CUT_REG": "03", "CUT_PROV": "031", "CUT_COM": "03102", "REGION": "Atacama", "PROVINCIA": "Copiap\u00f3", "COMUNA": "Caldera", "variable": "Sitios de Inter\u00e9s Tur\u00edstico", "Nombres": "FIESTA RELIGIOSA - FIESTA RELIGIOSA DE SAN PEDRO DE CALDERA", "POINT_X": -70.822312492, "POINT_Y": -27.067657947}}, {"type": "Feature", "geometry": {"type": "Point", "coordinates": [-70.82218291900001, -27.067578389999966]}, "properties": {"CUT_REG": "03", "CUT_PROV": "031", "CUT_COM": "03102", "REGION": "Atacama", "PROVINCIA": "Copiap\u00f3", "COMUNA": "Caldera", "variable": "Sitios de Inter\u00e9s Tur\u00edstico", "Nombres": "CIUDAD - CALDERA", "POINT_X": -70.822182919, "POINT_Y": -27.06757839}}, {"type": "Feature", "geometry": {"type": "Point", "coordinates": [-70.822377069, -27.067471187999978]}, "properties": {"CUT_REG": "03", "CUT_PROV": "031", "CUT_COM": "03102", "REGION": "Atacama", "PROVINCIA": "Copiap\u00f3", "COMUNA": "Caldera", "variable": "Sitios de Inter\u00e9s Tur\u00edstico", "Nombres": "EVENTO GASTRON\u00d3MICO - FESTIVAL GASTRONOMICO DE CALDERA", "POINT_X": -70.822377069, "POINT_Y": -27.067471188}}, {"type": "Feature", "geometry": {"type": "Point", "coordinates": [-70.82201662800003, -27.06739972800002]}, "properties": {"CUT_REG": "03", "CUT_PROV": "031", "CUT_COM": "03102", "REGION": "Atacama", "PROVINCIA": "Copiap\u00f3", "COMUNA": "Caldera", "variable": "Sitios de Inter\u00e9s Tur\u00edstico", "Nombres": "EVENTO GASTRON\u00d3MICO - CHAO PESCAO", "POINT_X": -70.822016628, "POINT_Y": -27.067399728}}, {"type": "Feature", "geometry": {"type": "Point", "coordinates": [-70.81398964299996, -27.067169863000004]}, "properties": {"CUT_REG": "03", "CUT_PROV": "031", "CUT_COM": "03102", "REGION": "Atacama", "PROVINCIA": "Copiap\u00f3", "COMUNA": "Caldera", "variable": "Sitios de Inter\u00e9s Tur\u00edstico", "Nombres": "MANIFESTACIONES RELIGIOSAS Y CREENCIAS POPULARES - CEMENTERIO LAICO DE CALDERA (MH)", "POINT_X": -70.813989643, "POINT_Y": -27.067169863}}, {"type": "Feature", "geometry": {"type": "Point", "coordinates": [-70.82289963699998, -27.066386718000047]}, "properties": {"CUT_REG": "03", "CUT_PROV": "031", "CUT_COM": "03102", "REGION": "Atacama", "PROVINCIA": "Copiap\u00f3", "COMUNA": "Caldera", "variable": "Sitios de Inter\u00e9s Tur\u00edstico", "Nombres": "MUSEO - CASA MALDINI TORNINI (MH)", "POINT_X": -70.822899637, "POINT_Y": -27.066386718}}, {"type": "Feature", "geometry": {"type": "Point", "coordinates": [-70.82416400799997, -27.066018314000026]}, "properties": {"CUT_REG": "03", "CUT_PROV": "031", "CUT_COM": "03102", "REGION": "Atacama", "PROVINCIA": "Copiap\u00f3", "COMUNA": "Caldera", "variable": "Sitios de Inter\u00e9s Tur\u00edstico", "Nombres": "ARQUITECTURA - EDIFICIO EX ADUANA DE CALDERA", "POINT_X": -70.824164008, "POINT_Y": -27.066018314}}, {"type": "Feature", "geometry": {"type": "Point", "coordinates": [-70.82365285899996, -27.065582679000045]}, "properties": {"CUT_REG": "03", "CUT_PROV": "031", "CUT_COM": "03102", "REGION": "Atacama", "PROVINCIA": "Copiap\u00f3", "COMUNA": "Caldera", "variable": "Sitios de Inter\u00e9s Tur\u00edstico", "Nombres": "REALIZACI\u00d3N URBANA - ANFITEATRO DEL MAR", "POINT_X": -70.823652859, "POINT_Y": -27.065582679}}, {"type": "Feature", "geometry": {"type": "Point", "coordinates": [-70.82407606699998, -27.06494538299998]}, "properties": {"CUT_REG": "03", "CUT_PROV": "031", "CUT_COM": "03102", "REGION": "Atacama", "PROVINCIA": "Copiap\u00f3", "COMUNA": "Caldera", "variable": "Sitios de Inter\u00e9s Tur\u00edstico", "Nombres": "CARNAVAL O FIESTA COSTUMBRISTA - ANIVERSARIO DEL PUERTO DE CALDERA", "POINT_X": -70.824076067, "POINT_Y": -27.064945383}}, {"type": "Feature", "geometry": {"type": "Point", "coordinates": [-70.82306560799995, -27.064805049000007]}, "properties": {"CUT_REG": "03", "CUT_PROV": "031", "CUT_COM": "03102", "REGION": "Atacama", "PROVINCIA": "Copiap\u00f3", "COMUNA": "Caldera", "variable": "Sitios de Inter\u00e9s Tur\u00edstico", "Nombres": "ARQUITECTURA - ESTACI\u00d3N DEL FERROCARRIL DE CALDERA (MH)", "POINT_X": -70.823065608, "POINT_Y": -27.064805049}}, {"type": "Feature", "geometry": {"type": "Point", "coordinates": [-70.818880898, -27.064759958000003]}, "properties": {"CUT_REG": "03", "CUT_PROV": "031", "CUT_COM": "03102", "REGION": "Atacama", "PROVINCIA": "Copiap\u00f3", "COMUNA": "Caldera", "variable": "Sitios de Inter\u00e9s Tur\u00edstico", "Nombres": "CARNAVAL O FIESTA COSTUMBRISTA - FIESTA COSTUMBRISTA RECREACI\u00d3N PRIMER VIAJE DE FERROCARRIL DE SUDAM\u00c9RICA", "POINT_X": -70.818880898, "POINT_Y": -27.064759958}}, {"type": "Feature", "geometry": {"type": "Point", "coordinates": [-70.23182765999996, -27.05505064700001]}, "properties": {"CUT_REG": "03", "CUT_PROV": "031", "CUT_COM": "03101", "REGION": "Atacama", "PROVINCIA": "Copiap\u00f3", "COMUNA": "Copiap\u00f3", "variable": "Sitios de Inter\u00e9s Tur\u00edstico", "Nombres": "DESIERTO - DESIERTO DE ATACAMA", "POINT_X": -70.23182766, "POINT_Y": -27.055050647}}, {"type": "Feature", "geometry": {"type": "Point", "coordinates": [-68.48283780999998, -27.05449169300004]}, "properties": {"CUT_REG": "03", "CUT_PROV": "031", "CUT_COM": "03101", "REGION": "Atacama", "PROVINCIA": "Copiap\u00f3", "COMUNA": "Copiap\u00f3", "variable": "Sitios de Inter\u00e9s Tur\u00edstico", "Nombres": "VOLC\u00c1N - CERRO EL MUERTO", "POINT_X": -68.48283781, "POINT_Y": -27.054491693}}, {"type": "Feature", "geometry": {"type": "Point", "coordinates": [-70.84883403399996, -27.051236847000027]}, "properties": {"CUT_REG": "03", "CUT_PROV": "031", "CUT_COM": "03102", "REGION": "Atacama", "PROVINCIA": "Copiap\u00f3", "COMUNA": "Caldera", "variable": "Sitios de Inter\u00e9s Tur\u00edstico", "Nombres": "ARQUITECTURA - FARO DE PUNTA CALDERA", "POINT_X": -70.848834034, "POINT_Y": -27.051236847}}, {"type": "Feature", "geometry": {"type": "Point", "coordinates": [-70.81517284299997, -27.038587768999975]}, "properties": {"CUT_REG": "03", "CUT_PROV": "031", "CUT_COM": "03102", "REGION": "Atacama", "PROVINCIA": "Copiap\u00f3", "COMUNA": "Caldera", "variable": "Sitios de Inter\u00e9s Tur\u00edstico", "Nombres": "RUINA O LUGAR ARQUEOL\u00d3GICO - FUERTE SUR O ESMERALDA", "POINT_X": -70.815172843, "POINT_Y": -27.038587769}}, {"type": "Feature", "geometry": {"type": "Point", "coordinates": [-68.30072136399997, -27.03235214599998]}, "properties": {"CUT_REG": "03", "CUT_PROV": "031", "CUT_COM": "03101", "REGION": "Atacama", "PROVINCIA": "Copiap\u00f3", "COMUNA": "Copiap\u00f3", "variable": "Sitios de Inter\u00e9s Tur\u00edstico", "Nombres": "VOLC\u00c1N - VOLC\u00c1N INCAHUASI", "POINT_X": -68.300721364, "POINT_Y": -27.032352146}}, {"type": "Feature", "geometry": {"type": "Point", "coordinates": [-69.04431480999999, -27.018057033999987]}, "properties": {"CUT_REG": "03", "CUT_PROV": "031", "CUT_COM": "03101", "REGION": "Atacama", "PROVINCIA": "Copiap\u00f3", "COMUNA": "Copiap\u00f3", "variable": "Sitios de Inter\u00e9s Tur\u00edstico", "Nombres": "\u00c1REA SILVESTRE PROTEGIDA DEL ESTADO (ASPE) - PARQUE NACIONAL NEVADO TRES CRUCES", "POINT_X": -69.04431481, "POINT_Y": -27.018057034}}, {"type": "Feature", "geometry": {"type": "Point", "coordinates": [-70.790821661, -27.00180310400001]}, "properties": {"CUT_REG": "03", "CUT_PROV": "031", "CUT_COM": "03102", "REGION": "Atacama", "PROVINCIA": "Copiap\u00f3", "COMUNA": "Caldera", "variable": "Sitios de Inter\u00e9s Tur\u00edstico", "Nombres": "PLAYA O BALNEARIO - PLAYA RAMADA", "POINT_X": -70.790821661, "POINT_Y": -27.001803104}}, {"type": "Feature", "geometry": {"type": "Point", "coordinates": [-68.66916345099997, -26.992455414000005]}, "properties": {"CUT_REG": "03", "CUT_PROV": "031", "CUT_COM": "03101", "REGION": "Atacama", "PROVINCIA": "Copiap\u00f3", "COMUNA": "Copiap\u00f3", "variable": "Sitios de Inter\u00e9s Tur\u00edstico", "Nombres": "VOLC\u00c1N - CERRO BARRANCAS BLANCAS", "POINT_X": -68.669163451, "POINT_Y": -26.992455414}}, {"type": "Feature", "geometry": {"type": "Point", "coordinates": [-70.79500701599999, -26.97283958400004]}, "properties": {"CUT_REG": "03", "CUT_PROV": "031", "CUT_COM": "03102", "REGION": "Atacama", "PROVINCIA": "Copiap\u00f3", "COMUNA": "Caldera", "variable": "Sitios de Inter\u00e9s Tur\u00edstico", "Nombres": "LUGAR DE INTER\u00c9S GEOL\u00d3GICO - GRANITO ORBICULAR (SN)", "POINT_X": -70.795007016, "POINT_Y": -26.972839584}}, {"type": "Feature", "geometry": {"type": "Point", "coordinates": [-70.79790830999997, -26.971575068000043]}, "properties": {"CUT_REG": "03", "CUT_PROV": "031", "CUT_COM": "03102", "REGION": "Atacama", "PROVINCIA": "Copiap\u00f3", "COMUNA": "Caldera", "variable": "Sitios de Inter\u00e9s Tur\u00edstico", "Nombres": "LUGAR DE OBSERVACI\u00d3N DE FLORA Y FAUNA - LOBERA DE CALDERA", "POINT_X": -70.79790831, "POINT_Y": -26.971575068}}, {"type": "Feature", "geometry": {"type": "Point", "coordinates": [-68.26838734700002, -26.918734940999997]}, "properties": {"CUT_REG": "03", "CUT_PROV": "031", "CUT_COM": "03101", "REGION": "Atacama", "PROVINCIA": "Copiap\u00f3", "COMUNA": "Copiap\u00f3", "variable": "Sitios de Inter\u00e9s Tur\u00edstico", "Nombres": "CERRO - CERRO SAN FRANCISCO", "POINT_X": -68.268387347, "POINT_Y": -26.918734941}}, {"type": "Feature", "geometry": {"type": "Point", "coordinates": [-69.08284422999999, -26.908962669000033]}, "properties": {"CUT_REG": "03", "CUT_PROV": "031", "CUT_COM": "03101", "REGION": "Atacama", "PROVINCIA": "Copiap\u00f3", "COMUNA": "Copiap\u00f3", "variable": "Sitios de Inter\u00e9s Tur\u00edstico", "Nombres": "SALINA - SALAR DE MARICUNGA", "POINT_X": -69.08284423, "POINT_Y": -26.908962669}}, {"type": "Feature", "geometry": {"type": "Point", "coordinates": [-68.47390589, -26.891423649000046]}, "properties": {"CUT_REG": "03", "CUT_PROV": "031", "CUT_COM": "03101", "REGION": "Atacama", "PROVINCIA": "Copiap\u00f3", "COMUNA": "Copiap\u00f3", "variable": "Sitios de Inter\u00e9s Tur\u00edstico", "Nombres": "FUENTE Y CENTRO TERMAL - TERMAS DE LAGUNA VERDE", "POINT_X": -68.47390589, "POINT_Y": -26.891423649}}, {"type": "Feature", "geometry": {"type": "Point", "coordinates": [-68.30570267200002, -26.87639623100003]}, "properties": {"CUT_REG": "03", "CUT_PROV": "031", "CUT_COM": "03101", "REGION": "Atacama", "PROVINCIA": "Copiap\u00f3", "COMUNA": "Copiap\u00f3", "variable": "Sitios de Inter\u00e9s Tur\u00edstico", "Nombres": "OTROS MONTA\u00d1A - PASO SAN FRANCISCO", "POINT_X": -68.305702672, "POINT_Y": -26.876396231}}, {"type": "Feature", "geometry": {"type": "Point", "coordinates": [-70.73673787099997, -26.738109389999998]}, "properties": {"CUT_REG": "03", "CUT_PROV": "031", "CUT_COM": "03102", "REGION": "Atacama", "PROVINCIA": "Copiap\u00f3", "COMUNA": "Caldera", "variable": "Sitios de Inter\u00e9s Tur\u00edstico", "Nombres": "RUINA O LUGAR ARQUEOL\u00d3GICO - PETROGLIFOS DE LOS CHANGOS O CALETA OBISPITO", "POINT_X": -70.736737871, "POINT_Y": -26.73810939}}, {"type": "Feature", "geometry": {"type": "Point", "coordinates": [-70.73243544599998, -26.692325542999995]}, "properties": {"CUT_REG": "03", "CUT_PROV": "031", "CUT_COM": "03102", "REGION": "Atacama", "PROVINCIA": "Copiap\u00f3", "COMUNA": "Caldera", "variable": "Sitios de Inter\u00e9s Tur\u00edstico", "Nombres": "BAH\u00cdA O CALETA - CALETA OBISPO", "POINT_X": -70.732435446, "POINT_Y": -26.692325543}}]}