{"type": "FeatureCollection", "features": [{"type": "Feature", "geometry": {"type": "Point", "coordinates": [-71.06351924350002, -29.229237984500045]}, "properties": {"CUT_REG": "03", "CUT_PROV": "033", "CUT_COM": "03301", "REGION": "Atacama", "PROVINCIA": "Huasco", "COMUNA": "Vallenar", "variable": "Sitios de Inter\u00e9s Tur\u00edstico", "Nombres": "FUENTE Y CENTRO TERMAL - TERMAS DE AGUAS CALIENTES", "POINT_X": -71.0635192435, "POINT_Y": -29.2292379845}}, {"type": "Feature", "geometry": {"type": "Point", "coordinates": [-71.01155301300003, -29.22683812300003]}, "properties": {"CUT_REG": "03", "CUT_PROV": "033", "CUT_COM": "03301", "REGION": "Atacama", "PROVINCIA": "Huasco", "COMUNA": "Vallenar", "variable": "Sitios de Inter\u00e9s Tur\u00edstico", "Nombres": "PUEBLO O ALDEA TRADICIONAL - INCAHUASI", "POINT_X": -71.011553013, "POINT_Y": -29.226838123}}, {"type": "Feature", "geometry": {"type": "Point", "coordinates": [-71.40844584100003, -29.102628703000008]}, "properties": {"CUT_REG": "03", "CUT_PROV": "033", "CUT_COM": "03303", "REGION": "Atacama", "PROVINCIA": "Huasco", "COMUNA": "Freirina", "variable": "Sitios de Inter\u00e9s Tur\u00edstico", "Nombres": "PUEBLO O ALDEA TRADICIONAL - CARRIZALILLO", "POINT_X": -71.408445841, "POINT_Y": -29.102628703}}, {"type": "Feature", "geometry": {"type": "Point", "coordinates": [-71.40818762399998, -29.101686074]}, "properties": {"CUT_REG": "03", "CUT_PROV": "033", "CUT_COM": "03303", "REGION": "Atacama", "PROVINCIA": "Huasco", "COMUNA": "Freirina", "variable": "Sitios de Inter\u00e9s Tur\u00edstico", "Nombres": "RODEO - RODEO DE BURROS DE CARRIZALILLO", "POINT_X": -71.408187624, "POINT_Y": -29.101686074}}, {"type": "Feature", "geometry": {"type": "Point", "coordinates": [-71.49120232800001, -29.078066846999995]}, "properties": {"CUT_REG": "03", "CUT_PROV": "033", "CUT_COM": "03303", "REGION": "Atacama", "PROVINCIA": "Huasco", "COMUNA": "Freirina", "variable": "Sitios de Inter\u00e9s Tur\u00edstico", "Nombres": "BAH\u00cdA O CALETA - CALETA CHA\u00d1ARAL DE ACEITUNO", "POINT_X": -71.491202328, "POINT_Y": -29.078066847}}, {"type": "Feature", "geometry": {"type": "Point", "coordinates": [-70.89857205900003, -29.036955223000035]}, "properties": {"CUT_REG": "03", "CUT_PROV": "033", "CUT_COM": "03301", "REGION": "Atacama", "PROVINCIA": "Huasco", "COMUNA": "Vallenar", "variable": "Sitios de Inter\u00e9s Tur\u00edstico", "Nombres": "ARQUITECTURA - ESTACI\u00d3N DE FERROCARRILES DE CACHIYUYO (MH)", "POINT_X": -70.898572059, "POINT_Y": -29.036955223}}, {"type": "Feature", "geometry": {"type": "Point", "coordinates": [-70.89960734999997, -29.036299928]}, "properties": {"CUT_REG": "03", "CUT_PROV": "033", "CUT_COM": "03301", "REGION": "Atacama", "PROVINCIA": "Huasco", "COMUNA": "Vallenar", "variable": "Sitios de Inter\u00e9s Tur\u00edstico", "Nombres": "PUEBLO O ALDEA TRADICIONAL - CACHIYUYO", "POINT_X": -70.89960735, "POINT_Y": -29.036299928}}, {"type": "Feature", "geometry": {"type": "Point", "coordinates": [-70.69230448399998, -29.014572906999966]}, "properties": {"CUT_REG": "03", "CUT_PROV": "033", "CUT_COM": "03301", "REGION": "Atacama", "PROVINCIA": "Huasco", "COMUNA": "Vallenar", "variable": "Sitios de Inter\u00e9s Tur\u00edstico", "Nombres": "OBSERVATORIO ASTRON\u00d3MICO - OBSERVATORIO ASTRON\u00d3MICO LAS CAMPANAS", "POINT_X": -70.692304484, "POINT_Y": -29.014572907}}, {"type": "Feature", "geometry": {"type": "Point", "coordinates": [-70.28320164900003, -28.97949349599996]}, "properties": {"CUT_REG": "03", "CUT_PROV": "033", "CUT_COM": "03302", "REGION": "Atacama", "PROVINCIA": "Huasco", "COMUNA": "Alto del Carmen", "variable": "Sitios de Inter\u00e9s Tur\u00edstico", "Nombres": "LUGAR DE INTER\u00c9S GEOL\u00d3GICO - FORMACIONES GEOL\u00d3GICAS DE PINTE", "POINT_X": -70.283201649, "POINT_Y": -28.979493496}}, {"type": "Feature", "geometry": {"type": "Point", "coordinates": [-70.15400685199998, -28.97341721600001]}, "properties": {"CUT_REG": "03", "CUT_PROV": "033", "CUT_COM": "03302", "REGION": "Atacama", "PROVINCIA": "Huasco", "COMUNA": "Alto del Carmen", "variable": "Sitios de Inter\u00e9s Tur\u00edstico", "Nombres": "PUEBLO O ALDEA TRADICIONAL - CONAY", "POINT_X": -70.154006852, "POINT_Y": -28.973417216}}, {"type": "Feature", "geometry": {"type": "Point", "coordinates": [-70.88916872599995, -28.95465950199999]}, "properties": {"CUT_REG": "03", "CUT_PROV": "033", "CUT_COM": "03301", "REGION": "Atacama", "PROVINCIA": "Huasco", "COMUNA": "Vallenar", "variable": "Sitios de Inter\u00e9s Tur\u00edstico", "Nombres": "PUEBLO O ALDEA TRADICIONAL - DOMEYKO", "POINT_X": -70.889168726, "POINT_Y": -28.954659502}}, {"type": "Feature", "geometry": {"type": "Point", "coordinates": [-70.46115211800003, -28.941823442000015]}, "properties": {"CUT_REG": "03", "CUT_PROV": "033", "CUT_COM": "03302", "REGION": "Atacama", "PROVINCIA": "Huasco", "COMUNA": "Alto del Carmen", "variable": "Sitios de Inter\u00e9s Tur\u00edstico", "Nombres": "OTROS CIRCUITOS TUR\u00cdSTICOS - SENDERO DE CHILE TRAMO SAN F\u00c9LIX-PINTE", "POINT_X": -70.461152118, "POINT_Y": -28.941823442}}, {"type": "Feature", "geometry": {"type": "Point", "coordinates": [-70.46064966600002, -28.935259073999994]}, "properties": {"CUT_REG": "03", "CUT_PROV": "033", "CUT_COM": "03302", "REGION": "Atacama", "PROVINCIA": "Huasco", "COMUNA": "Alto del Carmen", "variable": "Sitios de Inter\u00e9s Tur\u00edstico", "Nombres": "VI\u00d1AS Y BODEGAS - PLANTA PISQUERA HORCON QUEMADO", "POINT_X": -70.460649666, "POINT_Y": -28.935259074}}, {"type": "Feature", "geometry": {"type": "Point", "coordinates": [-70.46231917599997, -28.933607514000037]}, "properties": {"CUT_REG": "03", "CUT_PROV": "033", "CUT_COM": "03302", "REGION": "Atacama", "PROVINCIA": "Huasco", "COMUNA": "Alto del Carmen", "variable": "Sitios de Inter\u00e9s Tur\u00edstico", "Nombres": "PUEBLO O ALDEA TRADICIONAL - SAN F\u00c9LIX", "POINT_X": -70.462319176, "POINT_Y": -28.933607514}}, {"type": "Feature", "geometry": {"type": "Point", "coordinates": [-70.46225291399998, -28.93358858899998]}, "properties": {"CUT_REG": "03", "CUT_PROV": "033", "CUT_COM": "03302", "REGION": "Atacama", "PROVINCIA": "Huasco", "COMUNA": "Alto del Carmen", "variable": "Sitios de Inter\u00e9s Tur\u00edstico", "Nombres": "FIESTA RELIGIOSA - FIESTA DE LA INMACULADA CONCEPCI\u00d3N", "POINT_X": -70.462252914, "POINT_Y": -28.933588589}}, {"type": "Feature", "geometry": {"type": "Point", "coordinates": [-70.04539522300001, -28.883935394000012]}, "properties": {"CUT_REG": "03", "CUT_PROV": "033", "CUT_COM": "03302", "REGION": "Atacama", "PROVINCIA": "Huasco", "COMUNA": "Alto del Carmen", "variable": "Sitios de Inter\u00e9s Tur\u00edstico", "Nombres": "PUEBLO O ALDEA TRADICIONAL - JUNTAS DE VALERIANO", "POINT_X": -70.045395223, "POINT_Y": -28.883935394}}, {"type": "Feature", "geometry": {"type": "Point", "coordinates": [-70.28048346700001, -28.876960929999996]}, "properties": {"CUT_REG": "03", "CUT_PROV": "033", "CUT_COM": "03302", "REGION": "Atacama", "PROVINCIA": "Huasco", "COMUNA": "Alto del Carmen", "variable": "Sitios de Inter\u00e9s Tur\u00edstico", "Nombres": "PUEBLO O ALDEA TRADICIONAL - EL TRANSITO", "POINT_X": -70.280483467, "POINT_Y": -28.87696093}}, {"type": "Feature", "geometry": {"type": "Point", "coordinates": [-70.28407943100001, -28.862540984999974]}, "properties": {"CUT_REG": "03", "CUT_PROV": "033", "CUT_COM": "03302", "REGION": "Atacama", "PROVINCIA": "Huasco", "COMUNA": "Alto del Carmen", "variable": "Sitios de Inter\u00e9s Tur\u00edstico", "Nombres": "PUEBLO O ALDEA TRADICIONAL - CHANCHOQUIN", "POINT_X": -70.284079431, "POINT_Y": -28.862540985}}, {"type": "Feature", "geometry": {"type": "Point", "coordinates": [-69.843657874, -28.801992003999985]}, "properties": {"CUT_REG": "03", "CUT_PROV": "033", "CUT_COM": "03302", "REGION": "Atacama", "PROVINCIA": "Huasco", "COMUNA": "Alto del Carmen", "variable": "Sitios de Inter\u00e9s Tur\u00edstico", "Nombres": "LAGO Y LAGUNA - LAGUNA CHICA DE HUASCO ALTO", "POINT_X": -69.843657874, "POINT_Y": -28.801992004}}, {"type": "Feature", "geometry": {"type": "Point", "coordinates": [-70.26475451899995, -28.79385087199998]}, "properties": {"CUT_REG": "03", "CUT_PROV": "033", "CUT_COM": "03302", "REGION": "Atacama", "PROVINCIA": "Huasco", "COMUNA": "Alto del Carmen", "variable": "Sitios de Inter\u00e9s Tur\u00edstico", "Nombres": "VALLE Y QUEBRADA - QUEBRADA LA TOTORA", "POINT_X": -70.264754519, "POINT_Y": -28.793850872}}, {"type": "Feature", "geometry": {"type": "Point", "coordinates": [-70.48616696499997, -28.759700968999965]}, "properties": {"CUT_REG": "03", "CUT_PROV": "033", "CUT_COM": "03302", "REGION": "Atacama", "PROVINCIA": "Huasco", "COMUNA": "Alto del Carmen", "variable": "Sitios de Inter\u00e9s Tur\u00edstico", "Nombres": "CARNAVAL O FIESTA COSTUMBRISTA - FESTIVAL DE GASTRONOM\u00cdA Y ARTESAN\u00cdA TRADICI\u00d3N E IDENTIDAD", "POINT_X": -70.486166965, "POINT_Y": -28.759700969}}, {"type": "Feature", "geometry": {"type": "Point", "coordinates": [-70.48609617299996, -28.759678834]}, "properties": {"CUT_REG": "03", "CUT_PROV": "033", "CUT_COM": "03302", "REGION": "Atacama", "PROVINCIA": "Huasco", "COMUNA": "Alto del Carmen", "variable": "Sitios de Inter\u00e9s Tur\u00edstico", "Nombres": "PUEBLO O ALDEA TRADICIONAL - ALTO DEL CARMEN", "POINT_X": -70.486096173, "POINT_Y": -28.759678834}}, {"type": "Feature", "geometry": {"type": "Point", "coordinates": [-70.48626424500002, -28.759658970000046]}, "properties": {"CUT_REG": "03", "CUT_PROV": "033", "CUT_COM": "03302", "REGION": "Atacama", "PROVINCIA": "Huasco", "COMUNA": "Alto del Carmen", "variable": "Sitios de Inter\u00e9s Tur\u00edstico", "Nombres": "FIESTA RELIGIOSA - FIESTA DE NUESTRA SE\u00d1ORA DE LA MERCED", "POINT_X": -70.486264245, "POINT_Y": -28.75965897}}, {"type": "Feature", "geometry": {"type": "Point", "coordinates": [-70.48607073099998, -28.759562846999998]}, "properties": {"CUT_REG": "03", "CUT_PROV": "033", "CUT_COM": "03302", "REGION": "Atacama", "PROVINCIA": "Huasco", "COMUNA": "Alto del Carmen", "variable": "Sitios de Inter\u00e9s Tur\u00edstico", "Nombres": "FIESTA RELIGIOSA - FIESTA DE LA VIRGEN DEL TR\u00c1NSITO DE ALTO DEL CARMEN", "POINT_X": -70.486070731, "POINT_Y": -28.759562847}}, {"type": "Feature", "geometry": {"type": "Point", "coordinates": [-70.48615275500003, -28.759335274999998]}, "properties": {"CUT_REG": "03", "CUT_PROV": "033", "CUT_COM": "03302", "REGION": "Atacama", "PROVINCIA": "Huasco", "COMUNA": "Alto del Carmen", "variable": "Sitios de Inter\u00e9s Tur\u00edstico", "Nombres": "CARNAVAL O FIESTA COSTUMBRISTA - ANIVERSARIO DE ALTO DEL CARMEN", "POINT_X": -70.486152755, "POINT_Y": -28.759335275}}, {"type": "Feature", "geometry": {"type": "Point", "coordinates": [-69.90544846999995, -28.730971334999985]}, "properties": {"CUT_REG": "03", "CUT_PROV": "033", "CUT_COM": "03302", "REGION": "Atacama", "PROVINCIA": "Huasco", "COMUNA": "Alto del Carmen", "variable": "Sitios de Inter\u00e9s Tur\u00edstico", "Nombres": "LAGO Y LAGUNA - LAGUNA GRANDE DE HUASCO ALTO", "POINT_X": -69.90544847, "POINT_Y": -28.730971335}}, {"type": "Feature", "geometry": {"type": "Point", "coordinates": [-71.24258057199997, -28.72745955700003]}, "properties": {"CUT_REG": "03", "CUT_PROV": "033", "CUT_COM": "03303", "REGION": "Atacama", "PROVINCIA": "Huasco", "COMUNA": "Freirina", "variable": "Sitios de Inter\u00e9s Tur\u00edstico", "Nombres": "OBRA DE INGENIER\u00cdA - DOS CHIMENEAS DE LA FUNDICI\u00d3N DE COBRE DE LABRAR (MH)", "POINT_X": -71.242580572, "POINT_Y": -28.727459557}}, {"type": "Feature", "geometry": {"type": "Point", "coordinates": [-70.63237853900003, -28.714619686000006]}, "properties": {"CUT_REG": "03", "CUT_PROV": "033", "CUT_COM": "03301", "REGION": "Atacama", "PROVINCIA": "Huasco", "COMUNA": "Vallenar", "variable": "Sitios de Inter\u00e9s Tur\u00edstico", "Nombres": "FIESTA RELIGIOSA - FIESTA RELIGIOSA VIRGEN DEL ROSARIO DE CARRIZO", "POINT_X": -70.632378539, "POINT_Y": -28.714619686}}, {"type": "Feature", "geometry": {"type": "Point", "coordinates": [-70.64154374699996, -28.677454704000013]}, "properties": {"CUT_REG": "03", "CUT_PROV": "033", "CUT_COM": "03301", "REGION": "Atacama", "PROVINCIA": "Huasco", "COMUNA": "Vallenar", "variable": "Sitios de Inter\u00e9s Tur\u00edstico", "Nombres": "OBRA DE INGENIER\u00cdA - EMBALSE SANTA JUANA", "POINT_X": -70.641543747, "POINT_Y": -28.677454704}}, {"type": "Feature", "geometry": {"type": "Point", "coordinates": [-70.69454962700003, -28.639233386000015]}, "properties": {"CUT_REG": "03", "CUT_PROV": "033", "CUT_COM": "03301", "REGION": "Atacama", "PROVINCIA": "Huasco", "COMUNA": "Vallenar", "variable": "Sitios de Inter\u00e9s Tur\u00edstico", "Nombres": "FIESTA RELIGIOSA - FIESTA RELIGIOSA NUESTRA SE\u00d1ORA DEL CARMEN DE CHA\u00d1AR BLANCO", "POINT_X": -70.694549627, "POINT_Y": -28.639233386}}, {"type": "Feature", "geometry": {"type": "Point", "coordinates": [-70.75023047300002, -28.608023689000007]}, "properties": {"CUT_REG": "03", "CUT_PROV": "033", "CUT_COM": "03301", "REGION": "Atacama", "PROVINCIA": "Huasco", "COMUNA": "Vallenar", "variable": "Sitios de Inter\u00e9s Tur\u00edstico", "Nombres": "PUEBLO O ALDEA TRADICIONAL - LA VERBENA", "POINT_X": -70.750230473, "POINT_Y": -28.608023689}}, {"type": "Feature", "geometry": {"type": "Point", "coordinates": [-70.75965673400003, -28.579051320000012]}, "properties": {"CUT_REG": "03", "CUT_PROV": "033", "CUT_COM": "03301", "REGION": "Atacama", "PROVINCIA": "Huasco", "COMUNA": "Vallenar", "variable": "Sitios de Inter\u00e9s Tur\u00edstico", "Nombres": "MUSEO - MUSEO DEL HUASCO EN VALLENAR", "POINT_X": -70.759656734, "POINT_Y": -28.57905132}}, {"type": "Feature", "geometry": {"type": "Point", "coordinates": [-70.76078359700001, -28.575508232000047]}, "properties": {"CUT_REG": "03", "CUT_PROV": "033", "CUT_COM": "03301", "REGION": "Atacama", "PROVINCIA": "Huasco", "COMUNA": "Vallenar", "variable": "Sitios de Inter\u00e9s Tur\u00edstico", "Nombres": "CIUDAD - VALLENAR", "POINT_X": -70.760783597, "POINT_Y": -28.575508232}}, {"type": "Feature", "geometry": {"type": "Point", "coordinates": [-70.76136496899997, -28.575428491000018]}, "properties": {"CUT_REG": "03", "CUT_PROV": "033", "CUT_COM": "03301", "REGION": "Atacama", "PROVINCIA": "Huasco", "COMUNA": "Vallenar", "variable": "Sitios de Inter\u00e9s Tur\u00edstico", "Nombres": "FIESTA RELIGIOSA - FIESTA RELIGIOSA VIRGEN DEL TR\u00c1NSITO DE VALLENAR", "POINT_X": -70.761364969, "POINT_Y": -28.575428491}}, {"type": "Feature", "geometry": {"type": "Point", "coordinates": [-70.761726895, -28.57506282299996]}, "properties": {"CUT_REG": "03", "CUT_PROV": "033", "CUT_COM": "03301", "REGION": "Atacama", "PROVINCIA": "Huasco", "COMUNA": "Vallenar", "variable": "Sitios de Inter\u00e9s Tur\u00edstico", "Nombres": "REALIZACI\u00d3N URBANA - PLAZA DE ARMAS DE VALLENAR", "POINT_X": -70.761726895, "POINT_Y": -28.575062823}}, {"type": "Feature", "geometry": {"type": "Point", "coordinates": [-70.76174928699999, -28.574566200999996]}, "properties": {"CUT_REG": "03", "CUT_PROV": "033", "CUT_COM": "03301", "REGION": "Atacama", "PROVINCIA": "Huasco", "COMUNA": "Vallenar", "variable": "Sitios de Inter\u00e9s Tur\u00edstico", "Nombres": "FIESTA RELIGIOSA - FIESTA RELIGIOSA CRUZ DE MAYO DE VALLENAR", "POINT_X": -70.761749287, "POINT_Y": -28.574566201}}, {"type": "Feature", "geometry": {"type": "Point", "coordinates": [-70.76821868899995, -28.57202744899999]}, "properties": {"CUT_REG": "03", "CUT_PROV": "033", "CUT_COM": "03301", "REGION": "Atacama", "PROVINCIA": "Huasco", "COMUNA": "Vallenar", "variable": "Sitios de Inter\u00e9s Tur\u00edstico", "Nombres": "ARQUITECTURA - ESTACI\u00d3N DE FERROCARRILES DE VALLENAR", "POINT_X": -70.768218689, "POINT_Y": -28.572027449}}, {"type": "Feature", "geometry": {"type": "Point", "coordinates": [-71.07965373000002, -28.50975312299998]}, "properties": {"CUT_REG": "03", "CUT_PROV": "033", "CUT_COM": "03303", "REGION": "Atacama", "PROVINCIA": "Huasco", "COMUNA": "Freirina", "variable": "Sitios de Inter\u00e9s Tur\u00edstico", "Nombres": "CIUDAD - FREIRINA", "POINT_X": -71.07965373, "POINT_Y": -28.509753123}}, {"type": "Feature", "geometry": {"type": "Point", "coordinates": [-71.07860021699997, -28.509164682999966]}, "properties": {"CUT_REG": "03", "CUT_PROV": "033", "CUT_COM": "03303", "REGION": "Atacama", "PROVINCIA": "Huasco", "COMUNA": "Freirina", "variable": "Sitios de Inter\u00e9s Tur\u00edstico", "Nombres": "ARQUITECTURA - IGLESIA PARROQUIAL DE FREIRINA (MH)", "POINT_X": -71.078600217, "POINT_Y": -28.509164683}}, {"type": "Feature", "geometry": {"type": "Point", "coordinates": [-71.078170901, -28.50862984900003]}, "properties": {"CUT_REG": "03", "CUT_PROV": "033", "CUT_COM": "03303", "REGION": "Atacama", "PROVINCIA": "Huasco", "COMUNA": "Freirina", "variable": "Sitios de Inter\u00e9s Tur\u00edstico", "Nombres": "ARQUITECTURA - EDIFICIO LOS PORTALES (MH)", "POINT_X": -71.078170901, "POINT_Y": -28.508629849}}, {"type": "Feature", "geometry": {"type": "Point", "coordinates": [-71.174336273, -28.477249185999995]}, "properties": {"CUT_REG": "03", "CUT_PROV": "033", "CUT_COM": "03304", "REGION": "Atacama", "PROVINCIA": "Huasco", "COMUNA": "Huasco", "variable": "Sitios de Inter\u00e9s Tur\u00edstico", "Nombres": "PUEBLO O ALDEA TRADICIONAL - HUASCO BAJO", "POINT_X": -71.174336273, "POINT_Y": -28.477249186}}, {"type": "Feature", "geometry": {"type": "Point", "coordinates": [-71.17680577999997, -28.47219449500001]}, "properties": {"CUT_REG": "03", "CUT_PROV": "033", "CUT_COM": "03304", "REGION": "Atacama", "PROVINCIA": "Huasco", "COMUNA": "Huasco", "variable": "Sitios de Inter\u00e9s Tur\u00edstico", "Nombres": "RUTA TUR\u00cdSTICA - RUTA OLIVOS CENTENARIOS", "POINT_X": -71.17680578, "POINT_Y": -28.472194495}}, {"type": "Feature", "geometry": {"type": "Point", "coordinates": [-71.22046223699998, -28.464512029000034]}, "properties": {"CUT_REG": "03", "CUT_PROV": "033", "CUT_COM": "03304", "REGION": "Atacama", "PROVINCIA": "Huasco", "COMUNA": "Huasco", "variable": "Sitios de Inter\u00e9s Tur\u00edstico", "Nombres": "CARNAVAL O FIESTA COSTUMBRISTA - FESTIVAL DEL VELERO", "POINT_X": -71.220462237, "POINT_Y": -28.464512029}}, {"type": "Feature", "geometry": {"type": "Point", "coordinates": [-71.22092023300004, -28.464441387999962]}, "properties": {"CUT_REG": "03", "CUT_PROV": "033", "CUT_COM": "03304", "REGION": "Atacama", "PROVINCIA": "Huasco", "COMUNA": "Huasco", "variable": "Sitios de Inter\u00e9s Tur\u00edstico", "Nombres": "CIUDAD - HUASCO", "POINT_X": -71.220920233, "POINT_Y": -28.464441388}}, {"type": "Feature", "geometry": {"type": "Point", "coordinates": [-71.22050177199996, -28.46420402800004]}, "properties": {"CUT_REG": "03", "CUT_PROV": "033", "CUT_COM": "03304", "REGION": "Atacama", "PROVINCIA": "Huasco", "COMUNA": "Huasco", "variable": "Sitios de Inter\u00e9s Tur\u00edstico", "Nombres": "FIESTA RELIGIOSA - FIESTA RELIGIOSA SAN PEDRO DE HUASCO", "POINT_X": -71.220501772, "POINT_Y": -28.464204028}}, {"type": "Feature", "geometry": {"type": "Point", "coordinates": [-71.19120284100003, -28.463723481999978]}, "properties": {"CUT_REG": "03", "CUT_PROV": "033", "CUT_COM": "03304", "REGION": "Atacama", "PROVINCIA": "Huasco", "COMUNA": "Huasco", "variable": "Sitios de Inter\u00e9s Tur\u00edstico", "Nombres": "LUGAR DE OBSERVACI\u00d3N DE FLORA Y FAUNA - HUMEDAL DE HUASCO BAJO", "POINT_X": -71.191202841, "POINT_Y": -28.463723482}}, {"type": "Feature", "geometry": {"type": "Point", "coordinates": [-71.21828028200001, -28.46319419899997]}, "properties": {"CUT_REG": "03", "CUT_PROV": "033", "CUT_COM": "03304", "REGION": "Atacama", "PROVINCIA": "Huasco", "COMUNA": "Huasco", "variable": "Sitios de Inter\u00e9s Tur\u00edstico", "Nombres": "PLAYA O BALNEARIO - PLAYA CHICA DE HUASCO", "POINT_X": -71.218280282, "POINT_Y": -28.463194199}}, {"type": "Feature", "geometry": {"type": "Point", "coordinates": [-71.21360331900001, -28.460716914999992]}, "properties": {"CUT_REG": "03", "CUT_PROV": "033", "CUT_COM": "03304", "REGION": "Atacama", "PROVINCIA": "Huasco", "COMUNA": "Huasco", "variable": "Sitios de Inter\u00e9s Tur\u00edstico", "Nombres": "PLAYA O BALNEARIO - PLAYA GRANDE DE HUASCO", "POINT_X": -71.213603319, "POINT_Y": -28.460716915}}, {"type": "Feature", "geometry": {"type": "Point", "coordinates": [-71.18942272000001, -28.38819266300002]}, "properties": {"CUT_REG": "03", "CUT_PROV": "033", "CUT_COM": "03304", "REGION": "Atacama", "PROVINCIA": "Huasco", "COMUNA": "Huasco", "variable": "Sitios de Inter\u00e9s Tur\u00edstico", "Nombres": "PLAYA O BALNEARIO - BALNEARIO DE TRES PLAYITAS", "POINT_X": -71.18942272, "POINT_Y": -28.388192663}}, {"type": "Feature", "geometry": {"type": "Point", "coordinates": [-70.71627855799994, -28.386366865000035]}, "properties": {"CUT_REG": "03", "CUT_PROV": "033", "CUT_COM": "03301", "REGION": "Atacama", "PROVINCIA": "Huasco", "COMUNA": "Vallenar", "variable": "Sitios de Inter\u00e9s Tur\u00edstico", "Nombres": "LUGAR DE OBSERVACI\u00d3N DE FLORA Y FAUNA - DESIERTO FLORIDO EN CHACRITAS", "POINT_X": -70.716278558, "POINT_Y": -28.386366865}}, {"type": "Feature", "geometry": {"type": "Point", "coordinates": [-71.16200044800001, -28.362255728000008]}, "properties": {"CUT_REG": "03", "CUT_PROV": "033", "CUT_COM": "03304", "REGION": "Atacama", "PROVINCIA": "Huasco", "COMUNA": "Huasco", "variable": "Sitios de Inter\u00e9s Tur\u00edstico", "Nombres": "PLAYA O BALNEARIO - PLAYA BARATILLO", "POINT_X": -71.162000448, "POINT_Y": -28.362255728}}, {"type": "Feature", "geometry": {"type": "Point", "coordinates": [-70.99097669549997, -28.340553633300026]}, "properties": {"CUT_REG": "03", "CUT_PROV": "033", "CUT_COM": "03303", "REGION": "Atacama", "PROVINCIA": "Huasco", "COMUNA": "Freirina", "variable": "Sitios de Inter\u00e9s Tur\u00edstico", "Nombres": "PLAYA O BALNEARIO - PLAYA AMARILLA", "POINT_X": -70.9909766955, "POINT_Y": -28.3405536333}}, {"type": "Feature", "geometry": {"type": "Point", "coordinates": [-71.14547023600002, -28.216671642999977]}, "properties": {"CUT_REG": "03", "CUT_PROV": "033", "CUT_COM": "03304", "REGION": "Atacama", "PROVINCIA": "Huasco", "COMUNA": "Huasco", "variable": "Sitios de Inter\u00e9s Tur\u00edstico", "Nombres": "LUGAR DE OBSERVACI\u00d3N DE FLORA Y FAUNA - DESIERTO FLORIDO EN PARQUE NACIONAL LLANOS DE CHALLE", "POINT_X": -71.145470236, "POINT_Y": -28.216671643}}, {"type": "Feature", "geometry": {"type": "Point", "coordinates": [-71.16172015500001, -28.18994091700001]}, "properties": {"CUT_REG": "03", "CUT_PROV": "033", "CUT_COM": "03304", "REGION": "Atacama", "PROVINCIA": "Huasco", "COMUNA": "Huasco", "variable": "Sitios de Inter\u00e9s Tur\u00edstico", "Nombres": "PLAYA O BALNEARIO - PLAYA BLANCA DE CARRIZAL BAJO", "POINT_X": -71.161720155, "POINT_Y": -28.189940917}}, {"type": "Feature", "geometry": {"type": "Point", "coordinates": [-71.14409978499995, -28.177552763299992]}, "properties": {"CUT_REG": "03", "CUT_PROV": "033", "CUT_COM": "03304", "REGION": "Atacama", "PROVINCIA": "Huasco", "COMUNA": "Huasco", "variable": "Sitios de Inter\u00e9s Tur\u00edstico", "Nombres": "\u00c1REA SILVESTRE PROTEGIDA DEL ESTADO (ASPE) - PARQUE NACIONAL LLANOS DE CHALLE", "POINT_X": -71.144099785, "POINT_Y": -28.1775527633}}, {"type": "Feature", "geometry": {"type": "Point", "coordinates": [-71.14736784099999, -28.082145712999996]}, "properties": {"CUT_REG": "03", "CUT_PROV": "033", "CUT_COM": "03304", "REGION": "Atacama", "PROVINCIA": "Huasco", "COMUNA": "Huasco", "variable": "Sitios de Inter\u00e9s Tur\u00edstico", "Nombres": "BAH\u00cdA O CALETA - CALETA CARRIZAL BAJO", "POINT_X": -71.147367841, "POINT_Y": -28.082145713}}]}