{"type": "FeatureCollection", "features": [{"type": "Feature", "geometry": {"type": "Point", "coordinates": [-71.42414438970003, -32.6331479408]}, "properties": {"CUT_REG": "05", "CUT_PROV": "054", "CUT_COM": "05405", "REGION": "Valpara\u00edso", "PROVINCIA": "Petorca", "COMUNA": "Zapallar", "variable": "Sitios de Inter\u00e9s Tur\u00edstico", "Nombres": "PLAYA O BALNEARIO - LAGUNA DE ZAPALLAR", "POINT_X": -71.4241443897, "POINT_Y": -32.6331479408}}, {"type": "Feature", "geometry": {"type": "Point", "coordinates": [-71.28557514010004, -32.627315282500014]}, "properties": {"CUT_REG": "05", "CUT_PROV": "054", "CUT_COM": "05405", "REGION": "Valpara\u00edso", "PROVINCIA": "Petorca", "COMUNA": "Zapallar", "variable": "Sitios de Inter\u00e9s Tur\u00edstico", "Nombres": "OBRA DE INGENIER\u00cdA - SECTOR PALOS QUEMADOS", "POINT_X": -71.2855751401, "POINT_Y": -32.6273152825}}, {"type": "Feature", "geometry": {"type": "Point", "coordinates": [-71.45713424990001, -32.586444039899995]}, "properties": {"CUT_REG": "05", "CUT_PROV": "054", "CUT_COM": "05405", "REGION": "Valpara\u00edso", "PROVINCIA": "Petorca", "COMUNA": "Zapallar", "variable": "Sitios de Inter\u00e9s Tur\u00edstico", "Nombres": "LUGAR DE OBSERVACI\u00d3N DE FLORA Y FAUNA - ISLA CACHAGUA (SN Y MN)", "POINT_X": -71.4571342499, "POINT_Y": -32.5864440399}}, {"type": "Feature", "geometry": {"type": "Point", "coordinates": [-71.4491026359, -32.583291510499976]}, "properties": {"CUT_REG": "05", "CUT_PROV": "054", "CUT_COM": "05405", "REGION": "Valpara\u00edso", "PROVINCIA": "Petorca", "COMUNA": "Zapallar", "variable": "Sitios de Inter\u00e9s Tur\u00edstico", "Nombres": "PLAYA O BALNEARIO - BALNEARIO DE CACHAGUA", "POINT_X": -71.4491026359, "POINT_Y": -32.5832915105}}, {"type": "Feature", "geometry": {"type": "Point", "coordinates": [-71.27766129399998, -32.56602888889998]}, "properties": {"CUT_REG": "05", "CUT_PROV": "054", "CUT_COM": "05405", "REGION": "Valpara\u00edso", "PROVINCIA": "Petorca", "COMUNA": "Zapallar", "variable": "Sitios de Inter\u00e9s Tur\u00edstico", "Nombres": "PUEBLO O ALDEA TRADICIONAL - CATAPILCO", "POINT_X": -71.277661294, "POINT_Y": -32.5660288889}}, {"type": "Feature", "geometry": {"type": "Point", "coordinates": [-71.27765557790005, -32.565909858300024]}, "properties": {"CUT_REG": "05", "CUT_PROV": "054", "CUT_COM": "05405", "REGION": "Valpara\u00edso", "PROVINCIA": "Petorca", "COMUNA": "Zapallar", "variable": "Sitios de Inter\u00e9s Tur\u00edstico", "Nombres": "CARNAVAL O FIESTA COSTUMBRISTA - FIESTA PATRIA Y COSTUMBRISTA DE CATAPILCO", "POINT_X": -71.2776555779, "POINT_Y": -32.5659098583}}, {"type": "Feature", "geometry": {"type": "Point", "coordinates": [-71.46112888829998, -32.55306906830001]}, "properties": {"CUT_REG": "05", "CUT_PROV": "054", "CUT_COM": "05405", "REGION": "Valpara\u00edso", "PROVINCIA": "Petorca", "COMUNA": "Zapallar", "variable": "Sitios de Inter\u00e9s Tur\u00edstico", "Nombres": "ARQUITECTURA - CASA HILDESHEIM BAVIERA (MH)", "POINT_X": -71.4611288883, "POINT_Y": -32.5530690683}}, {"type": "Feature", "geometry": {"type": "Point", "coordinates": [-71.45881246129998, -32.55293641920004]}, "properties": {"CUT_REG": "05", "CUT_PROV": "054", "CUT_COM": "05405", "REGION": "Valpara\u00edso", "PROVINCIA": "Petorca", "COMUNA": "Zapallar", "variable": "Sitios de Inter\u00e9s Tur\u00edstico", "Nombres": "ESCULTURA - PILA DE BRONCE DE LA PLAZA DE ZAPALLAR (MH)", "POINT_X": -71.4588124613, "POINT_Y": -32.5529364192}}, {"type": "Feature", "geometry": {"type": "Point", "coordinates": [-71.4608908773, -32.551635164000004]}, "properties": {"CUT_REG": "05", "CUT_PROV": "054", "CUT_COM": "05405", "REGION": "Valpara\u00edso", "PROVINCIA": "Petorca", "COMUNA": "Zapallar", "variable": "Sitios de Inter\u00e9s Tur\u00edstico", "Nombres": "PUEBLO O ALDEA TRADICIONAL - SECTOR DE BALNEARIO DE ZAPALLAR (ZT)", "POINT_X": -71.4608908773, "POINT_Y": -32.551635164}}, {"type": "Feature", "geometry": {"type": "Point", "coordinates": [-71.471083618, -32.508241334800026]}, "properties": {"CUT_REG": "05", "CUT_PROV": "054", "CUT_COM": "05405", "REGION": "Valpara\u00edso", "PROVINCIA": "Petorca", "COMUNA": "Zapallar", "variable": "Sitios de Inter\u00e9s Tur\u00edstico", "Nombres": "ACANTILADO - ACANTILADOS DE PAPUDO", "POINT_X": -71.471083618, "POINT_Y": -32.5082413348}}, {"type": "Feature", "geometry": {"type": "Point", "coordinates": [-71.44687335410003, -32.507858124700014]}, "properties": {"CUT_REG": "05", "CUT_PROV": "054", "CUT_COM": "05403", "REGION": "Valpara\u00edso", "PROVINCIA": "Petorca", "COMUNA": "Papudo", "variable": "Sitios de Inter\u00e9s Tur\u00edstico", "Nombres": "ARQUITECTURA - PALACIO RECART", "POINT_X": -71.4468733541, "POINT_Y": -32.5078581247}}, {"type": "Feature", "geometry": {"type": "Point", "coordinates": [-71.44625609180002, -32.50746434299997]}, "properties": {"CUT_REG": "05", "CUT_PROV": "054", "CUT_COM": "05403", "REGION": "Valpara\u00edso", "PROVINCIA": "Petorca", "COMUNA": "Papudo", "variable": "Sitios de Inter\u00e9s Tur\u00edstico", "Nombres": "PLAYA O BALNEARIO - BALNEARIO PAPUDO", "POINT_X": -71.4462560918, "POINT_Y": -32.507464343}}, {"type": "Feature", "geometry": {"type": "Point", "coordinates": [-71.449645687, -32.506452042700026]}, "properties": {"CUT_REG": "05", "CUT_PROV": "054", "CUT_COM": "05403", "REGION": "Valpara\u00edso", "PROVINCIA": "Petorca", "COMUNA": "Papudo", "variable": "Sitios de Inter\u00e9s Tur\u00edstico", "Nombres": "ARQUITECTURA - IGLESIA NUESTRA SE\u00d1ORA DE LAS MERCEDES (MH)", "POINT_X": -71.449645687, "POINT_Y": -32.5064520427}}, {"type": "Feature", "geometry": {"type": "Point", "coordinates": [-71.45108210130005, -32.50373627899997]}, "properties": {"CUT_REG": "05", "CUT_PROV": "054", "CUT_COM": "05403", "REGION": "Valpara\u00edso", "PROVINCIA": "Petorca", "COMUNA": "Papudo", "variable": "Sitios de Inter\u00e9s Tur\u00edstico", "Nombres": "BAH\u00cdA O CALETA - CALETA PAPUDO", "POINT_X": -71.4510821013, "POINT_Y": -32.503736279}}, {"type": "Feature", "geometry": {"type": "Point", "coordinates": [-71.13251954619999, -32.481882396300044]}, "properties": {"CUT_REG": "05", "CUT_PROV": "054", "CUT_COM": "05402", "REGION": "Valpara\u00edso", "PROVINCIA": "Petorca", "COMUNA": "Cabildo", "variable": "Sitios de Inter\u00e9s Tur\u00edstico", "Nombres": "REALIZACI\u00d3N URBANA - FUNDO EL INGENIO", "POINT_X": -71.1325195462, "POINT_Y": -32.4818823963}}, {"type": "Feature", "geometry": {"type": "Point", "coordinates": [-71.18850028330002, -32.47504111859997]}, "properties": {"CUT_REG": "05", "CUT_PROV": "054", "CUT_COM": "05401", "REGION": "Valpara\u00edso", "PROVINCIA": "Petorca", "COMUNA": "La Ligua", "variable": "Sitios de Inter\u00e9s Tur\u00edstico", "Nombres": "LUGAR O SITIO HIST\u00d3RICO - ANTIGUA ESCUELA RURAL (MH)", "POINT_X": -71.1885002833, "POINT_Y": -32.4750411186}}, {"type": "Feature", "geometry": {"type": "Point", "coordinates": [-71.2313752819, -32.44961418520001]}, "properties": {"CUT_REG": "05", "CUT_PROV": "054", "CUT_COM": "05401", "REGION": "Valpara\u00edso", "PROVINCIA": "Petorca", "COMUNA": "La Ligua", "variable": "Sitios de Inter\u00e9s Tur\u00edstico", "Nombres": "CARNAVAL O FIESTA COSTUMBRISTA - MES ANIVERSARIO DE LA LIGUA", "POINT_X": -71.2313752819, "POINT_Y": -32.4496141852}}, {"type": "Feature", "geometry": {"type": "Point", "coordinates": [-71.23167891730002, -32.44941941909997]}, "properties": {"CUT_REG": "05", "CUT_PROV": "054", "CUT_COM": "05401", "REGION": "Valpara\u00edso", "PROVINCIA": "Petorca", "COMUNA": "La Ligua", "variable": "Sitios de Inter\u00e9s Tur\u00edstico", "Nombres": "CIUDAD - LA LIGUA", "POINT_X": -71.2316789173, "POINT_Y": -32.4494194191}}, {"type": "Feature", "geometry": {"type": "Point", "coordinates": [-71.23199095870002, -32.449134319599956]}, "properties": {"CUT_REG": "05", "CUT_PROV": "054", "CUT_COM": "05401", "REGION": "Valpara\u00edso", "PROVINCIA": "Petorca", "COMUNA": "La Ligua", "variable": "Sitios de Inter\u00e9s Tur\u00edstico", "Nombres": "FIESTA RELIGIOSA - CRUZ DE MAYO DE LA LIGUA", "POINT_X": -71.2319909587, "POINT_Y": -32.4491343196}}, {"type": "Feature", "geometry": {"type": "Point", "coordinates": [-71.23168176819998, -32.44910372919997]}, "properties": {"CUT_REG": "05", "CUT_PROV": "054", "CUT_COM": "05401", "REGION": "Valpara\u00edso", "PROVINCIA": "Petorca", "COMUNA": "La Ligua", "variable": "Sitios de Inter\u00e9s Tur\u00edstico", "Nombres": "FERIA O EXPOSICI\u00d3N - FERIA DEL TEJIDO EXPOLIGUA", "POINT_X": -71.2316817682, "POINT_Y": -32.4491037292}}, {"type": "Feature", "geometry": {"type": "Point", "coordinates": [-71.23054458269999, -32.445493648099955]}, "properties": {"CUT_REG": "05", "CUT_PROV": "054", "CUT_COM": "05401", "REGION": "Valpara\u00edso", "PROVINCIA": "Petorca", "COMUNA": "La Ligua", "variable": "Sitios de Inter\u00e9s Tur\u00edstico", "Nombres": "MUSEO - MUSEO DE LA LIGUA", "POINT_X": -71.2305445827, "POINT_Y": -32.4454936481}}, {"type": "Feature", "geometry": {"type": "Point", "coordinates": [-71.21043475429997, -32.438350039900044]}, "properties": {"CUT_REG": "05", "CUT_PROV": "054", "CUT_COM": "05401", "REGION": "Valpara\u00edso", "PROVINCIA": "Petorca", "COMUNA": "La Ligua", "variable": "Sitios de Inter\u00e9s Tur\u00edstico", "Nombres": "FERIA O EXPOSICI\u00d3N - FIESTA COSTUMBRISTA DE VALLE HERMOSO", "POINT_X": -71.2104347543, "POINT_Y": -32.4383500399}}, {"type": "Feature", "geometry": {"type": "Point", "coordinates": [-71.21098289010001, -32.43815103069999]}, "properties": {"CUT_REG": "05", "CUT_PROV": "054", "CUT_COM": "05401", "REGION": "Valpara\u00edso", "PROVINCIA": "Petorca", "COMUNA": "La Ligua", "variable": "Sitios de Inter\u00e9s Tur\u00edstico", "Nombres": "PUEBLO O ALDEA TRADICIONAL - VALLE HERMOSO", "POINT_X": -71.2109828901, "POINT_Y": -32.4381510307}}, {"type": "Feature", "geometry": {"type": "Point", "coordinates": [-71.32920450000002, -32.427389091099975]}, "properties": {"CUT_REG": "05", "CUT_PROV": "054", "CUT_COM": "05403", "REGION": "Valpara\u00edso", "PROVINCIA": "Petorca", "COMUNA": "Papudo", "variable": "Sitios de Inter\u00e9s Tur\u00edstico", "Nombres": "CIRCUITO TUR\u00cdSTICO - CAMINO LONGOTOMA - LA LIGUA", "POINT_X": -71.3292045, "POINT_Y": -32.4273890911}}, {"type": "Feature", "geometry": {"type": "Point", "coordinates": [-71.06773789979997, -32.42672343090004]}, "properties": {"CUT_REG": "05", "CUT_PROV": "054", "CUT_COM": "05402", "REGION": "Valpara\u00edso", "PROVINCIA": "Petorca", "COMUNA": "Cabildo", "variable": "Sitios de Inter\u00e9s Tur\u00edstico", "Nombres": "CIUDAD - CABILDO", "POINT_X": -71.0677378998, "POINT_Y": -32.4267234309}}, {"type": "Feature", "geometry": {"type": "Point", "coordinates": [-71.41279180679997, -32.41603135069998]}, "properties": {"CUT_REG": "05", "CUT_PROV": "054", "CUT_COM": "05403", "REGION": "Valpara\u00edso", "PROVINCIA": "Petorca", "COMUNA": "Papudo", "variable": "Sitios de Inter\u00e9s Tur\u00edstico", "Nombres": "SALINA - SALINAS DE PULLALLY", "POINT_X": -71.4127918068, "POINT_Y": -32.4160313507}}, {"type": "Feature", "geometry": {"type": "Point", "coordinates": [-71.37844416629999, -32.39495104949997]}, "properties": {"CUT_REG": "05", "CUT_PROV": "054", "CUT_COM": "05401", "REGION": "Valpara\u00edso", "PROVINCIA": "Petorca", "COMUNA": "La Ligua", "variable": "Sitios de Inter\u00e9s Tur\u00edstico", "Nombres": "PUEBLO O ALDEA TRADICIONAL - LONGOTOMA", "POINT_X": -71.3784441663, "POINT_Y": -32.3949510495}}, {"type": "Feature", "geometry": {"type": "Point", "coordinates": [-71.06992586310001, -32.35580930299998]}, "properties": {"CUT_REG": "05", "CUT_PROV": "054", "CUT_COM": "05404", "REGION": "Valpara\u00edso", "PROVINCIA": "Petorca", "COMUNA": "Petorca", "variable": "Sitios de Inter\u00e9s Tur\u00edstico", "Nombres": "PUEBLO O ALDEA TRADICIONAL - PEDEGUA", "POINT_X": -71.0699258631, "POINT_Y": -32.355809303}}, {"type": "Feature", "geometry": {"type": "Point", "coordinates": [-70.78177453959995, -32.35125456050002]}, "properties": {"CUT_REG": "05", "CUT_PROV": "054", "CUT_COM": "05402", "REGION": "Valpara\u00edso", "PROVINCIA": "Petorca", "COMUNA": "Cabildo", "variable": "Sitios de Inter\u00e9s Tur\u00edstico", "Nombres": "MUSEO - MUSEO DE ALICAHUE", "POINT_X": -70.7817745396, "POINT_Y": -32.3512545605}}, {"type": "Feature", "geometry": {"type": "Point", "coordinates": [-70.78363844929996, -32.350398423000016]}, "properties": {"CUT_REG": "05", "CUT_PROV": "054", "CUT_COM": "05402", "REGION": "Valpara\u00edso", "PROVINCIA": "Petorca", "COMUNA": "Cabildo", "variable": "Sitios de Inter\u00e9s Tur\u00edstico", "Nombres": "PUEBLO O ALDEA TRADICIONAL - ALICAHUE", "POINT_X": -70.7836384493, "POINT_Y": -32.350398423}}, {"type": "Feature", "geometry": {"type": "Point", "coordinates": [-71.46973602980003, -32.34540965070004]}, "properties": {"CUT_REG": "05", "CUT_PROV": "054", "CUT_COM": "05401", "REGION": "Valpara\u00edso", "PROVINCIA": "Petorca", "COMUNA": "La Ligua", "variable": "Sitios de Inter\u00e9s Tur\u00edstico", "Nombres": "LUGAR DE OBSERVACI\u00d3N DE FLORA Y FAUNA - PUNTA PICHICUY", "POINT_X": -71.4697360298, "POINT_Y": -32.3454096507}}, {"type": "Feature", "geometry": {"type": "Point", "coordinates": [-71.46095206989997, -32.344273849299995]}, "properties": {"CUT_REG": "05", "CUT_PROV": "054", "CUT_COM": "05401", "REGION": "Valpara\u00edso", "PROVINCIA": "Petorca", "COMUNA": "La Ligua", "variable": "Sitios de Inter\u00e9s Tur\u00edstico", "Nombres": "BAH\u00cdA O CALETA - CALETA PICHICUY", "POINT_X": -71.4609520699, "POINT_Y": -32.3442738493}}, {"type": "Feature", "geometry": {"type": "Point", "coordinates": [-71.452100623, -32.34377899999997]}, "properties": {"CUT_REG": "05", "CUT_PROV": "054", "CUT_COM": "05401", "REGION": "Valpara\u00edso", "PROVINCIA": "Petorca", "COMUNA": "La Ligua", "variable": "Sitios de Inter\u00e9s Tur\u00edstico", "Nombres": "PLAYA O BALNEARIO - PLAYA PICHICUY", "POINT_X": -71.452100623, "POINT_Y": -32.343779}}, {"type": "Feature", "geometry": {"type": "Point", "coordinates": [-71.01392969819997, -32.2814259988]}, "properties": {"CUT_REG": "05", "CUT_PROV": "054", "CUT_COM": "05404", "REGION": "Valpara\u00edso", "PROVINCIA": "Petorca", "COMUNA": "Petorca", "variable": "Sitios de Inter\u00e9s Tur\u00edstico", "Nombres": "PUEBLO O ALDEA TRADICIONAL - HIERRO VIEJO", "POINT_X": -71.0139296982, "POINT_Y": -32.2814259988}}, {"type": "Feature", "geometry": {"type": "Point", "coordinates": [-70.49897968790003, -32.25911338180002]}, "properties": {"CUT_REG": "05", "CUT_PROV": "054", "CUT_COM": "05402", "REGION": "Valpara\u00edso", "PROVINCIA": "Petorca", "COMUNA": "Cabildo", "variable": "Sitios de Inter\u00e9s Tur\u00edstico", "Nombres": "OBRA DE INGENIER\u00cdA - EMBALSE LAGUNA EL CHEPICAL", "POINT_X": -70.4989796879, "POINT_Y": -32.2591133818}}, {"type": "Feature", "geometry": {"type": "Point", "coordinates": [-71.07240447149996, -32.258384842799956]}, "properties": {"CUT_REG": "05", "CUT_PROV": "054", "CUT_COM": "05404", "REGION": "Valpara\u00edso", "PROVINCIA": "Petorca", "COMUNA": "Petorca", "variable": "Sitios de Inter\u00e9s Tur\u00edstico", "Nombres": "PUEBLO O ALDEA TRADICIONAL - PERALILLO", "POINT_X": -71.0724044715, "POINT_Y": -32.2583848428}}, {"type": "Feature", "geometry": {"type": "Point", "coordinates": [-70.92696507290003, -32.2527133987]}, "properties": {"CUT_REG": "05", "CUT_PROV": "054", "CUT_COM": "05404", "REGION": "Valpara\u00edso", "PROVINCIA": "Petorca", "COMUNA": "Petorca", "variable": "Sitios de Inter\u00e9s Tur\u00edstico", "Nombres": "HACIENDAS Y ESTANCIAS - HACIENDA EL SOBRANTE", "POINT_X": -70.9269650729, "POINT_Y": -32.2527133987}}, {"type": "Feature", "geometry": {"type": "Point", "coordinates": [-70.93363199719994, -32.252286809799976]}, "properties": {"CUT_REG": "05", "CUT_PROV": "054", "CUT_COM": "05404", "REGION": "Valpara\u00edso", "PROVINCIA": "Petorca", "COMUNA": "Petorca", "variable": "Sitios de Inter\u00e9s Tur\u00edstico", "Nombres": "LUGAR O SITIO HIST\u00d3RICO - CASA DONDE NACI\u00d3 EL PRESIDENTE MANUEL MONTT (MH)", "POINT_X": -70.9336319972, "POINT_Y": -32.2522868098}}, {"type": "Feature", "geometry": {"type": "Point", "coordinates": [-70.93114254430003, -32.252009225900025]}, "properties": {"CUT_REG": "05", "CUT_PROV": "054", "CUT_COM": "05404", "REGION": "Valpara\u00edso", "PROVINCIA": "Petorca", "COMUNA": "Petorca", "variable": "Sitios de Inter\u00e9s Tur\u00edstico", "Nombres": "PIEDRA O CANTERA - CANTER\u00cdA Y ARTESAN\u00cdA EN PIEDRA", "POINT_X": -70.9311425443, "POINT_Y": -32.2520092259}}, {"type": "Feature", "geometry": {"type": "Point", "coordinates": [-70.93056330090003, -32.25172044639998]}, "properties": {"CUT_REG": "05", "CUT_PROV": "054", "CUT_COM": "05404", "REGION": "Valpara\u00edso", "PROVINCIA": "Petorca", "COMUNA": "Petorca", "variable": "Sitios de Inter\u00e9s Tur\u00edstico", "Nombres": "FIESTA RELIGIOSA - FIESTA VIRGEN DE LA MERCED DE PETORCA", "POINT_X": -70.9305633009, "POINT_Y": -32.2517204464}}, {"type": "Feature", "geometry": {"type": "Point", "coordinates": [-70.93098598490002, -32.251632811999976]}, "properties": {"CUT_REG": "05", "CUT_PROV": "054", "CUT_COM": "05404", "REGION": "Valpara\u00edso", "PROVINCIA": "Petorca", "COMUNA": "Petorca", "variable": "Sitios de Inter\u00e9s Tur\u00edstico", "Nombres": "CIUDAD - PETORCA", "POINT_X": -70.9309859849, "POINT_Y": -32.251632812}}, {"type": "Feature", "geometry": {"type": "Point", "coordinates": [-70.9313959589, -32.25144615860004]}, "properties": {"CUT_REG": "05", "CUT_PROV": "054", "CUT_COM": "05404", "REGION": "Valpara\u00edso", "PROVINCIA": "Petorca", "COMUNA": "Petorca", "variable": "Sitios de Inter\u00e9s Tur\u00edstico", "Nombres": "FIESTA RELIGIOSA - QUEMA DE JUDAS DE PETORCA", "POINT_X": -70.9313959589, "POINT_Y": -32.2514461586}}, {"type": "Feature", "geometry": {"type": "Point", "coordinates": [-71.51302608809996, -32.23627025829997]}, "properties": {"CUT_REG": "05", "CUT_PROV": "054", "CUT_COM": "05401", "REGION": "Valpara\u00edso", "PROVINCIA": "Petorca", "COMUNA": "La Ligua", "variable": "Sitios de Inter\u00e9s Tur\u00edstico", "Nombres": "PLAYA O BALNEARIO - BALNEARIO LOS MOLLES", "POINT_X": -71.5130260881, "POINT_Y": -32.2362702583}}, {"type": "Feature", "geometry": {"type": "Point", "coordinates": [-71.50747568469997, -32.23004111219997]}, "properties": {"CUT_REG": "05", "CUT_PROV": "054", "CUT_COM": "05401", "REGION": "Valpara\u00edso", "PROVINCIA": "Petorca", "COMUNA": "La Ligua", "variable": "Sitios de Inter\u00e9s Tur\u00edstico", "Nombres": "FERIA O EXPOSICI\u00d3N - FIESTA DE LOS PECES", "POINT_X": -71.5074756847, "POINT_Y": -32.2300411122}}, {"type": "Feature", "geometry": {"type": "Point", "coordinates": [-70.84332273480003, -32.22404436269998]}, "properties": {"CUT_REG": "05", "CUT_PROV": "054", "CUT_COM": "05404", "REGION": "Valpara\u00edso", "PROVINCIA": "Petorca", "COMUNA": "Petorca", "variable": "Sitios de Inter\u00e9s Tur\u00edstico", "Nombres": "PUEBLO O ALDEA TRADICIONAL - CHINCOLCO", "POINT_X": -70.8433227348, "POINT_Y": -32.2240443627}}, {"type": "Feature", "geometry": {"type": "Point", "coordinates": [-70.87809525460003, -32.15728916660002]}, "properties": {"CUT_REG": "05", "CUT_PROV": "054", "CUT_COM": "05404", "REGION": "Valpara\u00edso", "PROVINCIA": "Petorca", "COMUNA": "Petorca", "variable": "Sitios de Inter\u00e9s Tur\u00edstico", "Nombres": "CERRO - CERRO ALTOS DE CAREN", "POINT_X": -70.8780952546, "POINT_Y": -32.1572891666}}, {"type": "Feature", "geometry": {"type": "Point", "coordinates": [-70.79688163639996, -32.09772568969996]}, "properties": {"CUT_REG": "05", "CUT_PROV": "054", "CUT_COM": "05404", "REGION": "Valpara\u00edso", "PROVINCIA": "Petorca", "COMUNA": "Petorca", "variable": "Sitios de Inter\u00e9s Tur\u00edstico", "Nombres": "CARNAVAL O FIESTA COSTUMBRISTA - VERANADA", "POINT_X": -70.7968816364, "POINT_Y": -32.0977256897}}]}