{"type": "FeatureCollection", "features": [{"type": "Feature", "geometry": {"type": "Point", "coordinates": [-70.50059496500003, -36.056680270899996]}, "properties": {"CUT_REG": "07", "CUT_PROV": "071", "CUT_COM": "07109", "REGION": "Maule", "PROVINCIA": "Talca", "COMUNA": "San Clemente", "variable": "Sitios de Inter\u00e9s Tur\u00edstico", "Nombres": "LAGO Y LAGUNA - LAGUNA DEL MAULE", "POINT_X": -70.500594965, "POINT_Y": -36.0566802709}}, {"type": "Feature", "geometry": {"type": "Point", "coordinates": [-70.556447412, -35.9888702599]}, "properties": {"CUT_REG": "07", "CUT_PROV": "071", "CUT_COM": "07109", "REGION": "Maule", "PROVINCIA": "Talca", "COMUNA": "San Clemente", "variable": "Sitios de Inter\u00e9s Tur\u00edstico", "Nombres": "LUGAR DE INTER\u00c9S PALEONTOL\u00d3GICO - LOS MONJES BLANCOS", "POINT_X": -70.556447412, "POINT_Y": -35.9888702599}}, {"type": "Feature", "geometry": {"type": "Point", "coordinates": [-70.39448863699994, -35.98475928290002]}, "properties": {"CUT_REG": "07", "CUT_PROV": "071", "CUT_COM": "07109", "REGION": "Maule", "PROVINCIA": "Talca", "COMUNA": "San Clemente", "variable": "Sitios de Inter\u00e9s Tur\u00edstico", "Nombres": "OBRA DE INGENIER\u00cdA - PASO PEHUENCHE", "POINT_X": -70.394488637, "POINT_Y": -35.9847592829}}, {"type": "Feature", "geometry": {"type": "Point", "coordinates": [-70.39270489699997, -35.984248112900005]}, "properties": {"CUT_REG": "07", "CUT_PROV": "071", "CUT_COM": "07109", "REGION": "Maule", "PROVINCIA": "Talca", "COMUNA": "San Clemente", "variable": "Sitios de Inter\u00e9s Tur\u00edstico", "Nombres": "CARNAVAL O FIESTA COSTUMBRISTA - ENCUENTRO CHILENO ARGENTINO PASO PEHUENCHE", "POINT_X": -70.392704897, "POINT_Y": -35.9842481129}}, {"type": "Feature", "geometry": {"type": "Point", "coordinates": [-70.56962677399996, -35.957578987899986]}, "properties": {"CUT_REG": "07", "CUT_PROV": "071", "CUT_COM": "07109", "REGION": "Maule", "PROVINCIA": "Talca", "COMUNA": "San Clemente", "variable": "Sitios de Inter\u00e9s Tur\u00edstico", "Nombres": "CA\u00cdDA DE AGUA - EL GRAN SALTO DEL MAULE", "POINT_X": -70.569626774, "POINT_Y": -35.9575789879}}, {"type": "Feature", "geometry": {"type": "Point", "coordinates": [-70.57378993960003, -35.95467344139996]}, "properties": {"CUT_REG": "07", "CUT_PROV": "071", "CUT_COM": "07109", "REGION": "Maule", "PROVINCIA": "Talca", "COMUNA": "San Clemente", "variable": "Sitios de Inter\u00e9s Tur\u00edstico", "Nombres": "CA\u00cdDA DE AGUA - CASCADA INVERTIDA", "POINT_X": -70.5737899396, "POINT_Y": -35.9546734414}}, {"type": "Feature", "geometry": {"type": "Point", "coordinates": [-70.61182065300002, -35.93647462889996]}, "properties": {"CUT_REG": "07", "CUT_PROV": "071", "CUT_COM": "07109", "REGION": "Maule", "PROVINCIA": "Talca", "COMUNA": "San Clemente", "variable": "Sitios de Inter\u00e9s Tur\u00edstico", "Nombres": "RUTA TUR\u00cdSTICA - RUTA CUESTA LOS C\u00d3NDORES", "POINT_X": -70.611820653, "POINT_Y": -35.9364746289}}, {"type": "Feature", "geometry": {"type": "Point", "coordinates": [-70.58561501599998, -35.93423642489996]}, "properties": {"CUT_REG": "07", "CUT_PROV": "071", "CUT_COM": "07109", "REGION": "Maule", "PROVINCIA": "Talca", "COMUNA": "San Clemente", "variable": "Sitios de Inter\u00e9s Tur\u00edstico", "Nombres": "FUENTE Y CENTRO TERMAL - BA\u00d1OS EL CAMPANARIO", "POINT_X": -70.585615016, "POINT_Y": -35.9342364249}}, {"type": "Feature", "geometry": {"type": "Point", "coordinates": [-70.597961151, -35.93356784189997]}, "properties": {"CUT_REG": "07", "CUT_PROV": "071", "CUT_COM": "07109", "REGION": "Maule", "PROVINCIA": "Talca", "COMUNA": "San Clemente", "variable": "Sitios de Inter\u00e9s Tur\u00edstico", "Nombres": "VALLE Y QUEBRADA - VALLE DEL CAMPANARIO", "POINT_X": -70.597961151, "POINT_Y": -35.9335678419}}, {"type": "Feature", "geometry": {"type": "Point", "coordinates": [-70.76175686399998, -35.82198897989998]}, "properties": {"CUT_REG": "07", "CUT_PROV": "071", "CUT_COM": "07109", "REGION": "Maule", "PROVINCIA": "Talca", "COMUNA": "San Clemente", "variable": "Sitios de Inter\u00e9s Tur\u00edstico", "Nombres": "FUENTE Y CENTRO TERMAL - BA\u00d1OS EL MEDANO", "POINT_X": -70.761756864, "POINT_Y": -35.8219889799}}, {"type": "Feature", "geometry": {"type": "Point", "coordinates": [-70.83735661899996, -35.80901142090001]}, "properties": {"CUT_REG": "07", "CUT_PROV": "071", "CUT_COM": "07109", "REGION": "Maule", "PROVINCIA": "Talca", "COMUNA": "San Clemente", "variable": "Sitios de Inter\u00e9s Tur\u00edstico", "Nombres": "VALLE Y QUEBRADA - CAJ\u00d3N R\u00cdO CIPRESES", "POINT_X": -70.837356619, "POINT_Y": -35.8090114209}}, {"type": "Feature", "geometry": {"type": "Point", "coordinates": [-70.80976670499996, -35.72896346889996]}, "properties": {"CUT_REG": "07", "CUT_PROV": "071", "CUT_COM": "07109", "REGION": "Maule", "PROVINCIA": "Talca", "COMUNA": "San Clemente", "variable": "Sitios de Inter\u00e9s Tur\u00edstico", "Nombres": "VOLC\u00c1N - VOLCANES LOS HORNILLOS", "POINT_X": -70.809766705, "POINT_Y": -35.7289634689}}, {"type": "Feature", "geometry": {"type": "Point", "coordinates": [-71.17967973699999, -35.720287114899996]}, "properties": {"CUT_REG": "07", "CUT_PROV": "071", "CUT_COM": "07109", "REGION": "Maule", "PROVINCIA": "Talca", "COMUNA": "San Clemente", "variable": "Sitios de Inter\u00e9s Tur\u00edstico", "Nombres": "VALLE Y QUEBRADA - PASO NEVADO", "POINT_X": -71.179679737, "POINT_Y": -35.7202871149}}, {"type": "Feature", "geometry": {"type": "Point", "coordinates": [-70.76116427499998, -35.71086155190003]}, "properties": {"CUT_REG": "07", "CUT_PROV": "071", "CUT_COM": "07109", "REGION": "Maule", "PROVINCIA": "Talca", "COMUNA": "San Clemente", "variable": "Sitios de Inter\u00e9s Tur\u00edstico", "Nombres": "LAGO Y LAGUNA - LAGUNA LA INVERNADA", "POINT_X": -70.761164275, "POINT_Y": -35.7108615519}}, {"type": "Feature", "geometry": {"type": "Point", "coordinates": [-71.06848121400002, -35.7050871339]}, "properties": {"CUT_REG": "07", "CUT_PROV": "071", "CUT_COM": "07109", "REGION": "Maule", "PROVINCIA": "Talca", "COMUNA": "San Clemente", "variable": "Sitios de Inter\u00e9s Tur\u00edstico", "Nombres": "OTROS CIRCUITOS TUR\u00cdSTICOS - TRAMO SENDERO DE CHILE LA CAMPANA", "POINT_X": -71.068481214, "POINT_Y": -35.7050871339}}, {"type": "Feature", "geometry": {"type": "Point", "coordinates": [-71.08053838600003, -35.70378848290002]}, "properties": {"CUT_REG": "07", "CUT_PROV": "071", "CUT_COM": "07109", "REGION": "Maule", "PROVINCIA": "Talca", "COMUNA": "San Clemente", "variable": "Sitios de Inter\u00e9s Tur\u00edstico", "Nombres": "PUEBLO O ALDEA TRADICIONAL - ARMERILLO", "POINT_X": -71.080538386, "POINT_Y": -35.7037884829}}, {"type": "Feature", "geometry": {"type": "Point", "coordinates": [-70.761104379, -35.65334641289998]}, "properties": {"CUT_REG": "07", "CUT_PROV": "071", "CUT_COM": "07109", "REGION": "Maule", "PROVINCIA": "Talca", "COMUNA": "San Clemente", "variable": "Sitios de Inter\u00e9s Tur\u00edstico", "Nombres": "VOLC\u00c1N - CERRO AZUL", "POINT_X": -70.761104379, "POINT_Y": -35.6533464129}}, {"type": "Feature", "geometry": {"type": "Point", "coordinates": [-71.25847289999996, -35.64707172090004]}, "properties": {"CUT_REG": "07", "CUT_PROV": "071", "CUT_COM": "07109", "REGION": "Maule", "PROVINCIA": "Talca", "COMUNA": "San Clemente", "variable": "Sitios de Inter\u00e9s Tur\u00edstico", "Nombres": "LAGO Y LAGUNA - RIBERA NORTE DEL LAGO COLB\u00daN", "POINT_X": -71.2584729, "POINT_Y": -35.6470717209}}, {"type": "Feature", "geometry": {"type": "Point", "coordinates": [-70.829917022, -35.64168112189997]}, "properties": {"CUT_REG": "07", "CUT_PROV": "071", "CUT_COM": "07109", "REGION": "Maule", "PROVINCIA": "Talca", "COMUNA": "San Clemente", "variable": "Sitios de Inter\u00e9s Tur\u00edstico", "Nombres": "LAGO Y LAGUNA - LAGUNA EL BLANQUILLO", "POINT_X": -70.829917022, "POINT_Y": -35.6416811219}}, {"type": "Feature", "geometry": {"type": "Point", "coordinates": [-70.75856757499997, -35.637390698899985]}, "properties": {"CUT_REG": "07", "CUT_PROV": "071", "CUT_COM": "07109", "REGION": "Maule", "PROVINCIA": "Talca", "COMUNA": "San Clemente", "variable": "Sitios de Inter\u00e9s Tur\u00edstico", "Nombres": "VOLC\u00c1N - VOLC\u00c1N QUIZAPU", "POINT_X": -70.758567575, "POINT_Y": -35.6373906989}}, {"type": "Feature", "geometry": {"type": "Point", "coordinates": [-71.01969408500003, -35.61902387589998]}, "properties": {"CUT_REG": "07", "CUT_PROV": "071", "CUT_COM": "07109", "REGION": "Maule", "PROVINCIA": "Talca", "COMUNA": "San Clemente", "variable": "Sitios de Inter\u00e9s Tur\u00edstico", "Nombres": "LAGO Y LAGUNA - LAGUNA DEL ALTO", "POINT_X": -71.019694085, "POINT_Y": -35.6190238759}}, {"type": "Feature", "geometry": {"type": "Point", "coordinates": [-72.21767052899997, -35.61601482189997]}, "properties": {"CUT_REG": "07", "CUT_PROV": "071", "CUT_COM": "07104", "REGION": "Maule", "PROVINCIA": "Talca", "COMUNA": "Empedrado", "variable": "Sitios de Inter\u00e9s Tur\u00edstico", "Nombres": "TEXTILER\u00cdA - TEJIDOS DE QUENEHUAO", "POINT_X": -72.217670529, "POINT_Y": -35.6160148219}}, {"type": "Feature", "geometry": {"type": "Point", "coordinates": [-71.02584837199996, -35.61294424790001]}, "properties": {"CUT_REG": "07", "CUT_PROV": "071", "CUT_COM": "07109", "REGION": "Maule", "PROVINCIA": "Talca", "COMUNA": "San Clemente", "variable": "Sitios de Inter\u00e9s Tur\u00edstico", "Nombres": "CERRO - CERRO PEINE", "POINT_X": -71.025848372, "POINT_Y": -35.6129442479}}, {"type": "Feature", "geometry": {"type": "Point", "coordinates": [-70.90706544699995, -35.6099609499]}, "properties": {"CUT_REG": "07", "CUT_PROV": "071", "CUT_COM": "07109", "REGION": "Maule", "PROVINCIA": "Talca", "COMUNA": "San Clemente", "variable": "Sitios de Inter\u00e9s Tur\u00edstico", "Nombres": "VALLE Y QUEBRADA - VALLE DEL VENADO", "POINT_X": -70.907065447, "POINT_Y": -35.6099609499}}, {"type": "Feature", "geometry": {"type": "Point", "coordinates": [-71.07239752799995, -35.60480490689998]}, "properties": {"CUT_REG": "07", "CUT_PROV": "071", "CUT_COM": "07109", "REGION": "Maule", "PROVINCIA": "Talca", "COMUNA": "San Clemente", "variable": "Sitios de Inter\u00e9s Tur\u00edstico", "Nombres": "OTROS \u00c1REA PROTEGIDA - PARQUE GIL DE VILCHES Y PIEDRAS TACITAS", "POINT_X": -71.072397528, "POINT_Y": -35.6048049069}}, {"type": "Feature", "geometry": {"type": "Point", "coordinates": [-70.97387621899998, -35.601934231900046]}, "properties": {"CUT_REG": "07", "CUT_PROV": "071", "CUT_COM": "07109", "REGION": "Maule", "PROVINCIA": "Talca", "COMUNA": "San Clemente", "variable": "Sitios de Inter\u00e9s Tur\u00edstico", "Nombres": "LUGAR DE INTER\u00c9S GEOL\u00d3GICO - EL ENLADRILLADO", "POINT_X": -70.973876219, "POINT_Y": -35.6019342319}}, {"type": "Feature", "geometry": {"type": "Point", "coordinates": [-71.04409502699997, -35.60001493989996]}, "properties": {"CUT_REG": "07", "CUT_PROV": "071", "CUT_COM": "07109", "REGION": "Maule", "PROVINCIA": "Talca", "COMUNA": "San Clemente", "variable": "Sitios de Inter\u00e9s Tur\u00edstico", "Nombres": "OTROS CIRCUITOS TUR\u00cdSTICOS - TRAMO SENDERO DE CHILE ALTOS DE LIRCAY", "POINT_X": -71.044095027, "POINT_Y": -35.6000149399}}, {"type": "Feature", "geometry": {"type": "Point", "coordinates": [-70.949727201, -35.5983880249]}, "properties": {"CUT_REG": "07", "CUT_PROV": "071", "CUT_COM": "07109", "REGION": "Maule", "PROVINCIA": "Talca", "COMUNA": "San Clemente", "variable": "Sitios de Inter\u00e9s Tur\u00edstico", "Nombres": "\u00c1REA SILVESTRE PROTEGIDA DEL ESTADO (ASPE) - RESERVA NACIONAL ALTOS DE LIRCAY", "POINT_X": -70.949727201, "POINT_Y": -35.5983880249}}, {"type": "Feature", "geometry": {"type": "Point", "coordinates": [-71.056575234, -35.592122023899975]}, "properties": {"CUT_REG": "07", "CUT_PROV": "071", "CUT_COM": "07109", "REGION": "Maule", "PROVINCIA": "Talca", "COMUNA": "San Clemente", "variable": "Sitios de Inter\u00e9s Tur\u00edstico", "Nombres": "LUGAR DE OBSERVACI\u00d3N DE FLORA Y FAUNA - PREDIO EL MORRILLO (SN)", "POINT_X": -71.056575234, "POINT_Y": -35.5921220239}}, {"type": "Feature", "geometry": {"type": "Point", "coordinates": [-71.06180159999997, -35.59160146389998]}, "properties": {"CUT_REG": "07", "CUT_PROV": "071", "CUT_COM": "07109", "REGION": "Maule", "PROVINCIA": "Talca", "COMUNA": "San Clemente", "variable": "Sitios de Inter\u00e9s Tur\u00edstico", "Nombres": "LUGAR DE INTER\u00c9S GEOL\u00d3GICO - ACANTILADO CABEZA DEL INDIO DE EL MORRILLO", "POINT_X": -71.0618016, "POINT_Y": -35.5916014639}}, {"type": "Feature", "geometry": {"type": "Point", "coordinates": [-72.27635883100002, -35.5913344339]}, "properties": {"CUT_REG": "07", "CUT_PROV": "071", "CUT_COM": "07104", "REGION": "Maule", "PROVINCIA": "Talca", "COMUNA": "Empedrado", "variable": "Sitios de Inter\u00e9s Tur\u00edstico", "Nombres": "MUSEO - MUSEO ARELLANO DE EMPEDRADO", "POINT_X": -72.276358831, "POINT_Y": -35.5913344339}}, {"type": "Feature", "geometry": {"type": "Point", "coordinates": [-72.27769673299997, -35.5911358049]}, "properties": {"CUT_REG": "07", "CUT_PROV": "071", "CUT_COM": "07104", "REGION": "Maule", "PROVINCIA": "Talca", "COMUNA": "Empedrado", "variable": "Sitios de Inter\u00e9s Tur\u00edstico", "Nombres": "M\u00daSICA O CANTO - FESTIVAL DEL ORO VERDE DE EMPEDRADO", "POINT_X": -72.277696733, "POINT_Y": -35.5911358049}}, {"type": "Feature", "geometry": {"type": "Point", "coordinates": [-72.27765008000002, -35.59080363989996]}, "properties": {"CUT_REG": "07", "CUT_PROV": "071", "CUT_COM": "07104", "REGION": "Maule", "PROVINCIA": "Talca", "COMUNA": "Empedrado", "variable": "Sitios de Inter\u00e9s Tur\u00edstico", "Nombres": "PUEBLO O ALDEA TRADICIONAL - EMPEDRADO", "POINT_X": -72.27765008, "POINT_Y": -35.5908036399}}, {"type": "Feature", "geometry": {"type": "Point", "coordinates": [-72.27762193199999, -35.59077657890003]}, "properties": {"CUT_REG": "07", "CUT_PROV": "071", "CUT_COM": "07104", "REGION": "Maule", "PROVINCIA": "Talca", "COMUNA": "Empedrado", "variable": "Sitios de Inter\u00e9s Tur\u00edstico", "Nombres": "CARNAVAL O FIESTA COSTUMBRISTA - CABALGATA DE EMPEDRADO", "POINT_X": -72.277621932, "POINT_Y": -35.5907765789}}, {"type": "Feature", "geometry": {"type": "Point", "coordinates": [-70.75184273, -35.58679647789996]}, "properties": {"CUT_REG": "07", "CUT_PROV": "071", "CUT_COM": "07109", "REGION": "Maule", "PROVINCIA": "Talca", "COMUNA": "San Clemente", "variable": "Sitios de Inter\u00e9s Tur\u00edstico", "Nombres": "VOLC\u00c1N - VOLC\u00c1N DESCABEZADO GRANDE", "POINT_X": -70.75184273, "POINT_Y": -35.5867964779}}, {"type": "Feature", "geometry": {"type": "Point", "coordinates": [-71.11597061500001, -35.58321470589999]}, "properties": {"CUT_REG": "07", "CUT_PROV": "071", "CUT_COM": "07109", "REGION": "Maule", "PROVINCIA": "Talca", "COMUNA": "San Clemente", "variable": "Sitios de Inter\u00e9s Tur\u00edstico", "Nombres": "VALLE Y QUEBRADA - VILCHES ALTOS", "POINT_X": -71.115970615, "POINT_Y": -35.5832147059}}, {"type": "Feature", "geometry": {"type": "Point", "coordinates": [-71.038192493, -35.56907338990002]}, "properties": {"CUT_REG": "07", "CUT_PROV": "071", "CUT_COM": "07109", "REGION": "Maule", "PROVINCIA": "Talca", "COMUNA": "San Clemente", "variable": "Sitios de Inter\u00e9s Tur\u00edstico", "Nombres": "CERRO - CERRO TRES CUERNOS", "POINT_X": -71.038192493, "POINT_Y": -35.5690733899}}, {"type": "Feature", "geometry": {"type": "Point", "coordinates": [-72.61795431499996, -35.56082832290003]}, "properties": {"CUT_REG": "07", "CUT_PROV": "071", "CUT_COM": "07102", "REGION": "Maule", "PROVINCIA": "Talca", "COMUNA": "Constituci\u00f3n", "variable": "Sitios de Inter\u00e9s Tur\u00edstico", "Nombres": "OBRA DE INGENIER\u00cdA - FARO CARRANZA", "POINT_X": -72.617954315, "POINT_Y": -35.5608283229}}, {"type": "Feature", "geometry": {"type": "Point", "coordinates": [-71.21820941300001, -35.560786860899974]}, "properties": {"CUT_REG": "07", "CUT_PROV": "071", "CUT_COM": "07109", "REGION": "Maule", "PROVINCIA": "Talca", "COMUNA": "San Clemente", "variable": "Sitios de Inter\u00e9s Tur\u00edstico", "Nombres": "PUEBLO O ALDEA TRADICIONAL - VILCHES BAJOS", "POINT_X": -71.218209413, "POINT_Y": -35.5607868609}}, {"type": "Feature", "geometry": {"type": "Point", "coordinates": [-71.217279734, -35.56067776890001]}, "properties": {"CUT_REG": "07", "CUT_PROV": "071", "CUT_COM": "07109", "REGION": "Maule", "PROVINCIA": "Talca", "COMUNA": "San Clemente", "variable": "Sitios de Inter\u00e9s Tur\u00edstico", "Nombres": "FIESTA RELIGIOSA - D\u00cdA DE TODOS LOS SANTOS EN VILCHES", "POINT_X": -71.217279734, "POINT_Y": -35.5606777689}}, {"type": "Feature", "geometry": {"type": "Point", "coordinates": [-71.25569058499997, -35.55628705889998]}, "properties": {"CUT_REG": "07", "CUT_PROV": "071", "CUT_COM": "07109", "REGION": "Maule", "PROVINCIA": "Talca", "COMUNA": "San Clemente", "variable": "Sitios de Inter\u00e9s Tur\u00edstico", "Nombres": "R\u00cdO Y ESTERO - R\u00cdO COREL", "POINT_X": -71.255690585, "POINT_Y": -35.5562870589}}, {"type": "Feature", "geometry": {"type": "Point", "coordinates": [-70.72255537999999, -35.543828133900035]}, "properties": {"CUT_REG": "07", "CUT_PROV": "071", "CUT_COM": "07109", "REGION": "Maule", "PROVINCIA": "Talca", "COMUNA": "San Clemente", "variable": "Sitios de Inter\u00e9s Tur\u00edstico", "Nombres": "CERRO - CERRO MANANTIAL PELADO", "POINT_X": -70.72255538, "POINT_Y": -35.5438281339}}, {"type": "Feature", "geometry": {"type": "Point", "coordinates": [-71.48596252699998, -35.53747885089996]}, "properties": {"CUT_REG": "07", "CUT_PROV": "071", "CUT_COM": "07109", "REGION": "Maule", "PROVINCIA": "Talca", "COMUNA": "San Clemente", "variable": "Sitios de Inter\u00e9s Tur\u00edstico", "Nombres": "CARNAVAL O FIESTA COSTUMBRISTA - 18 CHICO EN SAN CLEMENTE", "POINT_X": -71.485962527, "POINT_Y": -35.5374788509}}, {"type": "Feature", "geometry": {"type": "Point", "coordinates": [-70.67094221700003, -35.529491198899954]}, "properties": {"CUT_REG": "07", "CUT_PROV": "071", "CUT_COM": "07109", "REGION": "Maule", "PROVINCIA": "Talca", "COMUNA": "San Clemente", "variable": "Sitios de Inter\u00e9s Tur\u00edstico", "Nombres": "VOLC\u00c1N - VOLC\u00c1N COLORADO", "POINT_X": -70.670942217, "POINT_Y": -35.5294911989}}, {"type": "Feature", "geometry": {"type": "Point", "coordinates": [-71.03552700899999, -35.52888883290003]}, "properties": {"CUT_REG": "07", "CUT_PROV": "071", "CUT_COM": "07109", "REGION": "Maule", "PROVINCIA": "Talca", "COMUNA": "San Clemente", "variable": "Sitios de Inter\u00e9s Tur\u00edstico", "Nombres": "CERRO - CERRO EL PICAZO", "POINT_X": -71.035527009, "POINT_Y": -35.5288888329}}, {"type": "Feature", "geometry": {"type": "Point", "coordinates": [-72.52485324400001, -35.50807256490004]}, "properties": {"CUT_REG": "07", "CUT_PROV": "071", "CUT_COM": "07102", "REGION": "Maule", "PROVINCIA": "Talca", "COMUNA": "Constituci\u00f3n", "variable": "Sitios de Inter\u00e9s Tur\u00edstico", "Nombres": "PLAYA O BALNEARIO - SECTOR COSTERO \u00c1REAS VERDES-COSTA BLANCA", "POINT_X": -72.524853244, "POINT_Y": -35.5080725649}}, {"type": "Feature", "geometry": {"type": "Point", "coordinates": [-71.53887750000001, -35.4908839]}, "properties": {"CUT_REG": "07", "CUT_PROV": "071", "CUT_COM": "07109", "REGION": "Maule", "PROVINCIA": "Talca", "COMUNA": "San Clemente", "variable": "Sitios de Inter\u00e9s Tur\u00edstico", "Nombres": "VI\u00d1AS Y BODEGAS - VI\u00d1A CORRAL VICTORIA", "POINT_X": -71.5388775, "POINT_Y": -35.4908839}}, {"type": "Feature", "geometry": {"type": "Point", "coordinates": [-71.70194357800001, -35.48205789089999]}, "properties": {"CUT_REG": "07", "CUT_PROV": "071", "CUT_COM": "07105", "REGION": "Maule", "PROVINCIA": "Talca", "COMUNA": "Maule", "variable": "Sitios de Inter\u00e9s Tur\u00edstico", "Nombres": "ALFARER\u00cdA - ARTESAN\u00cdA DE UNIHUE", "POINT_X": -71.701943578, "POINT_Y": -35.4820578909}}, {"type": "Feature", "geometry": {"type": "Point", "coordinates": [-71.74686301, -35.47665357390003]}, "properties": {"CUT_REG": "07", "CUT_PROV": "071", "CUT_COM": "07105", "REGION": "Maule", "PROVINCIA": "Talca", "COMUNA": "Maule", "variable": "Sitios de Inter\u00e9s Tur\u00edstico", "Nombres": "PUEBLO O ALDEA TRADICIONAL - ESTACI\u00d3N COLIN", "POINT_X": -71.74686301, "POINT_Y": -35.4766535739}}, {"type": "Feature", "geometry": {"type": "Point", "coordinates": [-71.66146924900002, -35.474079629899954]}, "properties": {"CUT_REG": "07", "CUT_PROV": "071", "CUT_COM": "07105", "REGION": "Maule", "PROVINCIA": "Talca", "COMUNA": "Maule", "variable": "Sitios de Inter\u00e9s Tur\u00edstico", "Nombres": "OBRA DE INGENIER\u00cdA - RAMAL FERROVIARIO TALCA CONSTITUCI\u00d3N (MH)", "POINT_X": -71.661469249, "POINT_Y": -35.4740796299}}, {"type": "Feature", "geometry": {"type": "Point", "coordinates": [-71.78530582900001, -35.4657490969]}, "properties": {"CUT_REG": "07", "CUT_PROV": "071", "CUT_COM": "07105", "REGION": "Maule", "PROVINCIA": "Talca", "COMUNA": "Maule", "variable": "Sitios de Inter\u00e9s Tur\u00edstico", "Nombres": "LAGO Y LAGUNA - LAGUNA QUERQUEL", "POINT_X": -71.785305829, "POINT_Y": -35.4657490969}}, {"type": "Feature", "geometry": {"type": "Point", "coordinates": [-71.61898425600003, -35.46398908099996]}, "properties": {"CUT_REG": "07", "CUT_PROV": "071", "CUT_COM": "07101", "REGION": "Maule", "PROVINCIA": "Talca", "COMUNA": "Talca", "variable": "Sitios de Inter\u00e9s Tur\u00edstico", "Nombres": "VI\u00d1AS Y BODEGAS - VI\u00d1A CASA DONOSO", "POINT_X": -71.618984256, "POINT_Y": -35.463989081}}, {"type": "Feature", "geometry": {"type": "Point", "coordinates": [-71.89394899100003, -35.46309200589997]}, "properties": {"CUT_REG": "07", "CUT_PROV": "071", "CUT_COM": "07107", "REGION": "Maule", "PROVINCIA": "Talca", "COMUNA": "Pencahue", "variable": "Sitios de Inter\u00e9s Tur\u00edstico", "Nombres": "RUTA TUR\u00cdSTICA - RUTA CORINTO-CURTIDUR\u00cdA", "POINT_X": -71.893948991, "POINT_Y": -35.4630920059}}, {"type": "Feature", "geometry": {"type": "Point", "coordinates": [-71.57705644799995, -35.46208578090003]}, "properties": {"CUT_REG": "07", "CUT_PROV": "071", "CUT_COM": "07101", "REGION": "Maule", "PROVINCIA": "Talca", "COMUNA": "Talca", "variable": "Sitios de Inter\u00e9s Tur\u00edstico", "Nombres": "MUSEO - CASA PATRONAL DE HUILQUILEMU (MH)", "POINT_X": -71.577056448, "POINT_Y": -35.4620857809}}, {"type": "Feature", "geometry": {"type": "Point", "coordinates": [-71.930519976, -35.4617763079]}, "properties": {"CUT_REG": "07", "CUT_PROV": "071", "CUT_COM": "07107", "REGION": "Maule", "PROVINCIA": "Talca", "COMUNA": "Pencahue", "variable": "Sitios de Inter\u00e9s Tur\u00edstico", "Nombres": "EVENTO GASTRON\u00d3MICO - FIESTA DEL VINO DE CURTIDUR\u00cdA", "POINT_X": -71.930519976, "POINT_Y": -35.4617763079}}, {"type": "Feature", "geometry": {"type": "Point", "coordinates": [-71.576977623, -35.46099680089999]}, "properties": {"CUT_REG": "07", "CUT_PROV": "071", "CUT_COM": "07101", "REGION": "Maule", "PROVINCIA": "Talca", "COMUNA": "Talca", "variable": "Sitios de Inter\u00e9s Tur\u00edstico", "Nombres": "FERIA O EXPOSICI\u00d3N - FERIA DEL FOLKLORE DE HUILQUILEMU", "POINT_X": -71.576977623, "POINT_Y": -35.4609968009}}, {"type": "Feature", "geometry": {"type": "Point", "coordinates": [-71.94041447600003, -35.456082706900006]}, "properties": {"CUT_REG": "07", "CUT_PROV": "071", "CUT_COM": "07107", "REGION": "Maule", "PROVINCIA": "Talca", "COMUNA": "Pencahue", "variable": "Sitios de Inter\u00e9s Tur\u00edstico", "Nombres": "PUEBLO O ALDEA TRADICIONAL - CURTIDUR\u00cdA", "POINT_X": -71.940414476, "POINT_Y": -35.4560827069}}, {"type": "Feature", "geometry": {"type": "Point", "coordinates": [-72.02438297400002, -35.44517399189998]}, "properties": {"CUT_REG": "07", "CUT_PROV": "071", "CUT_COM": "07107", "REGION": "Maule", "PROVINCIA": "Talca", "COMUNA": "Pencahue", "variable": "Sitios de Inter\u00e9s Tur\u00edstico", "Nombres": "PUEBLO O ALDEA TRADICIONAL - ESTACI\u00d3N GONZ\u00c1LEZ BASTIAS", "POINT_X": -72.024382974, "POINT_Y": -35.4451739919}}, {"type": "Feature", "geometry": {"type": "Point", "coordinates": [-71.34142092299997, -35.443443386899965]}, "properties": {"CUT_REG": "07", "CUT_PROV": "071", "CUT_COM": "07109", "REGION": "Maule", "PROVINCIA": "Talca", "COMUNA": "San Clemente", "variable": "Sitios de Inter\u00e9s Tur\u00edstico", "Nombres": "R\u00cdO Y ESTERO - R\u00cdO LIRCAY", "POINT_X": -71.341420923, "POINT_Y": -35.4434433869}}, {"type": "Feature", "geometry": {"type": "Point", "coordinates": [-71.864645542, -35.44230447289996]}, "properties": {"CUT_REG": "07", "CUT_PROV": "071", "CUT_COM": "07107", "REGION": "Maule", "PROVINCIA": "Talca", "COMUNA": "Pencahue", "variable": "Sitios de Inter\u00e9s Tur\u00edstico", "Nombres": "FIESTA RELIGIOSA - FIESTA DE LA INMACULADA CONCEPCI\u00d3N EN CORINTO", "POINT_X": -71.864645542, "POINT_Y": -35.4423044729}}, {"type": "Feature", "geometry": {"type": "Point", "coordinates": [-71.86285275199998, -35.441752167900006]}, "properties": {"CUT_REG": "07", "CUT_PROV": "071", "CUT_COM": "07107", "REGION": "Maule", "PROVINCIA": "Talca", "COMUNA": "Pencahue", "variable": "Sitios de Inter\u00e9s Tur\u00edstico", "Nombres": "CARNAVAL O FIESTA COSTUMBRISTA - FIESTA DE LA CULTURA Y EL VINO EN CORINTO", "POINT_X": -71.862852752, "POINT_Y": -35.4417521679}}, {"type": "Feature", "geometry": {"type": "Point", "coordinates": [-71.85951633099998, -35.44146176289996]}, "properties": {"CUT_REG": "07", "CUT_PROV": "071", "CUT_COM": "07107", "REGION": "Maule", "PROVINCIA": "Talca", "COMUNA": "Pencahue", "variable": "Sitios de Inter\u00e9s Tur\u00edstico", "Nombres": "PUEBLO O ALDEA TRADICIONAL - ESTACI\u00d3N CORINTO", "POINT_X": -71.859516331, "POINT_Y": -35.4414617629}}, {"type": "Feature", "geometry": {"type": "Point", "coordinates": [-72.10021094599996, -35.435523503899965]}, "properties": {"CUT_REG": "07", "CUT_PROV": "071", "CUT_COM": "07102", "REGION": "Maule", "PROVINCIA": "Talca", "COMUNA": "Constituci\u00f3n", "variable": "Sitios de Inter\u00e9s Tur\u00edstico", "Nombres": "PUEBLO O ALDEA TRADICIONAL - PICHAMAN", "POINT_X": -72.100210946, "POINT_Y": -35.4355235039}}, {"type": "Feature", "geometry": {"type": "Point", "coordinates": [-71.67978742700001, -35.43439310889996]}, "properties": {"CUT_REG": "07", "CUT_PROV": "071", "CUT_COM": "07101", "REGION": "Maule", "PROVINCIA": "Talca", "COMUNA": "Talca", "variable": "Sitios de Inter\u00e9s Tur\u00edstico", "Nombres": "CARNAVAL O FIESTA COSTUMBRISTA - FIESTA COSTUMBRISTA DE COL\u00cdN", "POINT_X": -71.679787427, "POINT_Y": -35.4343931089}}, {"type": "Feature", "geometry": {"type": "Point", "coordinates": [-71.63024386399997, -35.43354531489998]}, "properties": {"CUT_REG": "07", "CUT_PROV": "071", "CUT_COM": "07101", "REGION": "Maule", "PROVINCIA": "Talca", "COMUNA": "Talca", "variable": "Sitios de Inter\u00e9s Tur\u00edstico", "Nombres": "EVENTO GASTRON\u00d3MICO - NOCHE DEL CARMENERE EN TALCA", "POINT_X": -71.630243864, "POINT_Y": -35.4335453149}}, {"type": "Feature", "geometry": {"type": "Point", "coordinates": [-71.62960834499995, -35.433306783899965]}, "properties": {"CUT_REG": "07", "CUT_PROV": "071", "CUT_COM": "07101", "REGION": "Maule", "PROVINCIA": "Talca", "COMUNA": "Talca", "variable": "Sitios de Inter\u00e9s Tur\u00edstico", "Nombres": "RUTA TUR\u00cdSTICA - RUTA DEL VINO VALLE DEL MAULE", "POINT_X": -71.629608345, "POINT_Y": -35.4333067839}}, {"type": "Feature", "geometry": {"type": "Point", "coordinates": [-71.65067812999996, -35.429321459899995]}, "properties": {"CUT_REG": "07", "CUT_PROV": "071", "CUT_COM": "07101", "REGION": "Maule", "PROVINCIA": "Talca", "COMUNA": "Talca", "variable": "Sitios de Inter\u00e9s Tur\u00edstico", "Nombres": "ESCULTURA - MONUMENTO A LA LOBA CAPITOLINA", "POINT_X": -71.65067813, "POINT_Y": -35.4293214599}}, {"type": "Feature", "geometry": {"type": "Point", "coordinates": [-71.65571295699999, -35.42904851389997]}, "properties": {"CUT_REG": "07", "CUT_PROV": "071", "CUT_COM": "07101", "REGION": "Maule", "PROVINCIA": "Talca", "COMUNA": "Talca", "variable": "Sitios de Inter\u00e9s Tur\u00edstico", "Nombres": "ESCULTURA - MONUMENTO A LA VICTORIA", "POINT_X": -71.655712957, "POINT_Y": -35.4290485139}}, {"type": "Feature", "geometry": {"type": "Point", "coordinates": [-71.67341779800003, -35.428945999900016]}, "properties": {"CUT_REG": "07", "CUT_PROV": "071", "CUT_COM": "07101", "REGION": "Maule", "PROVINCIA": "Talca", "COMUNA": "Talca", "variable": "Sitios de Inter\u00e9s Tur\u00edstico", "Nombres": "ARQUITECTURA - IGLESIA DEL BUEN PASTOR (MH)", "POINT_X": -71.673417798, "POINT_Y": -35.4289459999}}, {"type": "Feature", "geometry": {"type": "Point", "coordinates": [-71.65826525399996, -35.42873318589999]}, "properties": {"CUT_REG": "07", "CUT_PROV": "071", "CUT_COM": "07101", "REGION": "Maule", "PROVINCIA": "Talca", "COMUNA": "Talca", "variable": "Sitios de Inter\u00e9s Tur\u00edstico", "Nombres": "MUSEO - MUSEO BOMBERIL BENITO RIQUELME", "POINT_X": -71.658265254, "POINT_Y": -35.4287331859}}, {"type": "Feature", "geometry": {"type": "Point", "coordinates": [-71.660788341, -35.42733228889999]}, "properties": {"CUT_REG": "07", "CUT_PROV": "071", "CUT_COM": "07101", "REGION": "Maule", "PROVINCIA": "Talca", "COMUNA": "Talca", "variable": "Sitios de Inter\u00e9s Tur\u00edstico", "Nombres": "ARQUITECTURA - MERCADO CENTRAL DE TALCA (MH)", "POINT_X": -71.660788341, "POINT_Y": -35.4273322889}}, {"type": "Feature", "geometry": {"type": "Point", "coordinates": [-71.66585155699997, -35.4265895909]}, "properties": {"CUT_REG": "07", "CUT_PROV": "071", "CUT_COM": "07101", "REGION": "Maule", "PROVINCIA": "Talca", "COMUNA": "Talca", "variable": "Sitios de Inter\u00e9s Tur\u00edstico", "Nombres": "CARNAVAL O FIESTA COSTUMBRISTA - FIESTA DEL CHANCHO EN TALCA", "POINT_X": -71.665851557, "POINT_Y": -35.4265895909}}, {"type": "Feature", "geometry": {"type": "Point", "coordinates": [-71.666091273, -35.426512185899995]}, "properties": {"CUT_REG": "07", "CUT_PROV": "071", "CUT_COM": "07101", "REGION": "Maule", "PROVINCIA": "Talca", "COMUNA": "Talca", "variable": "Sitios de Inter\u00e9s Tur\u00edstico", "Nombres": "CIUDAD - TALCA", "POINT_X": -71.666091273, "POINT_Y": -35.4265121859}}, {"type": "Feature", "geometry": {"type": "Point", "coordinates": [-71.66508810699996, -35.426480262900014]}, "properties": {"CUT_REG": "07", "CUT_PROV": "071", "CUT_COM": "07101", "REGION": "Maule", "PROVINCIA": "Talca", "COMUNA": "Talca", "variable": "Sitios de Inter\u00e9s Tur\u00edstico", "Nombres": "ARQUITECTURA - EDIFICIO DE LOS SERVICIOS P\u00daBLICOS DE TALCA (MH)", "POINT_X": -71.665088107, "POINT_Y": -35.4264802629}}, {"type": "Feature", "geometry": {"type": "Point", "coordinates": [-71.66510298999995, -35.42626360890003]}, "properties": {"CUT_REG": "07", "CUT_PROV": "071", "CUT_COM": "07101", "REGION": "Maule", "PROVINCIA": "Talca", "COMUNA": "Talca", "variable": "Sitios de Inter\u00e9s Tur\u00edstico", "Nombres": "ARQUITECTURA - EDIFICIO DE LA INTENDENCIA DE LA REGI\u00d3N DEL MAULE (MH)", "POINT_X": -71.66510299, "POINT_Y": -35.4262636089}}, {"type": "Feature", "geometry": {"type": "Point", "coordinates": [-71.66394416969996, -35.42603600519997]}, "properties": {"CUT_REG": "07", "CUT_PROV": "071", "CUT_COM": "07101", "REGION": "Maule", "PROVINCIA": "Talca", "COMUNA": "Talca", "variable": "Sitios de Inter\u00e9s Tur\u00edstico", "Nombres": "MUSEO - MUSEO O'HIGGINIANO Y DE BELLAS ARTES DE TALCA", "POINT_X": -71.6639441697, "POINT_Y": -35.4260360052}}, {"type": "Feature", "geometry": {"type": "Point", "coordinates": [-71.66406802400002, -35.42593493190002]}, "properties": {"CUT_REG": "07", "CUT_PROV": "071", "CUT_COM": "07101", "REGION": "Maule", "PROVINCIA": "Talca", "COMUNA": "Talca", "variable": "Sitios de Inter\u00e9s Tur\u00edstico", "Nombres": "MUSEO - CASA DE LA INDEPENDENCIA (MH)", "POINT_X": -71.664068024, "POINT_Y": -35.4259349319}}, {"type": "Feature", "geometry": {"type": "Point", "coordinates": [-71.66427502500001, -35.42586726690001]}, "properties": {"CUT_REG": "07", "CUT_PROV": "071", "CUT_COM": "07101", "REGION": "Maule", "PROVINCIA": "Talca", "COMUNA": "Talca", "variable": "Sitios de Inter\u00e9s Tur\u00edstico", "Nombres": "M\u00daSICA O CANTO - SEMANA DE LA INDEPENDENCIA", "POINT_X": -71.664275025, "POINT_Y": -35.4258672669}}, {"type": "Feature", "geometry": {"type": "Point", "coordinates": [-71.66399754699997, -35.42580128389997]}, "properties": {"CUT_REG": "07", "CUT_PROV": "071", "CUT_COM": "07101", "REGION": "Maule", "PROVINCIA": "Talca", "COMUNA": "Talca", "variable": "Sitios de Inter\u00e9s Tur\u00edstico", "Nombres": "ARQUITECTURA - CASA COLINDANTE A LA DE LA INDEPENDENCIA (MH)", "POINT_X": -71.663997547, "POINT_Y": -35.4258012839}}, {"type": "Feature", "geometry": {"type": "Point", "coordinates": [-71.66548310500005, -35.42576847990001]}, "properties": {"CUT_REG": "07", "CUT_PROV": "071", "CUT_COM": "07101", "REGION": "Maule", "PROVINCIA": "Talca", "COMUNA": "Talca", "variable": "Sitios de Inter\u00e9s Tur\u00edstico", "Nombres": "ARQUITECTURA - CATEDRAL DE TALCA", "POINT_X": -71.665483105, "POINT_Y": -35.4257684799}}, {"type": "Feature", "geometry": {"type": "Point", "coordinates": [-71.70123809399999, -35.425072564899985]}, "properties": {"CUT_REG": "07", "CUT_PROV": "071", "CUT_COM": "07101", "REGION": "Maule", "PROVINCIA": "Talca", "COMUNA": "Talca", "variable": "Sitios de Inter\u00e9s Tur\u00edstico", "Nombres": "OTROS FOLKLORE - GASTRONOM\u00cdA T\u00cdPICA CHANCHO EN PIEDRA", "POINT_X": -71.701238094, "POINT_Y": -35.4250725649}}, {"type": "Feature", "geometry": {"type": "Point", "coordinates": [-71.67282039999998, -35.424533574899975]}, "properties": {"CUT_REG": "07", "CUT_PROV": "071", "CUT_COM": "07101", "REGION": "Maule", "PROVINCIA": "Talca", "COMUNA": "Talca", "variable": "Sitios de Inter\u00e9s Tur\u00edstico", "Nombres": "REALIZACI\u00d3N URBANA - PINACOTECA DE LA UNIVERSIDAD DE TALCA", "POINT_X": -71.6728204, "POINT_Y": -35.4245335749}}, {"type": "Feature", "geometry": {"type": "Point", "coordinates": [-71.668139285, -35.42416845889996]}, "properties": {"CUT_REG": "07", "CUT_PROV": "071", "CUT_COM": "07101", "REGION": "Maule", "PROVINCIA": "Talca", "COMUNA": "Talca", "variable": "Sitios de Inter\u00e9s Tur\u00edstico", "Nombres": "ARQUITECTURA - AVENIDA ISIDORO DEL SOLAR DE TALCA", "POINT_X": -71.668139285, "POINT_Y": -35.4241684589}}, {"type": "Feature", "geometry": {"type": "Point", "coordinates": [-72.05606537299997, -35.42352939290002]}, "properties": {"CUT_REG": "07", "CUT_PROV": "071", "CUT_COM": "07107", "REGION": "Maule", "PROVINCIA": "Talca", "COMUNA": "Pencahue", "variable": "Sitios de Inter\u00e9s Tur\u00edstico", "Nombres": "PUEBLO O ALDEA TRADICIONAL - TOCONEY", "POINT_X": -72.056065373, "POINT_Y": -35.4235293929}}, {"type": "Feature", "geometry": {"type": "Point", "coordinates": [-71.66463866599999, -35.42253322490002]}, "properties": {"CUT_REG": "07", "CUT_PROV": "071", "CUT_COM": "07101", "REGION": "Maule", "PROVINCIA": "Talca", "COMUNA": "Talca", "variable": "Sitios de Inter\u00e9s Tur\u00edstico", "Nombres": "REALIZACI\u00d3N URBANA - TEATRO REGIONAL DEL MAULE", "POINT_X": -71.664638666, "POINT_Y": -35.4225332249}}, {"type": "Feature", "geometry": {"type": "Point", "coordinates": [-71.65822709599999, -35.4224492839]}, "properties": {"CUT_REG": "07", "CUT_PROV": "071", "CUT_COM": "07101", "REGION": "Maule", "PROVINCIA": "Talca", "COMUNA": "Talca", "variable": "Sitios de Inter\u00e9s Tur\u00edstico", "Nombres": "ESCULTURA - MONUMENTO ABATE MOLINA", "POINT_X": -71.658227096, "POINT_Y": -35.4224492839}}, {"type": "Feature", "geometry": {"type": "Point", "coordinates": [-71.66486083799998, -35.42225791089998]}, "properties": {"CUT_REG": "07", "CUT_PROV": "071", "CUT_COM": "07101", "REGION": "Maule", "PROVINCIA": "Talca", "COMUNA": "Talca", "variable": "Sitios de Inter\u00e9s Tur\u00edstico", "Nombres": "M\u00daSICA O CANTO - FESTIVAL NACIONAL DE LA TONADA EN TALCA", "POINT_X": -71.664860838, "POINT_Y": -35.4222579109}}, {"type": "Feature", "geometry": {"type": "Point", "coordinates": [-71.65989432900001, -35.42225030289997]}, "properties": {"CUT_REG": "07", "CUT_PROV": "071", "CUT_COM": "07101", "REGION": "Maule", "PROVINCIA": "Talca", "COMUNA": "Talca", "variable": "Sitios de Inter\u00e9s Tur\u00edstico", "Nombres": "REALIZACI\u00d3N URBANA - ALAMEDA BERNARDO O\u00b4HIGGINS DE TALCA", "POINT_X": -71.659894329, "POINT_Y": -35.4222503029}}, {"type": "Feature", "geometry": {"type": "Point", "coordinates": [-71.67406900399999, -35.420999636899964]}, "properties": {"CUT_REG": "07", "CUT_PROV": "071", "CUT_COM": "07101", "REGION": "Maule", "PROVINCIA": "Talca", "COMUNA": "Talca", "variable": "Sitios de Inter\u00e9s Tur\u00edstico", "Nombres": "EVENTO GASTRON\u00d3MICO - EL BOULEVARD DEL VINO", "POINT_X": -71.674069004, "POINT_Y": -35.4209996369}}, {"type": "Feature", "geometry": {"type": "Point", "coordinates": [-71.68247395899998, -35.420101035899954]}, "properties": {"CUT_REG": "07", "CUT_PROV": "071", "CUT_COM": "07101", "REGION": "Maule", "PROVINCIA": "Talca", "COMUNA": "Talca", "variable": "Sitios de Inter\u00e9s Tur\u00edstico", "Nombres": "R\u00cdO Y ESTERO - BALNEARIO GUILLERMO URZUA O R\u00cdO CLARO", "POINT_X": -71.682473959, "POINT_Y": -35.4201010359}}, {"type": "Feature", "geometry": {"type": "Point", "coordinates": [-71.65845345999999, -35.41794650890003]}, "properties": {"CUT_REG": "07", "CUT_PROV": "071", "CUT_COM": "07101", "REGION": "Maule", "PROVINCIA": "Talca", "COMUNA": "Talca", "variable": "Sitios de Inter\u00e9s Tur\u00edstico", "Nombres": "FIESTA RELIGIOSA - FIESTA DE SAN SEBASTI\u00c1N EN TALCA", "POINT_X": -71.65845346, "POINT_Y": -35.4179465089}}, {"type": "Feature", "geometry": {"type": "Point", "coordinates": [-72.19925624199996, -35.41202076390001]}, "properties": {"CUT_REG": "07", "CUT_PROV": "071", "CUT_COM": "07102", "REGION": "Maule", "PROVINCIA": "Talca", "COMUNA": "Constituci\u00f3n", "variable": "Sitios de Inter\u00e9s Tur\u00edstico", "Nombres": "PUEBLO O ALDEA TRADICIONAL - ESTACI\u00d3N FOREL", "POINT_X": -72.199256242, "POINT_Y": -35.4120207639}}, {"type": "Feature", "geometry": {"type": "Point", "coordinates": [-71.661710529, -35.41085312190003]}, "properties": {"CUT_REG": "07", "CUT_PROV": "071", "CUT_COM": "07101", "REGION": "Maule", "PROVINCIA": "Talca", "COMUNA": "Talca", "variable": "Sitios de Inter\u00e9s Tur\u00edstico", "Nombres": "LUGAR O SITIO HIST\u00d3RICO - CIRCUITO REGIMIENTO INFANTER\u00cdA 16 TALCA", "POINT_X": -71.661710529, "POINT_Y": -35.4108531219}}, {"type": "Feature", "geometry": {"type": "Point", "coordinates": [-71.63055373190001, -35.40594793799999]}, "properties": {"CUT_REG": "07", "CUT_PROV": "071", "CUT_COM": "07101", "REGION": "Maule", "PROVINCIA": "Talca", "COMUNA": "Talca", "variable": "Sitios de Inter\u00e9s Tur\u00edstico", "Nombres": "JARD\u00cdN BOT\u00c1NICO - JARD\u00cdN BOT\u00c1NICO UNIVERSIDAD DE TALCA", "POINT_X": -71.6305537319, "POINT_Y": -35.405947938}}, {"type": "Feature", "geometry": {"type": "Point", "coordinates": [-71.63549500200003, -35.402730204900024]}, "properties": {"CUT_REG": "07", "CUT_PROV": "071", "CUT_COM": "07101", "REGION": "Maule", "PROVINCIA": "Talca", "COMUNA": "Talca", "variable": "Sitios de Inter\u00e9s Tur\u00edstico", "Nombres": "ESCULTURA - PARQUE DE ESCULTURAS MAVUT", "POINT_X": -71.635495002, "POINT_Y": -35.4027302049}}, {"type": "Feature", "geometry": {"type": "Point", "coordinates": [-71.80275403699996, -35.39166167290001]}, "properties": {"CUT_REG": "07", "CUT_PROV": "071", "CUT_COM": "07107", "REGION": "Maule", "PROVINCIA": "Talca", "COMUNA": "Pencahue", "variable": "Sitios de Inter\u00e9s Tur\u00edstico", "Nombres": "TEXTILER\u00cdA - TELARES ARTESANALES DE PENCAHUE", "POINT_X": -71.802754037, "POINT_Y": -35.3916616729}}, {"type": "Feature", "geometry": {"type": "Point", "coordinates": [-71.80320278099995, -35.39158815989997]}, "properties": {"CUT_REG": "07", "CUT_PROV": "071", "CUT_COM": "07107", "REGION": "Maule", "PROVINCIA": "Talca", "COMUNA": "Pencahue", "variable": "Sitios de Inter\u00e9s Tur\u00edstico", "Nombres": "EVENTO GASTRON\u00d3MICO - FIESTA DEL CORDERO DE PENCAHUE", "POINT_X": -71.803202781, "POINT_Y": -35.3915881599}}, {"type": "Feature", "geometry": {"type": "Point", "coordinates": [-71.80393310899998, -35.391381918900045]}, "properties": {"CUT_REG": "07", "CUT_PROV": "071", "CUT_COM": "07107", "REGION": "Maule", "PROVINCIA": "Talca", "COMUNA": "Pencahue", "variable": "Sitios de Inter\u00e9s Tur\u00edstico", "Nombres": "PUEBLO O ALDEA TRADICIONAL - PENCAHUE", "POINT_X": -71.803933109, "POINT_Y": -35.3913819189}}, {"type": "Feature", "geometry": {"type": "Point", "coordinates": [-71.44616272400003, -35.383999762899954]}, "properties": {"CUT_REG": "07", "CUT_PROV": "071", "CUT_COM": "07106", "REGION": "Maule", "PROVINCIA": "Talca", "COMUNA": "Pelarco", "variable": "Sitios de Inter\u00e9s Tur\u00edstico", "Nombres": "ARQUITECTURA - TEMPLO PARROQUIAL SAN JOS\u00c9 DE PELARCO (MH)", "POINT_X": -71.446162724, "POINT_Y": -35.3839997629}}, {"type": "Feature", "geometry": {"type": "Point", "coordinates": [-71.44684567399997, -35.38365240189999]}, "properties": {"CUT_REG": "07", "CUT_PROV": "071", "CUT_COM": "07106", "REGION": "Maule", "PROVINCIA": "Talca", "COMUNA": "Pelarco", "variable": "Sitios de Inter\u00e9s Tur\u00edstico", "Nombres": "PUEBLO O ALDEA TRADICIONAL - PELARCO", "POINT_X": -71.446845674, "POINT_Y": -35.3836524019}}, {"type": "Feature", "geometry": {"type": "Point", "coordinates": [-71.44696477199996, -35.383586890899984]}, "properties": {"CUT_REG": "07", "CUT_PROV": "071", "CUT_COM": "07106", "REGION": "Maule", "PROVINCIA": "Talca", "COMUNA": "Pelarco", "variable": "Sitios de Inter\u00e9s Tur\u00edstico", "Nombres": "FIESTA RELIGIOSA - FIESTA DE LA VIRGEN DEL CARMEN DE PELARCO", "POINT_X": -71.446964772, "POINT_Y": -35.3835868909}}, {"type": "Feature", "geometry": {"type": "Point", "coordinates": [-72.359689555, -35.36813560989999]}, "properties": {"CUT_REG": "07", "CUT_PROV": "071", "CUT_COM": "07102", "REGION": "Maule", "PROVINCIA": "Talca", "COMUNA": "Constituci\u00f3n", "variable": "Sitios de Inter\u00e9s Tur\u00edstico", "Nombres": "R\u00cdO Y ESTERO - RANCHO ASTILLERO DE CONSTITUCI\u00d3N", "POINT_X": -72.359689555, "POINT_Y": -35.3681356099}}, {"type": "Feature", "geometry": {"type": "Point", "coordinates": [-72.37386950899997, -35.36651450689997]}, "properties": {"CUT_REG": "07", "CUT_PROV": "071", "CUT_COM": "07102", "REGION": "Maule", "PROVINCIA": "Talca", "COMUNA": "Constituci\u00f3n", "variable": "Sitios de Inter\u00e9s Tur\u00edstico", "Nombres": "OBRA DE INGENIER\u00cdA - PUENTE FERROVIARIO BANCO DE ARENA", "POINT_X": -72.373869509, "POINT_Y": -35.3665145069}}, {"type": "Feature", "geometry": {"type": "Point", "coordinates": [-72.47345843600002, -35.36633914390003]}, "properties": {"CUT_REG": "07", "CUT_PROV": "071", "CUT_COM": "07102", "REGION": "Maule", "PROVINCIA": "Talca", "COMUNA": "Constituci\u00f3n", "variable": "Sitios de Inter\u00e9s Tur\u00edstico", "Nombres": "PLAYA O BALNEARIO - PLAYA EL CABLE", "POINT_X": -72.473458436, "POINT_Y": -35.3663391439}}, {"type": "Feature", "geometry": {"type": "Point", "coordinates": [-72.45643796200002, -35.359086918900026]}, "properties": {"CUT_REG": "07", "CUT_PROV": "071", "CUT_COM": "07102", "REGION": "Maule", "PROVINCIA": "Talca", "COMUNA": "Constituci\u00f3n", "variable": "Sitios de Inter\u00e9s Tur\u00edstico", "Nombres": "OBRA DE INGENIER\u00cdA - PUERTO DE MAGUILLINES", "POINT_X": -72.456437962, "POINT_Y": -35.3590869189}}, {"type": "Feature", "geometry": {"type": "Point", "coordinates": [-71.57481968099998, -35.35310240290003]}, "properties": {"CUT_REG": "07", "CUT_PROV": "071", "CUT_COM": "07101", "REGION": "Maule", "PROVINCIA": "Talca", "COMUNA": "Talca", "variable": "Sitios de Inter\u00e9s Tur\u00edstico", "Nombres": "OBRA DE INGENIER\u00cdA - PUENTE SOBRE EL R\u00cdO PANGUE (MH)", "POINT_X": -71.574819681, "POINT_Y": -35.3531024029}}, {"type": "Feature", "geometry": {"type": "Point", "coordinates": [-72.41209489099995, -35.332169194899954]}, "properties": {"CUT_REG": "07", "CUT_PROV": "071", "CUT_COM": "07102", "REGION": "Maule", "PROVINCIA": "Talca", "COMUNA": "Constituci\u00f3n", "variable": "Sitios de Inter\u00e9s Tur\u00edstico", "Nombres": "CARNAVAL O FIESTA COSTUMBRISTA - SEMANA MAULINA O VERANO MAULINO", "POINT_X": -72.412094891, "POINT_Y": -35.3321691949}}, {"type": "Feature", "geometry": {"type": "Point", "coordinates": [-72.41213503899999, -35.3318166079]}, "properties": {"CUT_REG": "07", "CUT_PROV": "071", "CUT_COM": "07102", "REGION": "Maule", "PROVINCIA": "Talca", "COMUNA": "Constituci\u00f3n", "variable": "Sitios de Inter\u00e9s Tur\u00edstico", "Nombres": "FIESTA RELIGIOSA - FIESTA DE SAN PEDRO EN CONSTITUCI\u00d3N", "POINT_X": -72.412135039, "POINT_Y": -35.3318166079}}, {"type": "Feature", "geometry": {"type": "Point", "coordinates": [-72.41158092899997, -35.33171511290004]}, "properties": {"CUT_REG": "07", "CUT_PROV": "071", "CUT_COM": "07102", "REGION": "Maule", "PROVINCIA": "Talca", "COMUNA": "Constituci\u00f3n", "variable": "Sitios de Inter\u00e9s Tur\u00edstico", "Nombres": "MUSEO - MUSEO HIST\u00d3RICO Y NATURAL DE CONSTITUCI\u00d3N", "POINT_X": -72.411580929, "POINT_Y": -35.3317151129}}, {"type": "Feature", "geometry": {"type": "Point", "coordinates": [-72.411821815, -35.33142894689999]}, "properties": {"CUT_REG": "07", "CUT_PROV": "071", "CUT_COM": "07102", "REGION": "Maule", "PROVINCIA": "Talca", "COMUNA": "Constituci\u00f3n", "variable": "Sitios de Inter\u00e9s Tur\u00edstico", "Nombres": "EVENTO GASTRON\u00d3MICO - FERIA GASTRON\u00d3MICA Y DE LAS TRADICIONES MAUCHAS", "POINT_X": -72.411821815, "POINT_Y": -35.3314289469}}, {"type": "Feature", "geometry": {"type": "Point", "coordinates": [-72.43434183600002, -35.32802402189999]}, "properties": {"CUT_REG": "07", "CUT_PROV": "071", "CUT_COM": "07102", "REGION": "Maule", "PROVINCIA": "Talca", "COMUNA": "Constituci\u00f3n", "variable": "Sitios de Inter\u00e9s Tur\u00edstico", "Nombres": "LUGAR DE INTER\u00c9S GEOL\u00d3GICO - FORMACI\u00d3N ROCOSA PIEDRA DE LA IGLESIA (SN)", "POINT_X": -72.434341836, "POINT_Y": -35.3280240219}}, {"type": "Feature", "geometry": {"type": "Point", "coordinates": [-72.42378195399999, -35.32377302789998]}, "properties": {"CUT_REG": "07", "CUT_PROV": "071", "CUT_COM": "07102", "REGION": "Maule", "PROVINCIA": "Talca", "COMUNA": "Constituci\u00f3n", "variable": "Sitios de Inter\u00e9s Tur\u00edstico", "Nombres": "PLAYA O BALNEARIO - BALNEARIO DE CONSTITUCI\u00d3N", "POINT_X": -72.423781954, "POINT_Y": -35.3237730279}}, {"type": "Feature", "geometry": {"type": "Point", "coordinates": [-72.41213018300003, -35.32203012490002]}, "properties": {"CUT_REG": "07", "CUT_PROV": "071", "CUT_COM": "07102", "REGION": "Maule", "PROVINCIA": "Talca", "COMUNA": "Constituci\u00f3n", "variable": "Sitios de Inter\u00e9s Tur\u00edstico", "Nombres": "CERRO - CERRO MUTRUN", "POINT_X": -72.412130183, "POINT_Y": -35.3220301249}}, {"type": "Feature", "geometry": {"type": "Point", "coordinates": [-71.95696602900003, -35.320775706899965]}, "properties": {"CUT_REG": "07", "CUT_PROV": "071", "CUT_COM": "07107", "REGION": "Maule", "PROVINCIA": "Talca", "COMUNA": "Pencahue", "variable": "Sitios de Inter\u00e9s Tur\u00edstico", "Nombres": "ARQUITECTURA - CAPILLA NUESTRA SE\u00d1ORA DEL CARMEN DE BATUCO (MH)", "POINT_X": -71.956966029, "POINT_Y": -35.3207757069}}, {"type": "Feature", "geometry": {"type": "Point", "coordinates": [-72.40773660399995, -35.319784115899985]}, "properties": {"CUT_REG": "07", "CUT_PROV": "071", "CUT_COM": "07102", "REGION": "Maule", "PROVINCIA": "Talca", "COMUNA": "Constituci\u00f3n", "variable": "Sitios de Inter\u00e9s Tur\u00edstico", "Nombres": "R\u00cdO Y ESTERO - DESEMBOCADURA DEL R\u00cdO MAULE", "POINT_X": -72.407736604, "POINT_Y": -35.3197841159}}, {"type": "Feature", "geometry": {"type": "Point", "coordinates": [-72.40045358599997, -35.31942165890002]}, "properties": {"CUT_REG": "07", "CUT_PROV": "071", "CUT_COM": "07102", "REGION": "Maule", "PROVINCIA": "Talca", "COMUNA": "Constituci\u00f3n", "variable": "Sitios de Inter\u00e9s Tur\u00edstico", "Nombres": "DUNA O CAMPO DUNARIO - DUNAS DE QUIVOLGO", "POINT_X": -72.400453586, "POINT_Y": -35.3194216589}}, {"type": "Feature", "geometry": {"type": "Point", "coordinates": [-72.39933588999995, -35.31820050089996]}, "properties": {"CUT_REG": "07", "CUT_PROV": "071", "CUT_COM": "07102", "REGION": "Maule", "PROVINCIA": "Talca", "COMUNA": "Constituci\u00f3n", "variable": "Sitios de Inter\u00e9s Tur\u00edstico", "Nombres": "RUINA O LUGAR ARQUEOL\u00d3GICO - CONCHALES Y CUEVAS DE QUIVOLGO (MA)", "POINT_X": -72.39933589, "POINT_Y": -35.3182005009}}, {"type": "Feature", "geometry": {"type": "Point", "coordinates": [-71.48418147999996, -35.306727478999974]}, "properties": {"CUT_REG": "07", "CUT_PROV": "071", "CUT_COM": "07110", "REGION": "Maule", "PROVINCIA": "Talca", "COMUNA": "San Rafael", "variable": "Sitios de Inter\u00e9s Tur\u00edstico", "Nombres": "VI\u00d1AS Y BODEGAS - VI\u00d1A V\u00cdA WINES", "POINT_X": -71.48418148, "POINT_Y": -35.306727479}}, {"type": "Feature", "geometry": {"type": "Point", "coordinates": [-71.25871839200002, -35.28161268090003]}, "properties": {"CUT_REG": "07", "CUT_PROV": "071", "CUT_COM": "07108", "REGION": "Maule", "PROVINCIA": "Talca", "COMUNA": "R\u00edo Claro", "variable": "Sitios de Inter\u00e9s Tur\u00edstico", "Nombres": "PUEBLO O ALDEA TRADICIONAL - CUMPEO", "POINT_X": -71.258718392, "POINT_Y": -35.2816126809}}, {"type": "Feature", "geometry": {"type": "Point", "coordinates": [-71.28564257400001, -35.2640420249]}, "properties": {"CUT_REG": "07", "CUT_PROV": "071", "CUT_COM": "07108", "REGION": "Maule", "PROVINCIA": "Talca", "COMUNA": "R\u00edo Claro", "variable": "Sitios de Inter\u00e9s Tur\u00edstico", "Nombres": "RUTA TUR\u00cdSTICA - RUTA ARCO ORIENTE", "POINT_X": -71.285642574, "POINT_Y": -35.2640420249}}, {"type": "Feature", "geometry": {"type": "Point", "coordinates": [-71.98294565600003, -35.24625565389997]}, "properties": {"CUT_REG": "07", "CUT_PROV": "071", "CUT_COM": "07103", "REGION": "Maule", "PROVINCIA": "Talca", "COMUNA": "Curepto", "variable": "Sitios de Inter\u00e9s Tur\u00edstico", "Nombres": "FUENTE Y CENTRO TERMAL - BA\u00d1OS TERMALES GUALLECO", "POINT_X": -71.982945656, "POINT_Y": -35.2462556539}}, {"type": "Feature", "geometry": {"type": "Point", "coordinates": [-71.98156440599996, -35.24573992990002]}, "properties": {"CUT_REG": "07", "CUT_PROV": "071", "CUT_COM": "07103", "REGION": "Maule", "PROVINCIA": "Talca", "COMUNA": "Curepto", "variable": "Sitios de Inter\u00e9s Tur\u00edstico", "Nombres": "PUEBLO O ALDEA TRADICIONAL - GUALLECO", "POINT_X": -71.981564406, "POINT_Y": -35.2457399299}}, {"type": "Feature", "geometry": {"type": "Point", "coordinates": [-71.981638032, -35.24535055689996]}, "properties": {"CUT_REG": "07", "CUT_PROV": "071", "CUT_COM": "07103", "REGION": "Maule", "PROVINCIA": "Talca", "COMUNA": "Curepto", "variable": "Sitios de Inter\u00e9s Tur\u00edstico", "Nombres": "ARQUITECTURA - PARROQUIA SAGRADO CORAZ\u00d3N DE JES\u00daS DE GUALLECO (MH)", "POINT_X": -71.981638032, "POINT_Y": -35.2453505569}}, {"type": "Feature", "geometry": {"type": "Point", "coordinates": [-72.285255279, -35.212563734900016]}, "properties": {"CUT_REG": "07", "CUT_PROV": "071", "CUT_COM": "07102", "REGION": "Maule", "PROVINCIA": "Talca", "COMUNA": "Constituci\u00f3n", "variable": "Sitios de Inter\u00e9s Tur\u00edstico", "Nombres": "PUEBLO O ALDEA TRADICIONAL - PUTU", "POINT_X": -72.285255279, "POINT_Y": -35.2125637349}}, {"type": "Feature", "geometry": {"type": "Point", "coordinates": [-72.30901494, -35.182194197899975]}, "properties": {"CUT_REG": "07", "CUT_PROV": "071", "CUT_COM": "07102", "REGION": "Maule", "PROVINCIA": "Talca", "COMUNA": "Constituci\u00f3n", "variable": "Sitios de Inter\u00e9s Tur\u00edstico", "Nombres": "DUNA O CAMPO DUNARIO - DUNAS DE PUTU", "POINT_X": -72.30901494, "POINT_Y": -35.1821941979}}, {"type": "Feature", "geometry": {"type": "Point", "coordinates": [-71.283475262, -35.15468186089999]}, "properties": {"CUT_REG": "07", "CUT_PROV": "071", "CUT_COM": "07108", "REGION": "Maule", "PROVINCIA": "Talca", "COMUNA": "R\u00edo Claro", "variable": "Sitios de Inter\u00e9s Tur\u00edstico", "Nombres": "R\u00cdO Y ESTERO - R\u00cdO CLARO EN MOLINA", "POINT_X": -71.283475262, "POINT_Y": -35.1546818609}}, {"type": "Feature", "geometry": {"type": "Point", "coordinates": [-72.25118547300005, -35.149791519000026]}, "properties": {"CUT_REG": "07", "CUT_PROV": "071", "CUT_COM": "07102", "REGION": "Maule", "PROVINCIA": "Talca", "COMUNA": "Constituci\u00f3n", "variable": "Sitios de Inter\u00e9s Tur\u00edstico", "Nombres": "HUMEDAL Y BOFEDAL - HUMEDALES COSTEROS DE PUT\u00da - HUENCHULLAMI (SN)", "POINT_X": -72.251185473, "POINT_Y": -35.149791519}}, {"type": "Feature", "geometry": {"type": "Point", "coordinates": [-72.18279765300002, -35.13175783289996]}, "properties": {"CUT_REG": "07", "CUT_PROV": "071", "CUT_COM": "07103", "REGION": "Maule", "PROVINCIA": "Talca", "COMUNA": "Curepto", "variable": "Sitios de Inter\u00e9s Tur\u00edstico", "Nombres": "ARQUITECTURA - IGLESIA DE HUENCHULLAMI (MH)", "POINT_X": -72.182797653, "POINT_Y": -35.1317578329}}, {"type": "Feature", "geometry": {"type": "Point", "coordinates": [-72.20562894500002, -35.12760456890004]}, "properties": {"CUT_REG": "07", "CUT_PROV": "071", "CUT_COM": "07103", "REGION": "Maule", "PROVINCIA": "Talca", "COMUNA": "Curepto", "variable": "Sitios de Inter\u00e9s Tur\u00edstico", "Nombres": "R\u00cdO Y ESTERO - R\u00cdO HUENCHULLAMI", "POINT_X": -72.205628945, "POINT_Y": -35.1276045689}}, {"type": "Feature", "geometry": {"type": "Point", "coordinates": [-72.20060434800004, -35.110505647899956]}, "properties": {"CUT_REG": "07", "CUT_PROV": "071", "CUT_COM": "07103", "REGION": "Maule", "PROVINCIA": "Talca", "COMUNA": "Curepto", "variable": "Sitios de Inter\u00e9s Tur\u00edstico", "Nombres": "PLAYA O BALNEARIO - PLAYA LA TRINCHERA", "POINT_X": -72.200604348, "POINT_Y": -35.1105056479}}, {"type": "Feature", "geometry": {"type": "Point", "coordinates": [-72.01980420699998, -35.0964288999]}, "properties": {"CUT_REG": "07", "CUT_PROV": "071", "CUT_COM": "07103", "REGION": "Maule", "PROVINCIA": "Talca", "COMUNA": "Curepto", "variable": "Sitios de Inter\u00e9s Tur\u00edstico", "Nombres": "TEXTILER\u00cdA - TELARES ARTESANALES DE CUREPTO", "POINT_X": -72.019804207, "POINT_Y": -35.0964288999}}, {"type": "Feature", "geometry": {"type": "Point", "coordinates": [-72.01919427599995, -35.09535352690002]}, "properties": {"CUT_REG": "07", "CUT_PROV": "071", "CUT_COM": "07103", "REGION": "Maule", "PROVINCIA": "Talca", "COMUNA": "Curepto", "variable": "Sitios de Inter\u00e9s Tur\u00edstico", "Nombres": "M\u00daSICA O CANTO - FESTIVAL DE LA CAMELIA DE CUREPTO", "POINT_X": -72.019194276, "POINT_Y": -35.0953535269}}, {"type": "Feature", "geometry": {"type": "Point", "coordinates": [-72.02029479699998, -35.093379279900006]}, "properties": {"CUT_REG": "07", "CUT_PROV": "071", "CUT_COM": "07103", "REGION": "Maule", "PROVINCIA": "Talca", "COMUNA": "Curepto", "variable": "Sitios de Inter\u00e9s Tur\u00edstico", "Nombres": "MUSEO - MUSEO HIST\u00d3RICO RELIGIOSO DE CUREPTO", "POINT_X": -72.020294797, "POINT_Y": -35.0933792799}}, {"type": "Feature", "geometry": {"type": "Point", "coordinates": [-72.020408654, -35.092898750900034]}, "properties": {"CUT_REG": "07", "CUT_PROV": "071", "CUT_COM": "07103", "REGION": "Maule", "PROVINCIA": "Talca", "COMUNA": "Curepto", "variable": "Sitios de Inter\u00e9s Tur\u00edstico", "Nombres": "PUEBLO O ALDEA TRADICIONAL - SECTOR DEL PUEBLO DE CUREPTO (ZT)", "POINT_X": -72.020408654, "POINT_Y": -35.0928987509}}, {"type": "Feature", "geometry": {"type": "Point", "coordinates": [-72.02066660800001, -35.09275712390004]}, "properties": {"CUT_REG": "07", "CUT_PROV": "071", "CUT_COM": "07103", "REGION": "Maule", "PROVINCIA": "Talca", "COMUNA": "Curepto", "variable": "Sitios de Inter\u00e9s Tur\u00edstico", "Nombres": "ARQUITECTURA - IGLESIA NUESTRA SE\u00d1ORA DEL ROSARIO DE CUREPTO", "POINT_X": -72.020666608, "POINT_Y": -35.0927571239}}, {"type": "Feature", "geometry": {"type": "Point", "coordinates": [-71.78482181500003, -35.05491707689997]}, "properties": {"CUT_REG": "07", "CUT_PROV": "071", "CUT_COM": "07103", "REGION": "Maule", "PROVINCIA": "Talca", "COMUNA": "Curepto", "variable": "Sitios de Inter\u00e9s Tur\u00edstico", "Nombres": "FIESTA RELIGIOSA - FIESTA NUESTRA SE\u00d1ORA DE LAS MERCEDES EN LIMAVIDA", "POINT_X": -71.784821815, "POINT_Y": -35.0549170769}}, {"type": "Feature", "geometry": {"type": "Point", "coordinates": [-71.813291632, -34.989793891899964]}, "properties": {"CUT_REG": "07", "CUT_PROV": "071", "CUT_COM": "07103", "REGION": "Maule", "PROVINCIA": "Talca", "COMUNA": "Curepto", "variable": "Sitios de Inter\u00e9s Tur\u00edstico", "Nombres": "ARQUITECTURA - CAPILLA DE LA ZONA DE PAULA", "POINT_X": -71.813291632, "POINT_Y": -34.9897938919}}, {"type": "Feature", "geometry": {"type": "Point", "coordinates": [-72.00941094299998, -34.9851322539]}, "properties": {"CUT_REG": "07", "CUT_PROV": "071", "CUT_COM": "07103", "REGION": "Maule", "PROVINCIA": "Talca", "COMUNA": "Curepto", "variable": "Sitios de Inter\u00e9s Tur\u00edstico", "Nombres": "OBRA DE INGENIER\u00cdA - PASARELA LOS ESCALONES", "POINT_X": -72.009410943, "POINT_Y": -34.9851322539}}]}