{"type": "FeatureCollection", "features": [{"type": "Feature", "geometry": {"type": "Point", "coordinates": [-71.28565936399997, -38.82904641989996]}, "properties": {"CUT_REG": "09", "CUT_PROV": "092", "CUT_COM": "09205", "REGION": "La Araucan\u00eda", "PROVINCIA": "Malleco", "COMUNA": "Lonquimay", "variable": "Sitios de Inter\u00e9s Tur\u00edstico", "Nombres": "CA\u00cdDA DE AGUA - LA CASCADA O SALTO DE TRAYENCO", "POINT_X": -71.285659364, "POINT_Y": -38.8290464199}}, {"type": "Feature", "geometry": {"type": "Point", "coordinates": [-71.29320518900002, -38.82477185290004]}, "properties": {"CUT_REG": "09", "CUT_PROV": "092", "CUT_COM": "09205", "REGION": "La Araucan\u00eda", "PROVINCIA": "Malleco", "COMUNA": "Lonquimay", "variable": "Sitios de Inter\u00e9s Tur\u00edstico", "Nombres": "MANIFESTACIONES RELIGIOSAS Y CREENCIAS POPULARES - COMPLEJOS RELIGIOSOS Y CEREMONIALES DE ICALMA (MH)", "POINT_X": -71.293205189, "POINT_Y": -38.8247718529}}, {"type": "Feature", "geometry": {"type": "Point", "coordinates": [-71.28420735, -38.80956799289999]}, "properties": {"CUT_REG": "09", "CUT_PROV": "092", "CUT_COM": "09205", "REGION": "La Araucan\u00eda", "PROVINCIA": "Malleco", "COMUNA": "Lonquimay", "variable": "Sitios de Inter\u00e9s Tur\u00edstico", "Nombres": "PUEBLO O ALDEA TRADICIONAL - ICALMA", "POINT_X": -71.28420735, "POINT_Y": -38.8095679929}}, {"type": "Feature", "geometry": {"type": "Point", "coordinates": [-71.18913946500003, -38.8078838199]}, "properties": {"CUT_REG": "09", "CUT_PROV": "092", "CUT_COM": "09205", "REGION": "La Araucan\u00eda", "PROVINCIA": "Malleco", "COMUNA": "Lonquimay", "variable": "Sitios de Inter\u00e9s Tur\u00edstico", "Nombres": "CERRO - CERRO BATEA MAHUIDA", "POINT_X": -71.189139465, "POINT_Y": -38.8078838199}}, {"type": "Feature", "geometry": {"type": "Point", "coordinates": [-71.28016000999997, -38.79723642090001]}, "properties": {"CUT_REG": "09", "CUT_PROV": "092", "CUT_COM": "09205", "REGION": "La Araucan\u00eda", "PROVINCIA": "Malleco", "COMUNA": "Lonquimay", "variable": "Sitios de Inter\u00e9s Tur\u00edstico", "Nombres": "LAGO Y LAGUNA - LAGUNA ICALMA", "POINT_X": -71.28016001, "POINT_Y": -38.7972364209}}, {"type": "Feature", "geometry": {"type": "Point", "coordinates": [-71.29030260000002, -38.67792703389997]}, "properties": {"CUT_REG": "09", "CUT_PROV": "092", "CUT_COM": "09205", "REGION": "La Araucan\u00eda", "PROVINCIA": "Malleco", "COMUNA": "Lonquimay", "variable": "Sitios de Inter\u00e9s Tur\u00edstico", "Nombres": "LAGO Y LAGUNA - LAGUNA GALLETUE", "POINT_X": -71.2903026, "POINT_Y": -38.6779270339}}, {"type": "Feature", "geometry": {"type": "Point", "coordinates": [-71.70194196899996, -38.64007136690003]}, "properties": {"CUT_REG": "09", "CUT_PROV": "092", "CUT_COM": "09203", "REGION": "La Araucan\u00eda", "PROVINCIA": "Malleco", "COMUNA": "Curacaut\u00edn", "variable": "Sitios de Inter\u00e9s Tur\u00edstico", "Nombres": "LAGO Y LAGUNA - LAGUNA CAPTREN", "POINT_X": -71.701941969, "POINT_Y": -38.6400713669}}, {"type": "Feature", "geometry": {"type": "Point", "coordinates": [-71.74791274699999, -38.61534956990001]}, "properties": {"CUT_REG": "09", "CUT_PROV": "092", "CUT_COM": "09203", "REGION": "La Araucan\u00eda", "PROVINCIA": "Malleco", "COMUNA": "Curacaut\u00edn", "variable": "Sitios de Inter\u00e9s Tur\u00edstico", "Nombres": "LUGAR DE INTER\u00c9S GEOL\u00d3GICO - SECTOR CAPTREN", "POINT_X": -71.747912747, "POINT_Y": -38.6153495699}}, {"type": "Feature", "geometry": {"type": "Point", "coordinates": [-70.95461267200002, -38.60488943089998]}, "properties": {"CUT_REG": "09", "CUT_PROV": "092", "CUT_COM": "09205", "REGION": "La Araucan\u00eda", "PROVINCIA": "Malleco", "COMUNA": "Lonquimay", "variable": "Sitios de Inter\u00e9s Tur\u00edstico", "Nombres": "\u00c1REA SILVESTRE PROTEGIDA DEL ESTADO (ASPE) - RESERVA NACIONAL ALTO B\u00cdOB\u00cdO", "POINT_X": -70.954612672, "POINT_Y": -38.6048894309}}, {"type": "Feature", "geometry": {"type": "Point", "coordinates": [-71.58019147600001, -38.59096076090002]}, "properties": {"CUT_REG": "09", "CUT_PROV": "092", "CUT_COM": "09205", "REGION": "La Araucan\u00eda", "PROVINCIA": "Malleco", "COMUNA": "Lonquimay", "variable": "Sitios de Inter\u00e9s Tur\u00edstico", "Nombres": "VOLC\u00c1N - SIERRA NEVADA", "POINT_X": -71.580191476, "POINT_Y": -38.5909607609}}, {"type": "Feature", "geometry": {"type": "Point", "coordinates": [-71.51650158900003, -38.517654819900024]}, "properties": {"CUT_REG": "09", "CUT_PROV": "092", "CUT_COM": "09203", "REGION": "La Araucan\u00eda", "PROVINCIA": "Malleco", "COMUNA": "Curacaut\u00edn", "variable": "Sitios de Inter\u00e9s Tur\u00edstico", "Nombres": "OBRA DE INGENIER\u00cdA - T\u00daNEL LAS RA\u00cdCES", "POINT_X": -71.516501589, "POINT_Y": -38.5176548199}}, {"type": "Feature", "geometry": {"type": "Point", "coordinates": [-71.41245896499998, -38.50460934790004]}, "properties": {"CUT_REG": "09", "CUT_PROV": "092", "CUT_COM": "09205", "REGION": "La Araucan\u00eda", "PROVINCIA": "Malleco", "COMUNA": "Lonquimay", "variable": "Sitios de Inter\u00e9s Tur\u00edstico", "Nombres": "CA\u00cdDA DE AGUA - LA CASCADA O SALTO ALASKA", "POINT_X": -71.412458965, "POINT_Y": -38.5046093479}}, {"type": "Feature", "geometry": {"type": "Point", "coordinates": [-71.58590434999999, -38.492195115899975]}, "properties": {"CUT_REG": "09", "CUT_PROV": "092", "CUT_COM": "09203", "REGION": "La Araucan\u00eda", "PROVINCIA": "Malleco", "COMUNA": "Curacaut\u00edn", "variable": "Sitios de Inter\u00e9s Tur\u00edstico", "Nombres": "FUENTE Y CENTRO TERMAL - TERMAS DE MALALCAHUELLO", "POINT_X": -71.58590435, "POINT_Y": -38.4921951159}}, {"type": "Feature", "geometry": {"type": "Point", "coordinates": [-71.49208097499996, -38.47828924590003]}, "properties": {"CUT_REG": "09", "CUT_PROV": "092", "CUT_COM": "09203", "REGION": "La Araucan\u00eda", "PROVINCIA": "Malleco", "COMUNA": "Curacaut\u00edn", "variable": "Sitios de Inter\u00e9s Tur\u00edstico", "Nombres": "ALTA MONTA\u00d1A Y CORDILLERA - CORDILLERA DE LAS RA\u00cdCES", "POINT_X": -71.492080975, "POINT_Y": -38.4782892459}}, {"type": "Feature", "geometry": {"type": "Point", "coordinates": [-71.58157905799997, -38.47543980189999]}, "properties": {"CUT_REG": "09", "CUT_PROV": "092", "CUT_COM": "09203", "REGION": "La Araucan\u00eda", "PROVINCIA": "Malleco", "COMUNA": "Curacaut\u00edn", "variable": "Sitios de Inter\u00e9s Tur\u00edstico", "Nombres": "PUEBLO O ALDEA TRADICIONAL - MALALCAHUELLO", "POINT_X": -71.581579058, "POINT_Y": -38.4754398019}}, {"type": "Feature", "geometry": {"type": "Point", "coordinates": [-71.67366222199999, -38.47392249690004]}, "properties": {"CUT_REG": "09", "CUT_PROV": "092", "CUT_COM": "09203", "REGION": "La Araucan\u00eda", "PROVINCIA": "Malleco", "COMUNA": "Curacaut\u00edn", "variable": "Sitios de Inter\u00e9s Tur\u00edstico", "Nombres": "CA\u00cdDA DE AGUA - SALTO LA PRINCESA", "POINT_X": -71.673662222, "POINT_Y": -38.4739224969}}, {"type": "Feature", "geometry": {"type": "Point", "coordinates": [-71.57813237699999, -38.47102873289997]}, "properties": {"CUT_REG": "09", "CUT_PROV": "092", "CUT_COM": "09203", "REGION": "La Araucan\u00eda", "PROVINCIA": "Malleco", "COMUNA": "Curacaut\u00edn", "variable": "Sitios de Inter\u00e9s Tur\u00edstico", "Nombres": "MANIFESTACIONES RELIGIOSAS Y CREENCIAS POPULARES - PIEDRA SANTA DE MALALCAHUELLO", "POINT_X": -71.578132377, "POINT_Y": -38.4710287329}}, {"type": "Feature", "geometry": {"type": "Point", "coordinates": [-71.175741373, -38.47045739090004]}, "properties": {"CUT_REG": "09", "CUT_PROV": "092", "CUT_COM": "09205", "REGION": "La Araucan\u00eda", "PROVINCIA": "Malleco", "COMUNA": "Lonquimay", "variable": "Sitios de Inter\u00e9s Tur\u00edstico", "Nombres": "MANIFESTACIONES RELIGIOSAS Y CREENCIAS POPULARES - COMPLEJO RELIGIOSO Y CEREMONIAL DE MITRAUQUEN (MH)", "POINT_X": -71.175741373, "POINT_Y": -38.4704573909}}, {"type": "Feature", "geometry": {"type": "Point", "coordinates": [-71.69840470400004, -38.46648922189998]}, "properties": {"CUT_REG": "09", "CUT_PROV": "092", "CUT_COM": "09203", "REGION": "La Araucan\u00eda", "PROVINCIA": "Malleco", "COMUNA": "Curacaut\u00edn", "variable": "Sitios de Inter\u00e9s Tur\u00edstico", "Nombres": "ARQUITECTURA - ESTACI\u00d3N FERROVIARIA EL MANZANAR (MH)", "POINT_X": -71.698404704, "POINT_Y": -38.4664892219}}, {"type": "Feature", "geometry": {"type": "Point", "coordinates": [-71.70790891700003, -38.46567510890003]}, "properties": {"CUT_REG": "09", "CUT_PROV": "092", "CUT_COM": "09203", "REGION": "La Araucan\u00eda", "PROVINCIA": "Malleco", "COMUNA": "Curacaut\u00edn", "variable": "Sitios de Inter\u00e9s Tur\u00edstico", "Nombres": "FUENTE Y CENTRO TERMAL - TERMAS DE MANZANAR", "POINT_X": -71.707908917, "POINT_Y": -38.4656751089}}, {"type": "Feature", "geometry": {"type": "Point", "coordinates": [-71.77579363499999, -38.464706812900026]}, "properties": {"CUT_REG": "09", "CUT_PROV": "092", "CUT_COM": "09203", "REGION": "La Araucan\u00eda", "PROVINCIA": "Malleco", "COMUNA": "Curacaut\u00edn", "variable": "Sitios de Inter\u00e9s Tur\u00edstico", "Nombres": "OTROS CIRCUITOS TUR\u00cdSTICOS - CAMINO CURACAUT\u00cdN-LONQUIMAY", "POINT_X": -71.775793635, "POINT_Y": -38.4647068129}}, {"type": "Feature", "geometry": {"type": "Point", "coordinates": [-71.74489086899997, -38.46268749890002]}, "properties": {"CUT_REG": "09", "CUT_PROV": "092", "CUT_COM": "09203", "REGION": "La Araucan\u00eda", "PROVINCIA": "Malleco", "COMUNA": "Curacaut\u00edn", "variable": "Sitios de Inter\u00e9s Tur\u00edstico", "Nombres": "CA\u00cdDA DE AGUA - SALTO DEL INDIO", "POINT_X": -71.744890869, "POINT_Y": -38.4626874989}}, {"type": "Feature", "geometry": {"type": "Point", "coordinates": [-71.57685880299995, -38.460046426899986]}, "properties": {"CUT_REG": "09", "CUT_PROV": "092", "CUT_COM": "09203", "REGION": "La Araucan\u00eda", "PROVINCIA": "Malleco", "COMUNA": "Curacaut\u00edn", "variable": "Sitios de Inter\u00e9s Tur\u00edstico", "Nombres": "\u00c1REA SILVESTRE PROTEGIDA DEL ESTADO (ASPE) - RESERVA NACIONAL MALALCAHUELLO", "POINT_X": -71.576858803, "POINT_Y": -38.4600464269}}, {"type": "Feature", "geometry": {"type": "Point", "coordinates": [-71.37049825400004, -38.45435495589998]}, "properties": {"CUT_REG": "09", "CUT_PROV": "092", "CUT_COM": "09205", "REGION": "La Araucan\u00eda", "PROVINCIA": "Malleco", "COMUNA": "Lonquimay", "variable": "Sitios de Inter\u00e9s Tur\u00edstico", "Nombres": "CARNAVAL O FIESTA COSTUMBRISTA - FIESTA DEL ASADO DE CHIVO EN LONQUIMAY", "POINT_X": -71.370498254, "POINT_Y": -38.4543549559}}, {"type": "Feature", "geometry": {"type": "Point", "coordinates": [-71.37055313800005, -38.45406457790003]}, "properties": {"CUT_REG": "09", "CUT_PROV": "092", "CUT_COM": "09205", "REGION": "La Araucan\u00eda", "PROVINCIA": "Malleco", "COMUNA": "Lonquimay", "variable": "Sitios de Inter\u00e9s Tur\u00edstico", "Nombres": "FIESTA RELIGIOSA - FIESTA DE SAN SEBASTI\u00c1N EN LONQUIMAY", "POINT_X": -71.370553138, "POINT_Y": -38.4540645779}}, {"type": "Feature", "geometry": {"type": "Point", "coordinates": [-71.37047302399998, -38.45403578690004]}, "properties": {"CUT_REG": "09", "CUT_PROV": "092", "CUT_COM": "09205", "REGION": "La Araucan\u00eda", "PROVINCIA": "Malleco", "COMUNA": "Lonquimay", "variable": "Sitios de Inter\u00e9s Tur\u00edstico", "Nombres": "PUEBLO O ALDEA TRADICIONAL - LONQUIMAY", "POINT_X": -71.370473024, "POINT_Y": -38.4540357869}}, {"type": "Feature", "geometry": {"type": "Point", "coordinates": [-71.38708966399994, -38.43913738489996]}, "properties": {"CUT_REG": "09", "CUT_PROV": "092", "CUT_COM": "09205", "REGION": "La Araucan\u00eda", "PROVINCIA": "Malleco", "COMUNA": "Lonquimay", "variable": "Sitios de Inter\u00e9s Tur\u00edstico", "Nombres": "OTROS CIRCUITOS TUR\u00cdSTICOS - CUESTA LAS RA\u00cdCES", "POINT_X": -71.387089664, "POINT_Y": -38.4391373849}}, {"type": "Feature", "geometry": {"type": "Point", "coordinates": [-71.45013216100003, -38.42810760190004]}, "properties": {"CUT_REG": "09", "CUT_PROV": "092", "CUT_COM": "09205", "REGION": "La Araucan\u00eda", "PROVINCIA": "Malleco", "COMUNA": "Lonquimay", "variable": "Sitios de Inter\u00e9s Tur\u00edstico", "Nombres": "\u00c1REA NEVADA - CENTRO DE ESQU\u00cd LOS ARENALES", "POINT_X": -71.450132161, "POINT_Y": -38.4281076019}}, {"type": "Feature", "geometry": {"type": "Point", "coordinates": [-71.55121503539998, -38.408546586400035]}, "properties": {"CUT_REG": "09", "CUT_PROV": "092", "CUT_COM": "09203", "REGION": "La Araucan\u00eda", "PROVINCIA": "Malleco", "COMUNA": "Curacaut\u00edn", "variable": "Sitios de Inter\u00e9s Tur\u00edstico", "Nombres": "\u00c1REA NEVADA - CENTRO DE SKI CORRALCO", "POINT_X": -71.5512150354, "POINT_Y": -38.4085465864}}, {"type": "Feature", "geometry": {"type": "Point", "coordinates": [-71.59024659900001, -38.37905620590004]}, "properties": {"CUT_REG": "09", "CUT_PROV": "092", "CUT_COM": "09205", "REGION": "La Araucan\u00eda", "PROVINCIA": "Malleco", "COMUNA": "Lonquimay", "variable": "Sitios de Inter\u00e9s Tur\u00edstico", "Nombres": "VOLC\u00c1N - VOLC\u00c1N LONQUIMAY", "POINT_X": -71.590246599, "POINT_Y": -38.3790562059}}, {"type": "Feature", "geometry": {"type": "Point", "coordinates": [-71.27911551399995, -38.360010496899996]}, "properties": {"CUT_REG": "09", "CUT_PROV": "092", "CUT_COM": "09205", "REGION": "La Araucan\u00eda", "PROVINCIA": "Malleco", "COMUNA": "Lonquimay", "variable": "Sitios de Inter\u00e9s Tur\u00edstico", "Nombres": "R\u00cdO Y ESTERO - R\u00cdO BIOBIO", "POINT_X": -71.279115514, "POINT_Y": -38.3600104969}}, {"type": "Feature", "geometry": {"type": "Point", "coordinates": [-72.66469623400002, -38.25312987489998]}, "properties": {"CUT_REG": "09", "CUT_PROV": "092", "CUT_COM": "09210", "REGION": "La Araucan\u00eda", "PROVINCIA": "Malleco", "COMUNA": "Traigu\u00e9n", "variable": "Sitios de Inter\u00e9s Tur\u00edstico", "Nombres": "EXPLOTACI\u00d3N INDUSTRIAL - MOLINO DE TRAIGU\u00c9N", "POINT_X": -72.664696234, "POINT_Y": -38.2531298749}}, {"type": "Feature", "geometry": {"type": "Point", "coordinates": [-72.66658035999995, -38.25067139489996]}, "properties": {"CUT_REG": "09", "CUT_PROV": "092", "CUT_COM": "09210", "REGION": "La Araucan\u00eda", "PROVINCIA": "Malleco", "COMUNA": "Traigu\u00e9n", "variable": "Sitios de Inter\u00e9s Tur\u00edstico", "Nombres": "OTROS EVENTOS MISCEL\u00c1NEOS - ANIVERSARIO CASA DE LA CULTURA DE TRAIGU\u00c9N", "POINT_X": -72.66658036, "POINT_Y": -38.2506713949}}, {"type": "Feature", "geometry": {"type": "Point", "coordinates": [-72.67176053800002, -38.250549064899964]}, "properties": {"CUT_REG": "09", "CUT_PROV": "092", "CUT_COM": "09210", "REGION": "La Araucan\u00eda", "PROVINCIA": "Malleco", "COMUNA": "Traigu\u00e9n", "variable": "Sitios de Inter\u00e9s Tur\u00edstico", "Nombres": "ARQUITECTURA - FABRICA DE MUEBLES TRAIGU\u00c9N", "POINT_X": -72.671760538, "POINT_Y": -38.2505490649}}, {"type": "Feature", "geometry": {"type": "Point", "coordinates": [-72.657940714, -38.24643535590003]}, "properties": {"CUT_REG": "09", "CUT_PROV": "092", "CUT_COM": "09210", "REGION": "La Araucan\u00eda", "PROVINCIA": "Malleco", "COMUNA": "Traigu\u00e9n", "variable": "Sitios de Inter\u00e9s Tur\u00edstico", "Nombres": "PLAYA O BALNEARIO - BALNEARIO SECTOR AGUA BUENA", "POINT_X": -72.657940714, "POINT_Y": -38.2464353559}}, {"type": "Feature", "geometry": {"type": "Point", "coordinates": [-72.67046220499998, -38.24540517289997]}, "properties": {"CUT_REG": "09", "CUT_PROV": "092", "CUT_COM": "09210", "REGION": "La Araucan\u00eda", "PROVINCIA": "Malleco", "COMUNA": "Traigu\u00e9n", "variable": "Sitios de Inter\u00e9s Tur\u00edstico", "Nombres": "OBRA DE INGENIER\u00cdA - MAQUINA FERROVIARIA JOS\u00c9 BUNSTER 1901", "POINT_X": -72.670462205, "POINT_Y": -38.2454051729}}, {"type": "Feature", "geometry": {"type": "Point", "coordinates": [-72.65919978399998, -38.24529810189999]}, "properties": {"CUT_REG": "09", "CUT_PROV": "092", "CUT_COM": "09210", "REGION": "La Araucan\u00eda", "PROVINCIA": "Malleco", "COMUNA": "Traigu\u00e9n", "variable": "Sitios de Inter\u00e9s Tur\u00edstico", "Nombres": "PLAYA O BALNEARIO - BALNEARIO EL MAITEN", "POINT_X": -72.659199784, "POINT_Y": -38.2452981019}}, {"type": "Feature", "geometry": {"type": "Point", "coordinates": [-72.67012568700002, -38.24520926290001]}, "properties": {"CUT_REG": "09", "CUT_PROV": "092", "CUT_COM": "09210", "REGION": "La Araucan\u00eda", "PROVINCIA": "Malleco", "COMUNA": "Traigu\u00e9n", "variable": "Sitios de Inter\u00e9s Tur\u00edstico", "Nombres": "ARQUITECTURA - ESTACI\u00d3N DE FERROCARRILES DE TRAIGU\u00c9N", "POINT_X": -72.670125687, "POINT_Y": -38.2452092629}}, {"type": "Feature", "geometry": {"type": "Point", "coordinates": [-72.57686024499995, -38.24513079490001]}, "properties": {"CUT_REG": "09", "CUT_PROV": "092", "CUT_COM": "09210", "REGION": "La Araucan\u00eda", "PROVINCIA": "Malleco", "COMUNA": "Traigu\u00e9n", "variable": "Sitios de Inter\u00e9s Tur\u00edstico", "Nombres": "CA\u00cdDA DE AGUA - SALTO QUICHAMAHUIDA", "POINT_X": -72.576860245, "POINT_Y": -38.2451307949}}, {"type": "Feature", "geometry": {"type": "Point", "coordinates": [-72.33424743899998, -38.23687621090003]}, "properties": {"CUT_REG": "09", "CUT_PROV": "092", "CUT_COM": "09211", "REGION": "La Araucan\u00eda", "PROVINCIA": "Malleco", "COMUNA": "Victoria", "variable": "Sitios de Inter\u00e9s Tur\u00edstico", "Nombres": "MERCADO TRADICIONAL - MERCADO DE  VICTORIA", "POINT_X": -72.334247439, "POINT_Y": -38.2368762109}}, {"type": "Feature", "geometry": {"type": "Point", "coordinates": [-71.72791639299997, -38.234626915899995]}, "properties": {"CUT_REG": "09", "CUT_PROV": "092", "CUT_COM": "09203", "REGION": "La Araucan\u00eda", "PROVINCIA": "Malleco", "COMUNA": "Curacaut\u00edn", "variable": "Sitios de Inter\u00e9s Tur\u00edstico", "Nombres": "FUENTE Y CENTRO TERMAL - TERMAS DE TOLHUACA", "POINT_X": -71.727916393, "POINT_Y": -38.2346269159}}, {"type": "Feature", "geometry": {"type": "Point", "coordinates": [-72.33929513200002, -38.23316147489998]}, "properties": {"CUT_REG": "09", "CUT_PROV": "092", "CUT_COM": "09211", "REGION": "La Araucan\u00eda", "PROVINCIA": "Malleco", "COMUNA": "Victoria", "variable": "Sitios de Inter\u00e9s Tur\u00edstico", "Nombres": "ESCULTURA - MONUMENTO AL COLONO", "POINT_X": -72.339295132, "POINT_Y": -38.2331614749}}, {"type": "Feature", "geometry": {"type": "Point", "coordinates": [-71.72918465300002, -38.22577649190001]}, "properties": {"CUT_REG": "09", "CUT_PROV": "092", "CUT_COM": "09203", "REGION": "La Araucan\u00eda", "PROVINCIA": "Malleco", "COMUNA": "Curacaut\u00edn", "variable": "Sitios de Inter\u00e9s Tur\u00edstico", "Nombres": "CA\u00cdDA DE AGUA - SALTO DE LA CULEBRA", "POINT_X": -71.729184653, "POINT_Y": -38.2257764919}}, {"type": "Feature", "geometry": {"type": "Point", "coordinates": [-72.65078910099997, -38.22226968190002]}, "properties": {"CUT_REG": "09", "CUT_PROV": "092", "CUT_COM": "09210", "REGION": "La Araucan\u00eda", "PROVINCIA": "Malleco", "COMUNA": "Traigu\u00e9n", "variable": "Sitios de Inter\u00e9s Tur\u00edstico", "Nombres": "LAGO Y LAGUNA - TRANQUE EL CASTILLO", "POINT_X": -72.650789101, "POINT_Y": -38.2222696819}}, {"type": "Feature", "geometry": {"type": "Point", "coordinates": [-71.82879093699998, -38.21802856790003]}, "properties": {"CUT_REG": "09", "CUT_PROV": "092", "CUT_COM": "09203", "REGION": "La Araucan\u00eda", "PROVINCIA": "Malleco", "COMUNA": "Curacaut\u00edn", "variable": "Sitios de Inter\u00e9s Tur\u00edstico", "Nombres": "CA\u00cdDA DE AGUA - SALTO DEL MALLECO", "POINT_X": -71.828790937, "POINT_Y": -38.2180285679}}, {"type": "Feature", "geometry": {"type": "Point", "coordinates": [-71.82094798599996, -38.21573970890001]}, "properties": {"CUT_REG": "09", "CUT_PROV": "092", "CUT_COM": "09203", "REGION": "La Araucan\u00eda", "PROVINCIA": "Malleco", "COMUNA": "Curacaut\u00edn", "variable": "Sitios de Inter\u00e9s Tur\u00edstico", "Nombres": "LAGO Y LAGUNA - LAGUNA MALLECO", "POINT_X": -71.820947986, "POINT_Y": -38.2157397089}}, {"type": "Feature", "geometry": {"type": "Point", "coordinates": [-71.80895817800001, -38.206702202400045]}, "properties": {"CUT_REG": "09", "CUT_PROV": "092", "CUT_COM": "09203", "REGION": "La Araucan\u00eda", "PROVINCIA": "Malleco", "COMUNA": "Curacaut\u00edn", "variable": "Sitios de Inter\u00e9s Tur\u00edstico", "Nombres": "\u00c1REA SILVESTRE PROTEGIDA DEL ESTADO (ASPE) - PARQUE NACIONAL TOLHUACA", "POINT_X": -71.808958178, "POINT_Y": -38.2067022024}}, {"type": "Feature", "geometry": {"type": "Point", "coordinates": [-72.95082825000003, -38.196408550899974]}, "properties": {"CUT_REG": "09", "CUT_PROV": "092", "CUT_COM": "09207", "REGION": "La Araucan\u00eda", "PROVINCIA": "Malleco", "COMUNA": "Lumaco", "variable": "Sitios de Inter\u00e9s Tur\u00edstico", "Nombres": "OBRA DE INGENIER\u00cdA - T\u00daNEL FERROVIARIO LUMACO-PASTENE", "POINT_X": -72.95082825, "POINT_Y": -38.1964085509}}, {"type": "Feature", "geometry": {"type": "Point", "coordinates": [-72.99265841000002, -38.194202792899986]}, "properties": {"CUT_REG": "09", "CUT_PROV": "092", "CUT_COM": "09207", "REGION": "La Araucan\u00eda", "PROVINCIA": "Malleco", "COMUNA": "Lumaco", "variable": "Sitios de Inter\u00e9s Tur\u00edstico", "Nombres": "ARQUITECTURA - PARROQUIA SAN FELIPE NERI", "POINT_X": -72.99265841, "POINT_Y": -38.1942027929}}, {"type": "Feature", "geometry": {"type": "Point", "coordinates": [-72.99255237299994, -38.19370963790004]}, "properties": {"CUT_REG": "09", "CUT_PROV": "092", "CUT_COM": "09207", "REGION": "La Araucan\u00eda", "PROVINCIA": "Malleco", "COMUNA": "Lumaco", "variable": "Sitios de Inter\u00e9s Tur\u00edstico", "Nombres": "CARNAVAL O FIESTA COSTUMBRISTA - ANIVERSARIO DE CAPIT\u00c1N PASTENE", "POINT_X": -72.992552373, "POINT_Y": -38.1937096379}}, {"type": "Feature", "geometry": {"type": "Point", "coordinates": [-72.99247301200003, -38.19346970789999]}, "properties": {"CUT_REG": "09", "CUT_PROV": "092", "CUT_COM": "09207", "REGION": "La Araucan\u00eda", "PROVINCIA": "Malleco", "COMUNA": "Lumaco", "variable": "Sitios de Inter\u00e9s Tur\u00edstico", "Nombres": "PUEBLO O ALDEA TRADICIONAL - CAPIT\u00c1N PASTENE", "POINT_X": -72.992473012, "POINT_Y": -38.1934697079}}, {"type": "Feature", "geometry": {"type": "Point", "coordinates": [-72.902838073, -38.17284362490002]}, "properties": {"CUT_REG": "09", "CUT_PROV": "092", "CUT_COM": "09207", "REGION": "La Araucan\u00eda", "PROVINCIA": "Malleco", "COMUNA": "Lumaco", "variable": "Sitios de Inter\u00e9s Tur\u00edstico", "Nombres": "LUGAR O SITIO HIST\u00d3RICO - LUGAR DEL DESASTRE DE CURALABA", "POINT_X": -72.902838073, "POINT_Y": -38.1728436249}}, {"type": "Feature", "geometry": {"type": "Point", "coordinates": [-72.90373904600003, -38.16649781089997]}, "properties": {"CUT_REG": "09", "CUT_PROV": "092", "CUT_COM": "09207", "REGION": "La Araucan\u00eda", "PROVINCIA": "Malleco", "COMUNA": "Lumaco", "variable": "Sitios de Inter\u00e9s Tur\u00edstico", "Nombres": "PUEBLO O ALDEA TRADICIONAL - LUMACO", "POINT_X": -72.903739046, "POINT_Y": -38.1664978109}}, {"type": "Feature", "geometry": {"type": "Point", "coordinates": [-72.31670757100001, -38.14806760289996]}, "properties": {"CUT_REG": "09", "CUT_PROV": "092", "CUT_COM": "09204", "REGION": "La Araucan\u00eda", "PROVINCIA": "Malleco", "COMUNA": "Ercilla", "variable": "Sitios de Inter\u00e9s Tur\u00edstico", "Nombres": "CA\u00cdDA DE AGUA - SALTO DEL DUMO", "POINT_X": -72.316707571, "POINT_Y": -38.1480676029}}, {"type": "Feature", "geometry": {"type": "Point", "coordinates": [-71.70084667700002, -38.07639500690002]}, "properties": {"CUT_REG": "09", "CUT_PROV": "092", "CUT_COM": "09202", "REGION": "La Araucan\u00eda", "PROVINCIA": "Malleco", "COMUNA": "Collipulli", "variable": "Sitios de Inter\u00e9s Tur\u00edstico", "Nombres": "FUENTE Y CENTRO TERMAL - TERMAS DE PEMEHUE", "POINT_X": -71.700846677, "POINT_Y": -38.0763950069}}, {"type": "Feature", "geometry": {"type": "Point", "coordinates": [-71.86146233399997, -38.07265727790002]}, "properties": {"CUT_REG": "09", "CUT_PROV": "092", "CUT_COM": "09202", "REGION": "La Araucan\u00eda", "PROVINCIA": "Malleco", "COMUNA": "Collipulli", "variable": "Sitios de Inter\u00e9s Tur\u00edstico", "Nombres": "\u00c1REA SILVESTRE PROTEGIDA DEL ESTADO (ASPE) - RESERVA NACIONAL MALLECO", "POINT_X": -71.861462334, "POINT_Y": -38.0726572779}}, {"type": "Feature", "geometry": {"type": "Point", "coordinates": [-72.37186649399997, -38.062536900900035]}, "properties": {"CUT_REG": "09", "CUT_PROV": "092", "CUT_COM": "09204", "REGION": "La Araucan\u00eda", "PROVINCIA": "Malleco", "COMUNA": "Ercilla", "variable": "Sitios de Inter\u00e9s Tur\u00edstico", "Nombres": "FIESTA RELIGIOSA - FIESTA DE LA VIRGEN DE LOURDES DE ERCILLA", "POINT_X": -72.371866494, "POINT_Y": -38.0625369009}}, {"type": "Feature", "geometry": {"type": "Point", "coordinates": [-72.37257834599998, -38.05620843889999]}, "properties": {"CUT_REG": "09", "CUT_PROV": "092", "CUT_COM": "09204", "REGION": "La Araucan\u00eda", "PROVINCIA": "Malleco", "COMUNA": "Ercilla", "variable": "Sitios de Inter\u00e9s Tur\u00edstico", "Nombres": "PLAYA O BALNEARIO - BALNEARIO HUEQUEN", "POINT_X": -72.372578346, "POINT_Y": -38.0562084389}}, {"type": "Feature", "geometry": {"type": "Point", "coordinates": [-72.19909623300003, -38.053749665900035]}, "properties": {"CUT_REG": "09", "CUT_PROV": "092", "CUT_COM": "09202", "REGION": "La Araucan\u00eda", "PROVINCIA": "Malleco", "COMUNA": "Collipulli", "variable": "Sitios de Inter\u00e9s Tur\u00edstico", "Nombres": "LAGO Y LAGUNA - LAGUNA CANAD\u00c1", "POINT_X": -72.199096233, "POINT_Y": -38.0537496659}}, {"type": "Feature", "geometry": {"type": "Point", "coordinates": [-73.05615949000001, -38.03492146889996]}, "properties": {"CUT_REG": "09", "CUT_PROV": "092", "CUT_COM": "09208", "REGION": "La Araucan\u00eda", "PROVINCIA": "Malleco", "COMUNA": "Pur\u00e9n", "variable": "Sitios de Inter\u00e9s Tur\u00edstico", "Nombres": "HUMEDAL Y BOFEDAL - HUMEDALES DE PUR\u00c9N", "POINT_X": -73.05615949, "POINT_Y": -38.0349214689}}, {"type": "Feature", "geometry": {"type": "Point", "coordinates": [-73.07331462200003, -38.03357771989998]}, "properties": {"CUT_REG": "09", "CUT_PROV": "092", "CUT_COM": "09208", "REGION": "La Araucan\u00eda", "PROVINCIA": "Malleco", "COMUNA": "Pur\u00e9n", "variable": "Sitios de Inter\u00e9s Tur\u00edstico", "Nombres": "FIESTA RELIGIOSA - FIESTA DE LA VIRGEN PURI\u0301SIMA EN PUR\u00c9N", "POINT_X": -73.073314622, "POINT_Y": -38.0335777199}}, {"type": "Feature", "geometry": {"type": "Point", "coordinates": [-73.07276812000003, -38.03331156889998]}, "properties": {"CUT_REG": "09", "CUT_PROV": "092", "CUT_COM": "09208", "REGION": "La Araucan\u00eda", "PROVINCIA": "Malleco", "COMUNA": "Pur\u00e9n", "variable": "Sitios de Inter\u00e9s Tur\u00edstico", "Nombres": "PUEBLO O ALDEA TRADICIONAL - PUR\u00c9N", "POINT_X": -73.07276812, "POINT_Y": -38.0333115689}}, {"type": "Feature", "geometry": {"type": "Point", "coordinates": [-73.06636135099998, -38.033017092900046]}, "properties": {"CUT_REG": "09", "CUT_PROV": "092", "CUT_COM": "09208", "REGION": "La Araucan\u00eda", "PROVINCIA": "Malleco", "COMUNA": "Pur\u00e9n", "variable": "Sitios de Inter\u00e9s Tur\u00edstico", "Nombres": "LUGAR O SITIO HIST\u00d3RICO - FUERTE DE LA PACIFICACI\u00d3N DE PUR\u00c9N", "POINT_X": -73.066361351, "POINT_Y": -38.0330170929}}, {"type": "Feature", "geometry": {"type": "Point", "coordinates": [-72.50878290299995, -38.03229680689996]}, "properties": {"CUT_REG": "09", "CUT_PROV": "092", "CUT_COM": "09204", "REGION": "La Araucan\u00eda", "PROVINCIA": "Malleco", "COMUNA": "Ercilla", "variable": "Sitios de Inter\u00e9s Tur\u00edstico", "Nombres": "CA\u00cdDA DE AGUA - SALTO PIDENCO", "POINT_X": -72.508782903, "POINT_Y": -38.0322968069}}, {"type": "Feature", "geometry": {"type": "Point", "coordinates": [-73.120424716, -38.03073102789999]}, "properties": {"CUT_REG": "09", "CUT_PROV": "092", "CUT_COM": "09208", "REGION": "La Araucan\u00eda", "PROVINCIA": "Malleco", "COMUNA": "Pur\u00e9n", "variable": "Sitios de Inter\u00e9s Tur\u00edstico", "Nombres": "RUINA O LUGAR ARQUEOL\u00d3GICO - PETROGLIFOS DE PUR\u00c9N", "POINT_X": -73.120424716, "POINT_Y": -38.0307310279}}, {"type": "Feature", "geometry": {"type": "Point", "coordinates": [-72.55009514, -38.02446783090002]}, "properties": {"CUT_REG": "09", "CUT_PROV": "092", "CUT_COM": "09204", "REGION": "La Araucan\u00eda", "PROVINCIA": "Malleco", "COMUNA": "Ercilla", "variable": "Sitios de Inter\u00e9s Tur\u00edstico", "Nombres": "CA\u00cdDA DE AGUA - SALTO NUPANGUE", "POINT_X": -72.55009514, "POINT_Y": -38.0244678309}}, {"type": "Feature", "geometry": {"type": "Point", "coordinates": [-72.38488492000003, -38.01780971789997]}, "properties": {"CUT_REG": "09", "CUT_PROV": "092", "CUT_COM": "09204", "REGION": "La Araucan\u00eda", "PROVINCIA": "Malleco", "COMUNA": "Ercilla", "variable": "Sitios de Inter\u00e9s Tur\u00edstico", "Nombres": "PLAYA O BALNEARIO - BALNEARIO CHOCOMBE", "POINT_X": -72.38488492, "POINT_Y": -38.0178097179}}, {"type": "Feature", "geometry": {"type": "Point", "coordinates": [-73.17932007619996, -38.010162031000036]}, "properties": {"CUT_REG": "09", "CUT_PROV": "092", "CUT_COM": "09208", "REGION": "La Araucan\u00eda", "PROVINCIA": "Malleco", "COMUNA": "Pur\u00e9n", "variable": "Sitios de Inter\u00e9s Tur\u00edstico", "Nombres": "LUGAR DE OBSERVACI\u00d3N DE FLORA Y FAUNA - MONUMENTO NATURAL CONTULMO", "POINT_X": -73.1793200762, "POINT_Y": -38.010162031}}, {"type": "Feature", "geometry": {"type": "Point", "coordinates": [-72.88783940799996, -37.9877114659]}, "properties": {"CUT_REG": "09", "CUT_PROV": "092", "CUT_COM": "09206", "REGION": "La Araucan\u00eda", "PROVINCIA": "Malleco", "COMUNA": "Los Sauces", "variable": "Sitios de Inter\u00e9s Tur\u00edstico", "Nombres": "OBRA DE INGENIER\u00cdA - TRANQUE SANTA ELENA", "POINT_X": -72.887839408, "POINT_Y": -37.9877114659}}, {"type": "Feature", "geometry": {"type": "Point", "coordinates": [-72.42107549499997, -37.971799172899956]}, "properties": {"CUT_REG": "09", "CUT_PROV": "092", "CUT_COM": "09202", "REGION": "La Araucan\u00eda", "PROVINCIA": "Malleco", "COMUNA": "Collipulli", "variable": "Sitios de Inter\u00e9s Tur\u00edstico", "Nombres": "CA\u00cdDA DE AGUA - SALTO DE LAS TOSCAS", "POINT_X": -72.421075495, "POINT_Y": -37.9717991729}}, {"type": "Feature", "geometry": {"type": "Point", "coordinates": [-72.43343939999994, -37.96556392789999]}, "properties": {"CUT_REG": "09", "CUT_PROV": "092", "CUT_COM": "09202", "REGION": "La Araucan\u00eda", "PROVINCIA": "Malleco", "COMUNA": "Collipulli", "variable": "Sitios de Inter\u00e9s Tur\u00edstico", "Nombres": "PLAYA O BALNEARIO - BALNEARIO SECTOR BAJO R\u00cdO  MALLECO", "POINT_X": -72.4334394, "POINT_Y": -37.9655639279}}, {"type": "Feature", "geometry": {"type": "Point", "coordinates": [-72.43868010599996, -37.9634525689]}, "properties": {"CUT_REG": "09", "CUT_PROV": "092", "CUT_COM": "09202", "REGION": "La Araucan\u00eda", "PROVINCIA": "Malleco", "COMUNA": "Collipulli", "variable": "Sitios de Inter\u00e9s Tur\u00edstico", "Nombres": "ARQUITECTURA - MIRADOR VIADUCTO FERROVIARIO DEL MALLECO", "POINT_X": -72.438680106, "POINT_Y": -37.9634525689}}, {"type": "Feature", "geometry": {"type": "Point", "coordinates": [-72.43834549299999, -37.9622738809]}, "properties": {"CUT_REG": "09", "CUT_PROV": "092", "CUT_COM": "09202", "REGION": "La Araucan\u00eda", "PROVINCIA": "Malleco", "COMUNA": "Collipulli", "variable": "Sitios de Inter\u00e9s Tur\u00edstico", "Nombres": "OBRA DE INGENIER\u00cdA - VIADUCTO DEL MALLECO (MH)", "POINT_X": -72.438345493, "POINT_Y": -37.9622738809}}, {"type": "Feature", "geometry": {"type": "Point", "coordinates": [-72.44044281999996, -37.95792231290002]}, "properties": {"CUT_REG": "09", "CUT_PROV": "092", "CUT_COM": "09202", "REGION": "La Araucan\u00eda", "PROVINCIA": "Malleco", "COMUNA": "Collipulli", "variable": "Sitios de Inter\u00e9s Tur\u00edstico", "Nombres": "ARQUITECTURA - CONVENTO FRANCISCANO DE COLLIPULLI", "POINT_X": -72.44044282, "POINT_Y": -37.9579223129}}, {"type": "Feature", "geometry": {"type": "Point", "coordinates": [-72.30232732399999, -37.91631424790002]}, "properties": {"CUT_REG": "09", "CUT_PROV": "092", "CUT_COM": "09202", "REGION": "La Araucan\u00eda", "PROVINCIA": "Malleco", "COMUNA": "Collipulli", "variable": "Sitios de Inter\u00e9s Tur\u00edstico", "Nombres": "CA\u00cdDA DE AGUA - SALTO DE CHANCAGUA", "POINT_X": -72.302327324, "POINT_Y": -37.9163142479}}, {"type": "Feature", "geometry": {"type": "Point", "coordinates": [-72.41549740800002, -37.887708898900016]}, "properties": {"CUT_REG": "09", "CUT_PROV": "092", "CUT_COM": "09202", "REGION": "La Araucan\u00eda", "PROVINCIA": "Malleco", "COMUNA": "Collipulli", "variable": "Sitios de Inter\u00e9s Tur\u00edstico", "Nombres": "CA\u00cdDA DE AGUA - SALTO CAILLIN", "POINT_X": -72.415497408, "POINT_Y": -37.8877088989}}, {"type": "Feature", "geometry": {"type": "Point", "coordinates": [-72.45723737949996, -37.85588178889999]}, "properties": {"CUT_REG": "09", "CUT_PROV": "092", "CUT_COM": "09202", "REGION": "La Araucan\u00eda", "PROVINCIA": "Malleco", "COMUNA": "Collipulli", "variable": "Sitios de Inter\u00e9s Tur\u00edstico", "Nombres": "PLAYA O BALNEARIO - PLAYA HERMOSA", "POINT_X": -72.4572373795, "POINT_Y": -37.8558817889}}, {"type": "Feature", "geometry": {"type": "Point", "coordinates": [-72.36136757600002, -37.85140698590003]}, "properties": {"CUT_REG": "09", "CUT_PROV": "092", "CUT_COM": "09202", "REGION": "La Araucan\u00eda", "PROVINCIA": "Malleco", "COMUNA": "Collipulli", "variable": "Sitios de Inter\u00e9s Tur\u00edstico", "Nombres": "PLAYA O BALNEARIO - BALNEARIO QUILQUIHUENCO", "POINT_X": -72.361367576, "POINT_Y": -37.8514069859}}, {"type": "Feature", "geometry": {"type": "Point", "coordinates": [-72.73125315899999, -37.84556100390003]}, "properties": {"CUT_REG": "09", "CUT_PROV": "092", "CUT_COM": "09201", "REGION": "La Araucan\u00eda", "PROVINCIA": "Malleco", "COMUNA": "Angol", "variable": "Sitios de Inter\u00e9s Tur\u00edstico", "Nombres": "LAGO Y LAGUNA - LAGUNA CANTERAS DEUCO", "POINT_X": -72.731253159, "POINT_Y": -37.8455610039}}, {"type": "Feature", "geometry": {"type": "Point", "coordinates": [-72.662224881, -37.82446487589998]}, "properties": {"CUT_REG": "09", "CUT_PROV": "092", "CUT_COM": "09201", "REGION": "La Araucan\u00eda", "PROVINCIA": "Malleco", "COMUNA": "Angol", "variable": "Sitios de Inter\u00e9s Tur\u00edstico", "Nombres": "MUSEO - MUSEO DILLMAN BULLOCK", "POINT_X": -72.662224881, "POINT_Y": -37.8244648759}}, {"type": "Feature", "geometry": {"type": "Point", "coordinates": [-72.86391884399998, -37.80210723489999]}, "properties": {"CUT_REG": "09", "CUT_PROV": "092", "CUT_COM": "09201", "REGION": "La Araucan\u00eda", "PROVINCIA": "Malleco", "COMUNA": "Angol", "variable": "Sitios de Inter\u00e9s Tur\u00edstico", "Nombres": "PLAYA O BALNEARIO - BALNEARIO EL MANZANO", "POINT_X": -72.863918844, "POINT_Y": -37.8021072349}}, {"type": "Feature", "geometry": {"type": "Point", "coordinates": [-73.00144184899997, -37.80139525250002]}, "properties": {"CUT_REG": "09", "CUT_PROV": "092", "CUT_COM": "09201", "REGION": "La Araucan\u00eda", "PROVINCIA": "Malleco", "COMUNA": "Angol", "variable": "Sitios de Inter\u00e9s Tur\u00edstico", "Nombres": "\u00c1REA SILVESTRE PROTEGIDA DEL ESTADO (ASPE) - PARQUE NACIONAL NAHUELBUTA", "POINT_X": -73.001441849, "POINT_Y": -37.8013952525}}, {"type": "Feature", "geometry": {"type": "Point", "coordinates": [-72.70893162799999, -37.800455306900005]}, "properties": {"CUT_REG": "09", "CUT_PROV": "092", "CUT_COM": "09201", "REGION": "La Araucan\u00eda", "PROVINCIA": "Malleco", "COMUNA": "Angol", "variable": "Sitios de Inter\u00e9s Tur\u00edstico", "Nombres": "OTROS ARTESAN\u00cdA TRAD - CER\u00c1MICAS SERRA", "POINT_X": -72.708931628, "POINT_Y": -37.8004553069}}, {"type": "Feature", "geometry": {"type": "Point", "coordinates": [-72.70884190800001, -37.798948657899956]}, "properties": {"CUT_REG": "09", "CUT_PROV": "092", "CUT_COM": "09201", "REGION": "La Araucan\u00eda", "PROVINCIA": "Malleco", "COMUNA": "Angol", "variable": "Sitios de Inter\u00e9s Tur\u00edstico", "Nombres": "ESCULTURA - ESPEJOS DE AGUA Y ESCULTURAS PLAZA DE ANGOL (MH)", "POINT_X": -72.708841908, "POINT_Y": -37.7989486579}}, {"type": "Feature", "geometry": {"type": "Point", "coordinates": [-72.71681373799996, -37.797859926900024]}, "properties": {"CUT_REG": "09", "CUT_PROV": "092", "CUT_COM": "09201", "REGION": "La Araucan\u00eda", "PROVINCIA": "Malleco", "COMUNA": "Angol", "variable": "Sitios de Inter\u00e9s Tur\u00edstico", "Nombres": "MUSEO - MUSEO HIST\u00d3RICO JULIO ABASOLO", "POINT_X": -72.716813738, "POINT_Y": -37.7978599269}}, {"type": "Feature", "geometry": {"type": "Point", "coordinates": [-72.71601887700001, -37.79527625890003]}, "properties": {"CUT_REG": "09", "CUT_PROV": "092", "CUT_COM": "09201", "REGION": "La Araucan\u00eda", "PROVINCIA": "Malleco", "COMUNA": "Angol", "variable": "Sitios de Inter\u00e9s Tur\u00edstico", "Nombres": "ARQUITECTURA - CONVENTO SAN BUENAVENTURA", "POINT_X": -72.716018877, "POINT_Y": -37.7952762589}}, {"type": "Feature", "geometry": {"type": "Point", "coordinates": [-72.71511629100002, -37.7939791279]}, "properties": {"CUT_REG": "09", "CUT_PROV": "092", "CUT_COM": "09201", "REGION": "La Araucan\u00eda", "PROVINCIA": "Malleco", "COMUNA": "Angol", "variable": "Sitios de Inter\u00e9s Tur\u00edstico", "Nombres": "OTROS ARTESAN\u00cdA TRAD - CER\u00c1MICAS LABLEE", "POINT_X": -72.715116291, "POINT_Y": -37.7939791279}}, {"type": "Feature", "geometry": {"type": "Point", "coordinates": [-72.70302327199997, -37.787813885899965]}, "properties": {"CUT_REG": "09", "CUT_PROV": "092", "CUT_COM": "09201", "REGION": "La Araucan\u00eda", "PROVINCIA": "Malleco", "COMUNA": "Angol", "variable": "Sitios de Inter\u00e9s Tur\u00edstico", "Nombres": "CARNAVAL O FIESTA COSTUMBRISTA - CANTAR CAMPESINO DE VEGAS BLANCAS", "POINT_X": -72.703023272, "POINT_Y": -37.7878138859}}, {"type": "Feature", "geometry": {"type": "Point", "coordinates": [-72.58331255800003, -37.67178616890002]}, "properties": {"CUT_REG": "09", "CUT_PROV": "092", "CUT_COM": "09209", "REGION": "La Araucan\u00eda", "PROVINCIA": "Malleco", "COMUNA": "Renaico", "variable": "Sitios de Inter\u00e9s Tur\u00edstico", "Nombres": "CARNAVAL O FIESTA COSTUMBRISTA - MUESTRA COSTUMBRISTA DE RENAICO", "POINT_X": -72.583312558, "POINT_Y": -37.6717861689}}, {"type": "Feature", "geometry": {"type": "Point", "coordinates": [-72.65712652599996, -37.671116588899956]}, "properties": {"CUT_REG": "09", "CUT_PROV": "092", "CUT_COM": "09209", "REGION": "La Araucan\u00eda", "PROVINCIA": "Malleco", "COMUNA": "Renaico", "variable": "Sitios de Inter\u00e9s Tur\u00edstico", "Nombres": "CERRO - CERRO TOLPAN", "POINT_X": -72.657126526, "POINT_Y": -37.6711165889}}, {"type": "Feature", "geometry": {"type": "Point", "coordinates": [-72.58906206700004, -37.66963303890004]}, "properties": {"CUT_REG": "09", "CUT_PROV": "092", "CUT_COM": "09209", "REGION": "La Araucan\u00eda", "PROVINCIA": "Malleco", "COMUNA": "Renaico", "variable": "Sitios de Inter\u00e9s Tur\u00edstico", "Nombres": "PLAYA O BALNEARIO - BALNEARIO MUNICIPAL DE RENAICO", "POINT_X": -72.589062067, "POINT_Y": -37.6696330389}}]}