{"type": "FeatureCollection", "features": [{"type": "Feature", "geometry": {"type": "Point", "coordinates": [-71.85777299999998, -42.075889999999994]}, "properties": {"CUT_REG": "10", "CUT_PROV": "101", "CUT_COM": "10103", "REGION": "Los Lagos", "PROVINCIA": "Llanquihue", "COMUNA": "Cocham\u00f3", "variable": "Centros de Educaci\u00f3n B\u00e1sica y Media", "Nombres": "ESCUELA RURAL PASO EL BOLSON", "POINT_X": -71.857773, "POINT_Y": -42.07589}}, {"type": "Feature", "geometry": {"type": "Point", "coordinates": [-73.14595800000001, -41.91054899999996]}, "properties": {"CUT_REG": "10", "CUT_PROV": "101", "CUT_COM": "10102", "REGION": "Los Lagos", "PROVINCIA": "Llanquihue", "COMUNA": "Calbuco", "variable": "Centros de Educaci\u00f3n B\u00e1sica y Media", "Nombres": "ESCUELA RURAL EL FARO ILTO", "POINT_X": -73.145958, "POINT_Y": -41.910549}}, {"type": "Feature", "geometry": {"type": "Point", "coordinates": [-73.10784100000002, -41.90298799999999]}, "properties": {"CUT_REG": "10", "CUT_PROV": "101", "CUT_COM": "10102", "REGION": "Los Lagos", "PROVINCIA": "Llanquihue", "COMUNA": "Calbuco", "variable": "Centros de Educaci\u00f3n B\u00e1sica y Media", "Nombres": "ESCUELA RURAL ISLA TABON", "POINT_X": -73.107841, "POINT_Y": -41.902988}}, {"type": "Feature", "geometry": {"type": "Point", "coordinates": [-73.16652699999997, -41.87409999999997]}, "properties": {"CUT_REG": "10", "CUT_PROV": "101", "CUT_COM": "10102", "REGION": "Los Lagos", "PROVINCIA": "Llanquihue", "COMUNA": "Calbuco", "variable": "Centros de Educaci\u00f3n B\u00e1sica y Media", "Nombres": "ESCUELA RURAL LOS BAJOS DE MAYELHUE", "POINT_X": -73.166527, "POINT_Y": -41.8741}}, {"type": "Feature", "geometry": {"type": "Point", "coordinates": [-72.90496800000001, -41.87356199999995]}, "properties": {"CUT_REG": "10", "CUT_PROV": "101", "CUT_COM": "10102", "REGION": "Los Lagos", "PROVINCIA": "Llanquihue", "COMUNA": "Calbuco", "variable": "Centros de Educaci\u00f3n B\u00e1sica y Media", "Nombres": "ESCUELA RURAL QUEULLIN", "POINT_X": -72.904968, "POINT_Y": -41.873562}}, {"type": "Feature", "geometry": {"type": "Point", "coordinates": [-71.93836200000003, -41.87237900000004]}, "properties": {"CUT_REG": "10", "CUT_PROV": "101", "CUT_COM": "10103", "REGION": "Los Lagos", "PROVINCIA": "Llanquihue", "COMUNA": "Cocham\u00f3", "variable": "Centros de Educaci\u00f3n B\u00e1sica y Media", "Nombres": "ESCUELA RURAL CAPIT\u00c0N DE BANDADA CARLOS RODRIGUEZ PARIS", "POINT_X": -71.938362, "POINT_Y": -41.872379}}, {"type": "Feature", "geometry": {"type": "Point", "coordinates": [-72.99539900000002, -41.857539999999986]}, "properties": {"CUT_REG": "10", "CUT_PROV": "101", "CUT_COM": "10102", "REGION": "Los Lagos", "PROVINCIA": "Llanquihue", "COMUNA": "Calbuco", "variable": "Centros de Educaci\u00f3n B\u00e1sica y Media", "Nombres": "ESCUELA RURAL MI PATRIA", "POINT_X": -72.995399, "POINT_Y": -41.85754}}, {"type": "Feature", "geometry": {"type": "Point", "coordinates": [-73.14922299999998, -41.834510999999964]}, "properties": {"CUT_REG": "10", "CUT_PROV": "101", "CUT_COM": "10102", "REGION": "Los Lagos", "PROVINCIA": "Llanquihue", "COMUNA": "Calbuco", "variable": "Centros de Educaci\u00f3n B\u00e1sica y Media", "Nombres": "ESCUELA RURAL QUENU", "POINT_X": -73.149223, "POINT_Y": -41.834511}}, {"type": "Feature", "geometry": {"type": "Point", "coordinates": [-73.09330699999998, -41.830261000000036]}, "properties": {"CUT_REG": "10", "CUT_PROV": "101", "CUT_COM": "10102", "REGION": "Los Lagos", "PROVINCIA": "Llanquihue", "COMUNA": "Calbuco", "variable": "Centros de Educaci\u00f3n B\u00e1sica y Media", "Nombres": "ESCUELA RURAL ISLA CHIDHUAPI", "POINT_X": -73.093307, "POINT_Y": -41.830261}}, {"type": "Feature", "geometry": {"type": "Point", "coordinates": [-73.07469199999996, -41.818999999999996]}, "properties": {"CUT_REG": "10", "CUT_PROV": "101", "CUT_COM": "10102", "REGION": "Los Lagos", "PROVINCIA": "Llanquihue", "COMUNA": "Calbuco", "variable": "Centros de Educaci\u00f3n B\u00e1sica y Media", "Nombres": "ESCUELA RURAL EL SEMBRADOR", "POINT_X": -73.074692, "POINT_Y": -41.819}}, {"type": "Feature", "geometry": {"type": "Point", "coordinates": [-73.32887299999999, -41.811370999999994]}, "properties": {"CUT_REG": "10", "CUT_PROV": "101", "CUT_COM": "10102", "REGION": "Los Lagos", "PROVINCIA": "Llanquihue", "COMUNA": "Calbuco", "variable": "Centros de Educaci\u00f3n B\u00e1sica y Media", "Nombres": "ESCUELA RURAL HUAPI ABTAO", "POINT_X": -73.328873, "POINT_Y": -41.811371}}, {"type": "Feature", "geometry": {"type": "Point", "coordinates": [-73.04895800000003, -41.81024899999998]}, "properties": {"CUT_REG": "10", "CUT_PROV": "101", "CUT_COM": "10102", "REGION": "Los Lagos", "PROVINCIA": "Llanquihue", "COMUNA": "Calbuco", "variable": "Centros de Educaci\u00f3n B\u00e1sica y Media", "Nombres": "ESCUELA RURAL CHAUQUEAR", "POINT_X": -73.048958, "POINT_Y": -41.810249}}, {"type": "Feature", "geometry": {"type": "Point", "coordinates": [-73.01267200000004, -41.80857800000001]}, "properties": {"CUT_REG": "10", "CUT_PROV": "101", "CUT_COM": "10102", "REGION": "Los Lagos", "PROVINCIA": "Llanquihue", "COMUNA": "Calbuco", "variable": "Centros de Educaci\u00f3n B\u00e1sica y Media", "Nombres": "ESCUELA RURAL ALONSO DE ERCILLA", "POINT_X": -73.012672, "POINT_Y": -41.808578}}, {"type": "Feature", "geometry": {"type": "Point", "coordinates": [-73.46418000000003, -41.791241000000035]}, "properties": {"CUT_REG": "10", "CUT_PROV": "101", "CUT_COM": "10102", "REGION": "Los Lagos", "PROVINCIA": "Llanquihue", "COMUNA": "Calbuco", "variable": "Centros de Educaci\u00f3n B\u00e1sica y Media", "Nombres": "COLEGIO ICEBERG", "POINT_X": -73.46418, "POINT_Y": -41.791241}}, {"type": "Feature", "geometry": {"type": "Point", "coordinates": [-73.375168, -41.791241000000035]}, "properties": {"CUT_REG": "10", "CUT_PROV": "101", "CUT_COM": "10102", "REGION": "Los Lagos", "PROVINCIA": "Llanquihue", "COMUNA": "Calbuco", "variable": "Centros de Educaci\u00f3n B\u00e1sica y Media", "Nombres": "ESCUELA RURAL CHAYAHUE", "POINT_X": -73.375168, "POINT_Y": -41.791241}}, {"type": "Feature", "geometry": {"type": "Point", "coordinates": [-73.45747400000002, -41.789889999999986]}, "properties": {"CUT_REG": "10", "CUT_PROV": "101", "CUT_COM": "10102", "REGION": "Los Lagos", "PROVINCIA": "Llanquihue", "COMUNA": "Calbuco", "variable": "Centros de Educaci\u00f3n B\u00e1sica y Media", "Nombres": "ESCUELA RURAL PARGUA", "POINT_X": -73.457474, "POINT_Y": -41.78989}}, {"type": "Feature", "geometry": {"type": "Point", "coordinates": [-73.07614899999999, -41.78566000000002]}, "properties": {"CUT_REG": "10", "CUT_PROV": "101", "CUT_COM": "10102", "REGION": "Los Lagos", "PROVINCIA": "Llanquihue", "COMUNA": "Calbuco", "variable": "Centros de Educaci\u00f3n B\u00e1sica y Media", "Nombres": "ESCUELA RURAL MACHIL", "POINT_X": -73.076149, "POINT_Y": -41.78566}}, {"type": "Feature", "geometry": {"type": "Point", "coordinates": [-73.14157100000003, -41.78438900000002]}, "properties": {"CUT_REG": "10", "CUT_PROV": "101", "CUT_COM": "10102", "REGION": "Los Lagos", "PROVINCIA": "Llanquihue", "COMUNA": "Calbuco", "variable": "Centros de Educaci\u00f3n B\u00e1sica y Media", "Nombres": "ESCUELA LIBERTADOR GENERAL BERNARDO O\u00b4HIGGINS RIQUELME", "POINT_X": -73.141571, "POINT_Y": -41.784389}}, {"type": "Feature", "geometry": {"type": "Point", "coordinates": [-73.13493300000005, -41.775699999999986]}, "properties": {"CUT_REG": "10", "CUT_PROV": "101", "CUT_COM": "10102", "REGION": "Los Lagos", "PROVINCIA": "Llanquihue", "COMUNA": "Calbuco", "variable": "Centros de Educaci\u00f3n B\u00e1sica y Media", "Nombres": "COLEGIO ESTRELLA DE BELEN", "POINT_X": -73.134933, "POINT_Y": -41.7757}}, {"type": "Feature", "geometry": {"type": "Point", "coordinates": [-73.13447999999995, -41.77374599999996]}, "properties": {"CUT_REG": "10", "CUT_PROV": "101", "CUT_COM": "10102", "REGION": "Los Lagos", "PROVINCIA": "Llanquihue", "COMUNA": "Calbuco", "variable": "Centros de Educaci\u00f3n B\u00e1sica y Media", "Nombres": "ESCUELA ESPECIAL DE LENGUAJE MANQUEHUE", "POINT_X": -73.13448, "POINT_Y": -41.773746}}, {"type": "Feature", "geometry": {"type": "Point", "coordinates": [-73.12856300000003, -41.77352900000003]}, "properties": {"CUT_REG": "10", "CUT_PROV": "101", "CUT_COM": "10102", "REGION": "Los Lagos", "PROVINCIA": "Llanquihue", "COMUNA": "Calbuco", "variable": "Centros de Educaci\u00f3n B\u00e1sica y Media", "Nombres": "ESCUELA EULOGIO GOYCOLEA GARAY", "POINT_X": -73.128563, "POINT_Y": -41.773529}}, {"type": "Feature", "geometry": {"type": "Point", "coordinates": [-73.12669400000001, -41.772789]}, "properties": {"CUT_REG": "10", "CUT_PROV": "101", "CUT_COM": "10102", "REGION": "Los Lagos", "PROVINCIA": "Llanquihue", "COMUNA": "Calbuco", "variable": "Centros de Educaci\u00f3n B\u00e1sica y Media", "Nombres": "LICEO POLITECNICO CALBUCO", "POINT_X": -73.126694, "POINT_Y": -41.772789}}, {"type": "Feature", "geometry": {"type": "Point", "coordinates": [-73.13432300000002, -41.77225099999998]}, "properties": {"CUT_REG": "10", "CUT_PROV": "101", "CUT_COM": "10102", "REGION": "Los Lagos", "PROVINCIA": "Llanquihue", "COMUNA": "Calbuco", "variable": "Centros de Educaci\u00f3n B\u00e1sica y Media", "Nombres": "COLEGIO CALBUCO", "POINT_X": -73.134323, "POINT_Y": -41.772251}}, {"type": "Feature", "geometry": {"type": "Point", "coordinates": [-73.07322699999997, -41.77125899999997]}, "properties": {"CUT_REG": "10", "CUT_PROV": "101", "CUT_COM": "10102", "REGION": "Los Lagos", "PROVINCIA": "Llanquihue", "COMUNA": "Calbuco", "variable": "Centros de Educaci\u00f3n B\u00e1sica y Media", "Nombres": "ESCUELA RURAL MARIO MORALES BECA", "POINT_X": -73.073227, "POINT_Y": -41.771259}}, {"type": "Feature", "geometry": {"type": "Point", "coordinates": [-73.12858999999995, -41.77105]}, "properties": {"CUT_REG": "10", "CUT_PROV": "101", "CUT_COM": "10102", "REGION": "Los Lagos", "PROVINCIA": "Llanquihue", "COMUNA": "Calbuco", "variable": "Centros de Educaci\u00f3n B\u00e1sica y Media", "Nombres": "COLEGIO ESPECIAL LOS ARRAYANES", "POINT_X": -73.12859, "POINT_Y": -41.77105}}, {"type": "Feature", "geometry": {"type": "Point", "coordinates": [-73.27030199999997, -41.77077100000001]}, "properties": {"CUT_REG": "10", "CUT_PROV": "101", "CUT_COM": "10102", "REGION": "Los Lagos", "PROVINCIA": "Llanquihue", "COMUNA": "Calbuco", "variable": "Centros de Educaci\u00f3n B\u00e1sica y Media", "Nombres": "ESCUELA RURAL EL DAO", "POINT_X": -73.270302, "POINT_Y": -41.770771}}, {"type": "Feature", "geometry": {"type": "Point", "coordinates": [-73.13182999999998, -41.769730000000024]}, "properties": {"CUT_REG": "10", "CUT_PROV": "101", "CUT_COM": "10102", "REGION": "Los Lagos", "PROVINCIA": "Llanquihue", "COMUNA": "Calbuco", "variable": "Centros de Educaci\u00f3n B\u00e1sica y Media", "Nombres": "CENTRO DE EDUCACION INTEGRADA DE ADULTOS AEK", "POINT_X": -73.13183, "POINT_Y": -41.76973}}, {"type": "Feature", "geometry": {"type": "Point", "coordinates": [-73.13217999999998, -41.76906999999996]}, "properties": {"CUT_REG": "10", "CUT_PROV": "101", "CUT_COM": "10102", "REGION": "Los Lagos", "PROVINCIA": "Llanquihue", "COMUNA": "Calbuco", "variable": "Centros de Educaci\u00f3n B\u00e1sica y Media", "Nombres": "ESCUELA ESPECIAL DE LENGUAJE CRECER", "POINT_X": -73.13218, "POINT_Y": -41.76907}}, {"type": "Feature", "geometry": {"type": "Point", "coordinates": [-73.310516, -41.76374100000001]}, "properties": {"CUT_REG": "10", "CUT_PROV": "101", "CUT_COM": "10102", "REGION": "Los Lagos", "PROVINCIA": "Llanquihue", "COMUNA": "Calbuco", "variable": "Centros de Educaci\u00f3n B\u00e1sica y Media", "Nombres": "ESCUELA RURAL AGUANTAO", "POINT_X": -73.310516, "POINT_Y": -41.763741}}, {"type": "Feature", "geometry": {"type": "Point", "coordinates": [-73.35208099999998, -41.76340899999998]}, "properties": {"CUT_REG": "10", "CUT_PROV": "101", "CUT_COM": "10102", "REGION": "Los Lagos", "PROVINCIA": "Llanquihue", "COMUNA": "Calbuco", "variable": "Centros de Educaci\u00f3n B\u00e1sica y Media", "Nombres": "ESCUELA RURAL CARMEN MIRANDA NAVARRO", "POINT_X": -73.352081, "POINT_Y": -41.763409}}, {"type": "Feature", "geometry": {"type": "Point", "coordinates": [-73.15627300000003, -41.761810000000025]}, "properties": {"CUT_REG": "10", "CUT_PROV": "101", "CUT_COM": "10102", "REGION": "Los Lagos", "PROVINCIA": "Llanquihue", "COMUNA": "Calbuco", "variable": "Centros de Educaci\u00f3n B\u00e1sica y Media", "Nombres": "LICEO FRANCISCO HERNANDEZ ORTIZ-PIZARRO", "POINT_X": -73.156273, "POINT_Y": -41.76181}}, {"type": "Feature", "geometry": {"type": "Point", "coordinates": [-73.29647469499994, -41.756254344999974]}, "properties": {"CUT_REG": "10", "CUT_PROV": "101", "CUT_COM": "10102", "REGION": "Los Lagos", "PROVINCIA": "Llanquihue", "COMUNA": "Calbuco", "variable": "Centros de Educaci\u00f3n B\u00e1sica y Media", "Nombres": "ESCUELA RURAL COLEGUAL", "POINT_X": -73.296474695, "POINT_Y": -41.756254345}}, {"type": "Feature", "geometry": {"type": "Point", "coordinates": [-73.14916199999999, -41.75616099999998]}, "properties": {"CUT_REG": "10", "CUT_PROV": "101", "CUT_COM": "10102", "REGION": "Los Lagos", "PROVINCIA": "Llanquihue", "COMUNA": "Calbuco", "variable": "Centros de Educaci\u00f3n B\u00e1sica y Media", "Nombres": "ESCUELA RURAL SAN RAFAEL", "POINT_X": -73.149162, "POINT_Y": -41.756161}}, {"type": "Feature", "geometry": {"type": "Point", "coordinates": [-73.60778000000002, -41.755280000000006]}, "properties": {"CUT_REG": "10", "CUT_PROV": "101", "CUT_COM": "10108", "REGION": "Los Lagos", "PROVINCIA": "Llanquihue", "COMUNA": "Maull\u00edn", "variable": "Centros de Educaci\u00f3n B\u00e1sica y Media", "Nombres": "ESCUELA RURAL ASTILLEROS", "POINT_X": -73.60778, "POINT_Y": -41.75528}}, {"type": "Feature", "geometry": {"type": "Point", "coordinates": [-73.40756999999999, -41.75437899999997]}, "properties": {"CUT_REG": "10", "CUT_PROV": "101", "CUT_COM": "10102", "REGION": "Los Lagos", "PROVINCIA": "Llanquihue", "COMUNA": "Calbuco", "variable": "Centros de Educaci\u00f3n B\u00e1sica y Media", "Nombres": "ESCUELA RURAL EL AVELLANAL", "POINT_X": -73.40757, "POINT_Y": -41.754379}}, {"type": "Feature", "geometry": {"type": "Point", "coordinates": [-73.139603, -41.75295999999999]}, "properties": {"CUT_REG": "10", "CUT_PROV": "101", "CUT_COM": "10102", "REGION": "Los Lagos", "PROVINCIA": "Llanquihue", "COMUNA": "Calbuco", "variable": "Centros de Educaci\u00f3n B\u00e1sica y Media", "Nombres": "ESCUELA RURAL EL ROSARIO", "POINT_X": -73.139603, "POINT_Y": -41.75296}}, {"type": "Feature", "geometry": {"type": "Point", "coordinates": [-73.70677199999997, -41.748310000000004]}, "properties": {"CUT_REG": "10", "CUT_PROV": "101", "CUT_COM": "10108", "REGION": "Los Lagos", "PROVINCIA": "Llanquihue", "COMUNA": "Maull\u00edn", "variable": "Centros de Educaci\u00f3n B\u00e1sica y Media", "Nombres": "ESCUELA RURAL FRANCISCO CORTES OJEDA", "POINT_X": -73.706772, "POINT_Y": -41.74831}}, {"type": "Feature", "geometry": {"type": "Point", "coordinates": [-73.70568100000003, -41.742820999999964]}, "properties": {"CUT_REG": "10", "CUT_PROV": "101", "CUT_COM": "10108", "REGION": "Los Lagos", "PROVINCIA": "Llanquihue", "COMUNA": "Maull\u00edn", "variable": "Centros de Educaci\u00f3n B\u00e1sica y Media", "Nombres": "ESCUELA NUEVA PENSYLVANIA", "POINT_X": -73.705681, "POINT_Y": -41.742821}}, {"type": "Feature", "geometry": {"type": "Point", "coordinates": [-73.69118999999999, -41.742427999999954]}, "properties": {"CUT_REG": "10", "CUT_PROV": "101", "CUT_COM": "10108", "REGION": "Los Lagos", "PROVINCIA": "Llanquihue", "COMUNA": "Maull\u00edn", "variable": "Centros de Educaci\u00f3n B\u00e1sica y Media", "Nombres": "ESCUELA ESPECIAL DE LENGUAJE LANKUYEN", "POINT_X": -73.69119, "POINT_Y": -41.742428}}, {"type": "Feature", "geometry": {"type": "Point", "coordinates": [-73.73449, -41.74093]}, "properties": {"CUT_REG": "10", "CUT_PROV": "101", "CUT_COM": "10108", "REGION": "Los Lagos", "PROVINCIA": "Llanquihue", "COMUNA": "Maull\u00edn", "variable": "Centros de Educaci\u00f3n B\u00e1sica y Media", "Nombres": "ESCUELA ESPECIAL DE LENGUAJE LANKUYEN CARELMAPU", "POINT_X": -73.73449, "POINT_Y": -41.74093}}, {"type": "Feature", "geometry": {"type": "Point", "coordinates": [-73.26332100000003, -41.74043999999996]}, "properties": {"CUT_REG": "10", "CUT_PROV": "101", "CUT_COM": "10102", "REGION": "Los Lagos", "PROVINCIA": "Llanquihue", "COMUNA": "Calbuco", "variable": "Centros de Educaci\u00f3n B\u00e1sica y Media", "Nombres": "ESCUELA RURAL PE\u00d1ASMO", "POINT_X": -73.263321, "POINT_Y": -41.74044}}, {"type": "Feature", "geometry": {"type": "Point", "coordinates": [-73.698013, -41.74012000000003]}, "properties": {"CUT_REG": "10", "CUT_PROV": "101", "CUT_COM": "10108", "REGION": "Los Lagos", "PROVINCIA": "Llanquihue", "COMUNA": "Maull\u00edn", "variable": "Centros de Educaci\u00f3n B\u00e1sica y Media", "Nombres": "ESCUELA PARTICULAR CANDELARIA", "POINT_X": -73.698013, "POINT_Y": -41.74012}}, {"type": "Feature", "geometry": {"type": "Point", "coordinates": [-73.11261699999994, -41.73925]}, "properties": {"CUT_REG": "10", "CUT_PROV": "101", "CUT_COM": "10102", "REGION": "Los Lagos", "PROVINCIA": "Llanquihue", "COMUNA": "Calbuco", "variable": "Centros de Educaci\u00f3n B\u00e1sica y Media", "Nombres": "ESCUELA RURAL SIETE COLINAS", "POINT_X": -73.112617, "POINT_Y": -41.73925}}, {"type": "Feature", "geometry": {"type": "Point", "coordinates": [-73.05894469999998, -41.73518752999995]}, "properties": {"CUT_REG": "10", "CUT_PROV": "101", "CUT_COM": "10102", "REGION": "Los Lagos", "PROVINCIA": "Llanquihue", "COMUNA": "Calbuco", "variable": "Centros de Educaci\u00f3n B\u00e1sica y Media", "Nombres": "ESCUELA RURAL SAN RAMON", "POINT_X": -73.0589447, "POINT_Y": -41.73518753}}, {"type": "Feature", "geometry": {"type": "Point", "coordinates": [-73.69158200000001, -41.73342900000002]}, "properties": {"CUT_REG": "10", "CUT_PROV": "101", "CUT_COM": "10108", "REGION": "Los Lagos", "PROVINCIA": "Llanquihue", "COMUNA": "Maull\u00edn", "variable": "Centros de Educaci\u00f3n B\u00e1sica y Media", "Nombres": "LICEO CARELMAPU", "POINT_X": -73.691582, "POINT_Y": -41.733429}}, {"type": "Feature", "geometry": {"type": "Point", "coordinates": [-73.211929, -41.73310099999998]}, "properties": {"CUT_REG": "10", "CUT_PROV": "101", "CUT_COM": "10102", "REGION": "Los Lagos", "PROVINCIA": "Llanquihue", "COMUNA": "Calbuco", "variable": "Centros de Educaci\u00f3n B\u00e1sica y Media", "Nombres": "ESCUELA RURAL DAITAO", "POINT_X": -73.211929, "POINT_Y": -41.733101}}, {"type": "Feature", "geometry": {"type": "Point", "coordinates": [-73.12526699999998, -41.725990000000024]}, "properties": {"CUT_REG": "10", "CUT_PROV": "101", "CUT_COM": "10102", "REGION": "Los Lagos", "PROVINCIA": "Llanquihue", "COMUNA": "Calbuco", "variable": "Centros de Educaci\u00f3n B\u00e1sica y Media", "Nombres": "ESCUELA PARTICULAR N. 293 LUCILA GODOY ALCAYAGA", "POINT_X": -73.125267, "POINT_Y": -41.72599}}, {"type": "Feature", "geometry": {"type": "Point", "coordinates": [-72.48354299999997, -41.72200000000002]}, "properties": {"CUT_REG": "10", "CUT_PROV": "101", "CUT_COM": "10103", "REGION": "Los Lagos", "PROVINCIA": "Llanquihue", "COMUNA": "Cocham\u00f3", "variable": "Centros de Educaci\u00f3n B\u00e1sica y Media", "Nombres": "ESCUELA RURAL LITORAL DE LLAGUEPE", "POINT_X": -72.483543, "POINT_Y": -41.722}}, {"type": "Feature", "geometry": {"type": "Point", "coordinates": [-73.180946, -41.72102000000003]}, "properties": {"CUT_REG": "10", "CUT_PROV": "101", "CUT_COM": "10102", "REGION": "Los Lagos", "PROVINCIA": "Llanquihue", "COMUNA": "Calbuco", "variable": "Centros de Educaci\u00f3n B\u00e1sica y Media", "Nombres": "ESCUELA RURAL EL YALE", "POINT_X": -73.180946, "POINT_Y": -41.72102}}, {"type": "Feature", "geometry": {"type": "Point", "coordinates": [-73.146851, -41.714081000000014]}, "properties": {"CUT_REG": "10", "CUT_PROV": "101", "CUT_COM": "10102", "REGION": "Los Lagos", "PROVINCIA": "Llanquihue", "COMUNA": "Calbuco", "variable": "Centros de Educaci\u00f3n B\u00e1sica y Media", "Nombres": "ESCUELA RURAL ESTERO HUITO", "POINT_X": -73.146851, "POINT_Y": -41.714081}}, {"type": "Feature", "geometry": {"type": "Point", "coordinates": [-72.98148299999995, -41.71355799999999]}, "properties": {"CUT_REG": "10", "CUT_PROV": "101", "CUT_COM": "10102", "REGION": "Los Lagos", "PROVINCIA": "Llanquihue", "COMUNA": "Calbuco", "variable": "Centros de Educaci\u00f3n B\u00e1sica y Media", "Nombres": "ESCUELA RURAL CHUCAGUA", "POINT_X": -72.981483, "POINT_Y": -41.713558}}, {"type": "Feature", "geometry": {"type": "Point", "coordinates": [-73.24247699999997, -41.70898100000001]}, "properties": {"CUT_REG": "10", "CUT_PROV": "101", "CUT_COM": "10102", "REGION": "Los Lagos", "PROVINCIA": "Llanquihue", "COMUNA": "Calbuco", "variable": "Centros de Educaci\u00f3n B\u00e1sica y Media", "Nombres": "ESCUELA RURAL HUAYUN BAJO", "POINT_X": -73.242477, "POINT_Y": -41.708981}}, {"type": "Feature", "geometry": {"type": "Point", "coordinates": [-72.92694900000001, -41.70798099999996]}, "properties": {"CUT_REG": "10", "CUT_PROV": "101", "CUT_COM": "10102", "REGION": "Los Lagos", "PROVINCIA": "Llanquihue", "COMUNA": "Calbuco", "variable": "Centros de Educaci\u00f3n B\u00e1sica y Media", "Nombres": "ESCUELA RURAL PEDRO BARRIENTOS BARRIENTOS", "POINT_X": -72.926949, "POINT_Y": -41.707981}}, {"type": "Feature", "geometry": {"type": "Point", "coordinates": [-73.43972, -41.70055000000001]}, "properties": {"CUT_REG": "10", "CUT_PROV": "101", "CUT_COM": "10108", "REGION": "Los Lagos", "PROVINCIA": "Llanquihue", "COMUNA": "Maull\u00edn", "variable": "Centros de Educaci\u00f3n B\u00e1sica y Media", "Nombres": "ESCUELA RURAL MARIO ENRIQUE GUZMAN ACEVEDO", "POINT_X": -73.43972, "POINT_Y": -41.70055}}, {"type": "Feature", "geometry": {"type": "Point", "coordinates": [-73.098053, -41.697639000000024]}, "properties": {"CUT_REG": "10", "CUT_PROV": "101", "CUT_COM": "10102", "REGION": "Los Lagos", "PROVINCIA": "Llanquihue", "COMUNA": "Calbuco", "variable": "Centros de Educaci\u00f3n B\u00e1sica y Media", "Nombres": "ESCUELA RURAL EL ESTERO RULO", "POINT_X": -73.098053, "POINT_Y": -41.697639}}, {"type": "Feature", "geometry": {"type": "Point", "coordinates": [-72.64285299999997, -41.69404999999998]}, "properties": {"CUT_REG": "10", "CUT_PROV": "101", "CUT_COM": "10101", "REGION": "Los Lagos", "PROVINCIA": "Llanquihue", "COMUNA": "Puerto Montt", "variable": "Centros de Educaci\u00f3n B\u00e1sica y Media", "Nombres": "ESCUELA RURAL CALETA LA ARENA", "POINT_X": -72.642853, "POINT_Y": -41.69405}}, {"type": "Feature", "geometry": {"type": "Point", "coordinates": [-73.11033599999996, -41.687962000000034]}, "properties": {"CUT_REG": "10", "CUT_PROV": "101", "CUT_COM": "10102", "REGION": "Los Lagos", "PROVINCIA": "Llanquihue", "COMUNA": "Calbuco", "variable": "Centros de Educaci\u00f3n B\u00e1sica y Media", "Nombres": "ESCUELA PARTICULAR PROFESOR JOSE VELASQUEZ VARGAS", "POINT_X": -73.110336, "POINT_Y": -41.687962}}, {"type": "Feature", "geometry": {"type": "Point", "coordinates": [-73.08193999999996, -41.687110999999966]}, "properties": {"CUT_REG": "10", "CUT_PROV": "101", "CUT_COM": "10102", "REGION": "Los Lagos", "PROVINCIA": "Llanquihue", "COMUNA": "Calbuco", "variable": "Centros de Educaci\u00f3n B\u00e1sica y Media", "Nombres": "COLEGIO FRANCISCO HERNANDEZ ORTIZ", "POINT_X": -73.08194, "POINT_Y": -41.687111}}, {"type": "Feature", "geometry": {"type": "Point", "coordinates": [-72.38654299999999, -41.68606899999999]}, "properties": {"CUT_REG": "10", "CUT_PROV": "101", "CUT_COM": "10103", "REGION": "Los Lagos", "PROVINCIA": "Llanquihue", "COMUNA": "Cocham\u00f3", "variable": "Centros de Educaci\u00f3n B\u00e1sica y Media", "Nombres": "ESCUELA RURAL CLOTILDE ALMONACID OLAVARRIA", "POINT_X": -72.386543, "POINT_Y": -41.686069}}, {"type": "Feature", "geometry": {"type": "Point", "coordinates": [-72.93874399999999, -41.677669999999964]}, "properties": {"CUT_REG": "10", "CUT_PROV": "101", "CUT_COM": "10102", "REGION": "Los Lagos", "PROVINCIA": "Llanquihue", "COMUNA": "Calbuco", "variable": "Centros de Educaci\u00f3n B\u00e1sica y Media", "Nombres": "ESCUELA RURAL QUETROLAUQUEN", "POINT_X": -72.938744, "POINT_Y": -41.67767}}, {"type": "Feature", "geometry": {"type": "Point", "coordinates": [-73.54881300000002, -41.673808999999984]}, "properties": {"CUT_REG": "10", "CUT_PROV": "101", "CUT_COM": "10108", "REGION": "Los Lagos", "PROVINCIA": "Llanquihue", "COMUNA": "Maull\u00edn", "variable": "Centros de Educaci\u00f3n B\u00e1sica y Media", "Nombres": "ESCUELA RURAL FRANCISCO HERNANDEZ NAVARRO", "POINT_X": -73.548813, "POINT_Y": -41.673809}}, {"type": "Feature", "geometry": {"type": "Point", "coordinates": [-73.06259199999995, -41.673049999999975]}, "properties": {"CUT_REG": "10", "CUT_PROV": "101", "CUT_COM": "10101", "REGION": "Los Lagos", "PROVINCIA": "Llanquihue", "COMUNA": "Puerto Montt", "variable": "Centros de Educaci\u00f3n B\u00e1sica y Media", "Nombres": "ESCUELA RURAL HUELMO", "POINT_X": -73.062592, "POINT_Y": -41.67305}}, {"type": "Feature", "geometry": {"type": "Point", "coordinates": [-72.43068700000003, -41.67229800000002]}, "properties": {"CUT_REG": "10", "CUT_PROV": "101", "CUT_COM": "10103", "REGION": "Los Lagos", "PROVINCIA": "Llanquihue", "COMUNA": "Cocham\u00f3", "variable": "Centros de Educaci\u00f3n B\u00e1sica y Media", "Nombres": "ESCUELA RURAL JOHN KENNEDY", "POINT_X": -72.430687, "POINT_Y": -41.672298}}, {"type": "Feature", "geometry": {"type": "Point", "coordinates": [-73.13617700000003, -41.671360000000035]}, "properties": {"CUT_REG": "10", "CUT_PROV": "101", "CUT_COM": "10102", "REGION": "Los Lagos", "PROVINCIA": "Llanquihue", "COMUNA": "Calbuco", "variable": "Centros de Educaci\u00f3n B\u00e1sica y Media", "Nombres": "ESCUELA RURAL PUTENIO", "POINT_X": -73.136177, "POINT_Y": -41.67136}}, {"type": "Feature", "geometry": {"type": "Point", "coordinates": [-73.66145299999997, -41.665351999999956]}, "properties": {"CUT_REG": "10", "CUT_PROV": "101", "CUT_COM": "10108", "REGION": "Los Lagos", "PROVINCIA": "Llanquihue", "COMUNA": "Maull\u00edn", "variable": "Centros de Educaci\u00f3n B\u00e1sica y Media", "Nombres": "ESCUELA PARTICULAR RUBEN BASTIDAS", "POINT_X": -73.661453, "POINT_Y": -41.665352}}, {"type": "Feature", "geometry": {"type": "Point", "coordinates": [-72.29531099999997, -41.66273099999999]}, "properties": {"CUT_REG": "10", "CUT_PROV": "101", "CUT_COM": "10103", "REGION": "Los Lagos", "PROVINCIA": "Llanquihue", "COMUNA": "Cocham\u00f3", "variable": "Centros de Educaci\u00f3n B\u00e1sica y Media", "Nombres": "ESCUELA RURAL RIO PUELO", "POINT_X": -72.295311, "POINT_Y": -41.662731}}, {"type": "Feature", "geometry": {"type": "Point", "coordinates": [-73.31024900000003, -41.65517000000002]}, "properties": {"CUT_REG": "10", "CUT_PROV": "101", "CUT_COM": "10108", "REGION": "Los Lagos", "PROVINCIA": "Llanquihue", "COMUNA": "Maull\u00edn", "variable": "Centros de Educaci\u00f3n B\u00e1sica y Media", "Nombres": "ESCUELA RURAL LOS PINOS DEL EMPALME", "POINT_X": -73.310249, "POINT_Y": -41.65517}}, {"type": "Feature", "geometry": {"type": "Point", "coordinates": [-73.43222000000003, -41.65082900000002]}, "properties": {"CUT_REG": "10", "CUT_PROV": "101", "CUT_COM": "10108", "REGION": "Los Lagos", "PROVINCIA": "Llanquihue", "COMUNA": "Maull\u00edn", "variable": "Centros de Educaci\u00f3n B\u00e1sica y Media", "Nombres": "ESCUELA RURAL JUANITA GALLARDO", "POINT_X": -73.43222, "POINT_Y": -41.650829}}, {"type": "Feature", "geometry": {"type": "Point", "coordinates": [-72.27018699999998, -41.645821]}, "properties": {"CUT_REG": "10", "CUT_PROV": "101", "CUT_COM": "10103", "REGION": "Los Lagos", "PROVINCIA": "Llanquihue", "COMUNA": "Cocham\u00f3", "variable": "Centros de Educaci\u00f3n B\u00e1sica y Media", "Nombres": "ESCUELA RURAL SANTA AGUEDA", "POINT_X": -72.270187, "POINT_Y": -41.645821}}, {"type": "Feature", "geometry": {"type": "Point", "coordinates": [-73.66445199999995, -41.641270000000034]}, "properties": {"CUT_REG": "10", "CUT_PROV": "101", "CUT_COM": "10108", "REGION": "Los Lagos", "PROVINCIA": "Llanquihue", "COMUNA": "Maull\u00edn", "variable": "Centros de Educaci\u00f3n B\u00e1sica y Media", "Nombres": "ESCUELA RURAL JUANITA FERNANDEZ", "POINT_X": -73.664452, "POINT_Y": -41.64127}}, {"type": "Feature", "geometry": {"type": "Point", "coordinates": [-73.20194999999998, -41.63600199999998]}, "properties": {"CUT_REG": "10", "CUT_PROV": "101", "CUT_COM": "10102", "REGION": "Los Lagos", "PROVINCIA": "Llanquihue", "COMUNA": "Calbuco", "variable": "Centros de Educaci\u00f3n B\u00e1sica y Media", "Nombres": "ESCUELA RURAL LA CAMPANA", "POINT_X": -73.20195, "POINT_Y": -41.636002}}, {"type": "Feature", "geometry": {"type": "Point", "coordinates": [-72.66513100000003, -41.627818999999974]}, "properties": {"CUT_REG": "10", "CUT_PROV": "101", "CUT_COM": "10101", "REGION": "Los Lagos", "PROVINCIA": "Llanquihue", "COMUNA": "Puerto Montt", "variable": "Centros de Educaci\u00f3n B\u00e1sica y Media", "Nombres": "ESCUEAL RURAL CHAICAS", "POINT_X": -72.665131, "POINT_Y": -41.627819}}, {"type": "Feature", "geometry": {"type": "Point", "coordinates": [-73.35488100000002, -41.62646099999997]}, "properties": {"CUT_REG": "10", "CUT_PROV": "101", "CUT_COM": "10108", "REGION": "Los Lagos", "PROVINCIA": "Llanquihue", "COMUNA": "Maull\u00edn", "variable": "Centros de Educaci\u00f3n B\u00e1sica y Media", "Nombres": "ESCUELA PARTICULAR N.211 LAS ENCINAS", "POINT_X": -73.354881, "POINT_Y": -41.626461}}, {"type": "Feature", "geometry": {"type": "Point", "coordinates": [-73.149452, -41.62453800000002]}, "properties": {"CUT_REG": "10", "CUT_PROV": "101", "CUT_COM": "10102", "REGION": "Los Lagos", "PROVINCIA": "Llanquihue", "COMUNA": "Calbuco", "variable": "Centros de Educaci\u00f3n B\u00e1sica y Media", "Nombres": "ESCUELA RURAL LOS PINIS", "POINT_X": -73.149452, "POINT_Y": -41.624538}}, {"type": "Feature", "geometry": {"type": "Point", "coordinates": [-73.08541100000001, -41.62223799999997]}, "properties": {"CUT_REG": "10", "CUT_PROV": "101", "CUT_COM": "10101", "REGION": "Los Lagos", "PROVINCIA": "Llanquihue", "COMUNA": "Puerto Montt", "variable": "Centros de Educaci\u00f3n B\u00e1sica y Media", "Nombres": "ESCUELA RURAL ILQUE", "POINT_X": -73.085411, "POINT_Y": -41.622238}}, {"type": "Feature", "geometry": {"type": "Point", "coordinates": [-73.53666700000002, -41.62028099999996]}, "properties": {"CUT_REG": "10", "CUT_PROV": "101", "CUT_COM": "10108", "REGION": "Los Lagos", "PROVINCIA": "Llanquihue", "COMUNA": "Maull\u00edn", "variable": "Centros de Educaci\u00f3n B\u00e1sica y Media", "Nombres": "ESCUELA RURAL CHUYAGUEN", "POINT_X": -73.536667, "POINT_Y": -41.620281}}, {"type": "Feature", "geometry": {"type": "Point", "coordinates": [-73.59404799999999, -41.61880099999998]}, "properties": {"CUT_REG": "10", "CUT_PROV": "101", "CUT_COM": "10108", "REGION": "Los Lagos", "PROVINCIA": "Llanquihue", "COMUNA": "Maull\u00edn", "variable": "Centros de Educaci\u00f3n B\u00e1sica y Media", "Nombres": "ESCUELA INTEGRADA JUAN PABLO II", "POINT_X": -73.594048, "POINT_Y": -41.618801}}, {"type": "Feature", "geometry": {"type": "Point", "coordinates": [-72.32547800000003, -41.61801900000003]}, "properties": {"CUT_REG": "10", "CUT_PROV": "101", "CUT_COM": "10103", "REGION": "Los Lagos", "PROVINCIA": "Llanquihue", "COMUNA": "Cocham\u00f3", "variable": "Centros de Educaci\u00f3n B\u00e1sica y Media", "Nombres": "ESCUELA RURAL ESTUARIO DE RELONCAVI", "POINT_X": -72.325478, "POINT_Y": -41.618019}}, {"type": "Feature", "geometry": {"type": "Point", "coordinates": [-73.595741, -41.617499999999986]}, "properties": {"CUT_REG": "10", "CUT_PROV": "101", "CUT_COM": "10108", "REGION": "Los Lagos", "PROVINCIA": "Llanquihue", "COMUNA": "Maull\u00edn", "variable": "Centros de Educaci\u00f3n B\u00e1sica y Media", "Nombres": "ESCUELA PARTICULAR PABLO NERUDA", "POINT_X": -73.595741, "POINT_Y": -41.6175}}, {"type": "Feature", "geometry": {"type": "Point", "coordinates": [-73.60114299999995, -41.617278999999996]}, "properties": {"CUT_REG": "10", "CUT_PROV": "101", "CUT_COM": "10108", "REGION": "Los Lagos", "PROVINCIA": "Llanquihue", "COMUNA": "Maull\u00edn", "variable": "Centros de Educaci\u00f3n B\u00e1sica y Media", "Nombres": "ESCUELA JOSE ABELARDO NU\u00d1EZ", "POINT_X": -73.601143, "POINT_Y": -41.617279}}, {"type": "Feature", "geometry": {"type": "Point", "coordinates": [-73.599953, -41.616180000000014]}, "properties": {"CUT_REG": "10", "CUT_PROV": "101", "CUT_COM": "10108", "REGION": "Los Lagos", "PROVINCIA": "Llanquihue", "COMUNA": "Maull\u00edn", "variable": "Centros de Educaci\u00f3n B\u00e1sica y Media", "Nombres": "ESCUELA ENCARNACION OLIVARES", "POINT_X": -73.599953, "POINT_Y": -41.61618}}, {"type": "Feature", "geometry": {"type": "Point", "coordinates": [-73.59920999999997, -41.61616999999998]}, "properties": {"CUT_REG": "10", "CUT_PROV": "101", "CUT_COM": "10108", "REGION": "Los Lagos", "PROVINCIA": "Llanquihue", "COMUNA": "Maull\u00edn", "variable": "Centros de Educaci\u00f3n B\u00e1sica y Media", "Nombres": "CENTRO DE EDUCACION DE ADULTOS PAULO FREIRE", "POINT_X": -73.59921, "POINT_Y": -41.61617}}, {"type": "Feature", "geometry": {"type": "Point", "coordinates": [-73.60086099999998, -41.615687999999984]}, "properties": {"CUT_REG": "10", "CUT_PROV": "101", "CUT_COM": "10108", "REGION": "Los Lagos", "PROVINCIA": "Llanquihue", "COMUNA": "Maull\u00edn", "variable": "Centros de Educaci\u00f3n B\u00e1sica y Media", "Nombres": "LICEO CAPITAN DE FRAGATA FRANCISCO VIDAL GORMAZ", "POINT_X": -73.600861, "POINT_Y": -41.615688}}, {"type": "Feature", "geometry": {"type": "Point", "coordinates": [-72.68982699999995, -41.60532000000002]}, "properties": {"CUT_REG": "10", "CUT_PROV": "101", "CUT_COM": "10101", "REGION": "Los Lagos", "PROVINCIA": "Llanquihue", "COMUNA": "Puerto Montt", "variable": "Centros de Educaci\u00f3n B\u00e1sica y Media", "Nombres": "ESCUELA RURAL LENCA", "POINT_X": -72.689827, "POINT_Y": -41.60532}}, {"type": "Feature", "geometry": {"type": "Point", "coordinates": [-73.58206200000001, -41.60440100000001]}, "properties": {"CUT_REG": "10", "CUT_PROV": "101", "CUT_COM": "10108", "REGION": "Los Lagos", "PROVINCIA": "Llanquihue", "COMUNA": "Maull\u00edn", "variable": "Centros de Educaci\u00f3n B\u00e1sica y Media", "Nombres": "ESCUELA PARTICULAR SAGRADO CORAZON", "POINT_X": -73.582062, "POINT_Y": -41.604401}}, {"type": "Feature", "geometry": {"type": "Point", "coordinates": [-73.597321, -41.60168100000003]}, "properties": {"CUT_REG": "10", "CUT_PROV": "101", "CUT_COM": "10108", "REGION": "Los Lagos", "PROVINCIA": "Llanquihue", "COMUNA": "Maull\u00edn", "variable": "Centros de Educaci\u00f3n B\u00e1sica y Media", "Nombres": "ESCUELA RURAL DORILA AGUILA AGUILAR", "POINT_X": -73.597321, "POINT_Y": -41.601681}}, {"type": "Feature", "geometry": {"type": "Point", "coordinates": [-73.10572100000003, -41.59368900000001]}, "properties": {"CUT_REG": "10", "CUT_PROV": "101", "CUT_COM": "10101", "REGION": "Los Lagos", "PROVINCIA": "Llanquihue", "COMUNA": "Puerto Montt", "variable": "Centros de Educaci\u00f3n B\u00e1sica y Media", "Nombres": "ESCUELA PARTICULAR N. 193 NUEVA PANITAO", "POINT_X": -73.105721, "POINT_Y": -41.593689}}, {"type": "Feature", "geometry": {"type": "Point", "coordinates": [-72.70227800000004, -41.58803899999998]}, "properties": {"CUT_REG": "10", "CUT_PROV": "101", "CUT_COM": "10101", "REGION": "Los Lagos", "PROVINCIA": "Llanquihue", "COMUNA": "Puerto Montt", "variable": "Centros de Educaci\u00f3n B\u00e1sica y Media", "Nombres": "ESCUELA RURAL METRI", "POINT_X": -72.702278, "POINT_Y": -41.588039}}, {"type": "Feature", "geometry": {"type": "Point", "coordinates": [-73.32138099999996, -41.587421000000006]}, "properties": {"CUT_REG": "10", "CUT_PROV": "101", "CUT_COM": "10108", "REGION": "Los Lagos", "PROVINCIA": "Llanquihue", "COMUNA": "Maull\u00edn", "variable": "Centros de Educaci\u00f3n B\u00e1sica y Media", "Nombres": "ESCUELA RURAL EL JARDIN DE OLMOPULLI", "POINT_X": -73.321381, "POINT_Y": -41.587421}}, {"type": "Feature", "geometry": {"type": "Point", "coordinates": [-73.626404, -41.58493000000004]}, "properties": {"CUT_REG": "10", "CUT_PROV": "101", "CUT_COM": "10108", "REGION": "Los Lagos", "PROVINCIA": "Llanquihue", "COMUNA": "Maull\u00edn", "variable": "Centros de Educaci\u00f3n B\u00e1sica y Media", "Nombres": "ESCUELA RURAL CHANGUE", "POINT_X": -73.626404, "POINT_Y": -41.58493}}, {"type": "Feature", "geometry": {"type": "Point", "coordinates": [-73.40537300000003, -41.58462099999997]}, "properties": {"CUT_REG": "10", "CUT_PROV": "101", "CUT_COM": "10108", "REGION": "Los Lagos", "PROVINCIA": "Llanquihue", "COMUNA": "Maull\u00edn", "variable": "Centros de Educaci\u00f3n B\u00e1sica y Media", "Nombres": "ESCUELA RURAL LOS ARCES", "POINT_X": -73.405373, "POINT_Y": -41.584621}}, {"type": "Feature", "geometry": {"type": "Point", "coordinates": [-72.99722300000005, -41.58379000000004]}, "properties": {"CUT_REG": "10", "CUT_PROV": "101", "CUT_COM": "10101", "REGION": "Los Lagos", "PROVINCIA": "Llanquihue", "COMUNA": "Puerto Montt", "variable": "Centros de Educaci\u00f3n B\u00e1sica y Media", "Nombres": "ESCUELA RURAL MAILLEN", "POINT_X": -72.997223, "POINT_Y": -41.58379}}, {"type": "Feature", "geometry": {"type": "Point", "coordinates": [-73.65351899999996, -41.58079900000001]}, "properties": {"CUT_REG": "10", "CUT_PROV": "101", "CUT_COM": "10108", "REGION": "Los Lagos", "PROVINCIA": "Llanquihue", "COMUNA": "Maull\u00edn", "variable": "Centros de Educaci\u00f3n B\u00e1sica y Media", "Nombres": "ESCUELA PARTICULAR N.322", "POINT_X": -73.653519, "POINT_Y": -41.580799}}, {"type": "Feature", "geometry": {"type": "Point", "coordinates": [-73.26361099999995, -41.576949999999954]}, "properties": {"CUT_REG": "10", "CUT_PROV": "101", "CUT_COM": "10108", "REGION": "Los Lagos", "PROVINCIA": "Llanquihue", "COMUNA": "Maull\u00edn", "variable": "Centros de Educaci\u00f3n B\u00e1sica y Media", "Nombres": "ESCUELA RURAL EL LLOLLE", "POINT_X": -73.263611, "POINT_Y": -41.57695}}, {"type": "Feature", "geometry": {"type": "Point", "coordinates": [-73.57228899999998, -41.56817999999997]}, "properties": {"CUT_REG": "10", "CUT_PROV": "101", "CUT_COM": "10108", "REGION": "Los Lagos", "PROVINCIA": "Llanquihue", "COMUNA": "Maull\u00edn", "variable": "Centros de Educaci\u00f3n B\u00e1sica y Media", "Nombres": "ESCUELA RURAL PADRE NELSON AGUILAR ESPA\u00d1A", "POINT_X": -73.572289, "POINT_Y": -41.56818}}, {"type": "Feature", "geometry": {"type": "Point", "coordinates": [-73.67749799999999, -41.56388900000002]}, "properties": {"CUT_REG": "10", "CUT_PROV": "101", "CUT_COM": "10108", "REGION": "Los Lagos", "PROVINCIA": "Llanquihue", "COMUNA": "Maull\u00edn", "variable": "Centros de Educaci\u00f3n B\u00e1sica y Media", "Nombres": "ESCUELA RURAL HILDA HUNQUEN", "POINT_X": -73.677498, "POINT_Y": -41.563889}}, {"type": "Feature", "geometry": {"type": "Point", "coordinates": [-72.99862700000003, -41.555739999999986]}, "properties": {"CUT_REG": "10", "CUT_PROV": "101", "CUT_COM": "10101", "REGION": "Los Lagos", "PROVINCIA": "Llanquihue", "COMUNA": "Puerto Montt", "variable": "Centros de Educaci\u00f3n B\u00e1sica y Media", "Nombres": "ESCUELA RURAL MAILLEN-PUQUELDON", "POINT_X": -72.998627, "POINT_Y": -41.55574}}, {"type": "Feature", "geometry": {"type": "Point", "coordinates": [-72.73325299999999, -41.55512999999996]}, "properties": {"CUT_REG": "10", "CUT_PROV": "101", "CUT_COM": "10101", "REGION": "Los Lagos", "PROVINCIA": "Llanquihue", "COMUNA": "Puerto Montt", "variable": "Centros de Educaci\u00f3n B\u00e1sica y Media", "Nombres": "ESCUELA RURAL CARE - CHILE", "POINT_X": -72.733253, "POINT_Y": -41.55513}}, {"type": "Feature", "geometry": {"type": "Point", "coordinates": [-72.311836, -41.552299000000026]}, "properties": {"CUT_REG": "10", "CUT_PROV": "101", "CUT_COM": "10103", "REGION": "Los Lagos", "PROVINCIA": "Llanquihue", "COMUNA": "Cocham\u00f3", "variable": "Centros de Educaci\u00f3n B\u00e1sica y Media", "Nombres": "ESCUELA RURAL SANTA TERESITA DE LOS ANDES", "POINT_X": -72.311836, "POINT_Y": -41.552299}}, {"type": "Feature", "geometry": {"type": "Point", "coordinates": [-73.46909300000002, -41.54735199999998]}, "properties": {"CUT_REG": "10", "CUT_PROV": "101", "CUT_COM": "10108", "REGION": "Los Lagos", "PROVINCIA": "Llanquihue", "COMUNA": "Maull\u00edn", "variable": "Centros de Educaci\u00f3n B\u00e1sica y Media", "Nombres": "ESCUELA RURAL PUELPUN", "POINT_X": -73.469093, "POINT_Y": -41.547352}}, {"type": "Feature", "geometry": {"type": "Point", "coordinates": [-71.93361649999996, -41.541833499999996]}, "properties": {"CUT_REG": "10", "CUT_PROV": "101", "CUT_COM": "10103", "REGION": "Los Lagos", "PROVINCIA": "Llanquihue", "COMUNA": "Cocham\u00f3", "variable": "Centros de Educaci\u00f3n B\u00e1sica y Media", "Nombres": "COLEGIO ALEMAN", "POINT_X": -71.9336165, "POINT_Y": -41.5418335}}, {"type": "Feature", "geometry": {"type": "Point", "coordinates": [-72.34065999999996, -41.53504899999997]}, "properties": {"CUT_REG": "10", "CUT_PROV": "101", "CUT_COM": "10103", "REGION": "Los Lagos", "PROVINCIA": "Llanquihue", "COMUNA": "Cocham\u00f3", "variable": "Centros de Educaci\u00f3n B\u00e1sica y Media", "Nombres": "ESCUELA RURAL CANUTILLAR", "POINT_X": -72.34066, "POINT_Y": -41.535049}}, {"type": "Feature", "geometry": {"type": "Point", "coordinates": [-73.71836099999997, -41.53450000000002]}, "properties": {"CUT_REG": "10", "CUT_PROV": "101", "CUT_COM": "10108", "REGION": "Los Lagos", "PROVINCIA": "Llanquihue", "COMUNA": "Maull\u00edn", "variable": "Centros de Educaci\u00f3n B\u00e1sica y Media", "Nombres": "ESCUELA RURAL  TEOFISTO CARCAMO SERON", "POINT_X": -73.718361, "POINT_Y": -41.5345}}, {"type": "Feature", "geometry": {"type": "Point", "coordinates": [-73.28533899999998, -41.53213100000003]}, "properties": {"CUT_REG": "10", "CUT_PROV": "101", "CUT_COM": "10101", "REGION": "Los Lagos", "PROVINCIA": "Llanquihue", "COMUNA": "Puerto Montt", "variable": "Centros de Educaci\u00f3n B\u00e1sica y Media", "Nombres": "ESCUELA RURAL SALTO GRANDE", "POINT_X": -73.285339, "POINT_Y": -41.532131}}, {"type": "Feature", "geometry": {"type": "Point", "coordinates": [-73.12185700000002, -41.528801000000016]}, "properties": {"CUT_REG": "10", "CUT_PROV": "101", "CUT_COM": "10101", "REGION": "Los Lagos", "PROVINCIA": "Llanquihue", "COMUNA": "Puerto Montt", "variable": "Centros de Educaci\u00f3n B\u00e1sica y Media", "Nombres": "ESCUELA RURAL TRAPEN", "POINT_X": -73.121857, "POINT_Y": -41.528801}}, {"type": "Feature", "geometry": {"type": "Point", "coordinates": [-73.70166799999998, -41.52806099999998]}, "properties": {"CUT_REG": "10", "CUT_PROV": "101", "CUT_COM": "10108", "REGION": "Los Lagos", "PROVINCIA": "Llanquihue", "COMUNA": "Maull\u00edn", "variable": "Centros de Educaci\u00f3n B\u00e1sica y Media", "Nombres": "ESCUELA RURAL SAN JORGE", "POINT_X": -73.701668, "POINT_Y": -41.528061}}, {"type": "Feature", "geometry": {"type": "Point", "coordinates": [-72.751404, -41.527709999999985]}, "properties": {"CUT_REG": "10", "CUT_PROV": "101", "CUT_COM": "10101", "REGION": "Los Lagos", "PROVINCIA": "Llanquihue", "COMUNA": "Puerto Montt", "variable": "Centros de Educaci\u00f3n B\u00e1sica y Media", "Nombres": "ESCUELA RURAL PICHIQUILLAIPE", "POINT_X": -72.751404, "POINT_Y": -41.52771}}, {"type": "Feature", "geometry": {"type": "Point", "coordinates": [-73.05003399999998, -41.52462000000003]}, "properties": {"CUT_REG": "10", "CUT_PROV": "101", "CUT_COM": "10101", "REGION": "Los Lagos", "PROVINCIA": "Llanquihue", "COMUNA": "Puerto Montt", "variable": "Centros de Educaci\u00f3n B\u00e1sica y Media", "Nombres": "ESCUELA RURAL CHINQUIHUE ALTO", "POINT_X": -73.050034, "POINT_Y": -41.52462}}, {"type": "Feature", "geometry": {"type": "Point", "coordinates": [-73.515717, -41.513000000000034]}, "properties": {"CUT_REG": "10", "CUT_PROV": "101", "CUT_COM": "10106", "REGION": "Los Lagos", "PROVINCIA": "Llanquihue", "COMUNA": "Los Muermos", "variable": "Centros de Educaci\u00f3n B\u00e1sica y Media", "Nombres": "ESCUELA RURAL HUAUTRUNES", "POINT_X": -73.515717, "POINT_Y": -41.513}}, {"type": "Feature", "geometry": {"type": "Point", "coordinates": [-73.24430099999998, -41.511767999999975]}, "properties": {"CUT_REG": "10", "CUT_PROV": "101", "CUT_COM": "10101", "REGION": "Los Lagos", "PROVINCIA": "Llanquihue", "COMUNA": "Puerto Montt", "variable": "Centros de Educaci\u00f3n B\u00e1sica y Media", "Nombres": "ESCUELA RURAL PELLINES DEL SALTO", "POINT_X": -73.244301, "POINT_Y": -41.511768}}, {"type": "Feature", "geometry": {"type": "Point", "coordinates": [-72.78830699999997, -41.508820000000036]}, "properties": {"CUT_REG": "10", "CUT_PROV": "101", "CUT_COM": "10101", "REGION": "Los Lagos", "PROVINCIA": "Llanquihue", "COMUNA": "Puerto Montt", "variable": "Centros de Educaci\u00f3n B\u00e1sica y Media", "Nombres": "COLEGIO TECNICO PROFESIONAL PIEDRA AZUL", "POINT_X": -72.788307, "POINT_Y": -41.50882}}, {"type": "Feature", "geometry": {"type": "Point", "coordinates": [-73.61195399999997, -41.50521100000003]}, "properties": {"CUT_REG": "10", "CUT_PROV": "101", "CUT_COM": "10106", "REGION": "Los Lagos", "PROVINCIA": "Llanquihue", "COMUNA": "Los Muermos", "variable": "Centros de Educaci\u00f3n B\u00e1sica y Media", "Nombres": "ESCUELA RURAL MANUEL GATICA ARRIAGADA", "POINT_X": -73.611954, "POINT_Y": -41.505211}}, {"type": "Feature", "geometry": {"type": "Point", "coordinates": [-71.85748299999996, -41.50476799999997]}, "properties": {"CUT_REG": "10", "CUT_PROV": "101", "CUT_COM": "10103", "REGION": "Los Lagos", "PROVINCIA": "Llanquihue", "COMUNA": "Cocham\u00f3", "variable": "Centros de Educaci\u00f3n B\u00e1sica y Media", "Nombres": "ESCUELA RURAL SOBERANIA", "POINT_X": -71.857483, "POINT_Y": -41.504768}}, {"type": "Feature", "geometry": {"type": "Point", "coordinates": [-72.98007999999996, -41.50022900000002]}, "properties": {"CUT_REG": "10", "CUT_PROV": "101", "CUT_COM": "10101", "REGION": "Los Lagos", "PROVINCIA": "Llanquihue", "COMUNA": "Puerto Montt", "variable": "Centros de Educaci\u00f3n B\u00e1sica y Media", "Nombres": "COLEGIO ISLA TENGLO", "POINT_X": -72.98008, "POINT_Y": -41.500229}}, {"type": "Feature", "geometry": {"type": "Point", "coordinates": [-73.77488699999998, -41.49902]}, "properties": {"CUT_REG": "10", "CUT_PROV": "101", "CUT_COM": "10106", "REGION": "Los Lagos", "PROVINCIA": "Llanquihue", "COMUNA": "Los Muermos", "variable": "Centros de Educaci\u00f3n B\u00e1sica y Media", "Nombres": "ESCUELA RURAL QUILLAGUA", "POINT_X": -73.774887, "POINT_Y": -41.49902}}, {"type": "Feature", "geometry": {"type": "Point", "coordinates": [-72.307114, -41.492999999999995]}, "properties": {"CUT_REG": "10", "CUT_PROV": "101", "CUT_COM": "10103", "REGION": "Los Lagos", "PROVINCIA": "Llanquihue", "COMUNA": "Cocham\u00f3", "variable": "Centros de Educaci\u00f3n B\u00e1sica y Media", "Nombres": "ESCUELA BASICA FRONTERIZA JUAN SOLER MANFREDINI", "POINT_X": -72.307114, "POINT_Y": -41.493}}, {"type": "Feature", "geometry": {"type": "Point", "coordinates": [-72.988213, -41.48981899999996]}, "properties": {"CUT_REG": "10", "CUT_PROV": "101", "CUT_COM": "10101", "REGION": "Los Lagos", "PROVINCIA": "Llanquihue", "COMUNA": "Puerto Montt", "variable": "Centros de Educaci\u00f3n B\u00e1sica y Media", "Nombres": "ESCUELA ANAHUAC", "POINT_X": -72.988213, "POINT_Y": -41.489819}}, {"type": "Feature", "geometry": {"type": "Point", "coordinates": [-73.00028999999996, -41.48599999999999]}, "properties": {"CUT_REG": "10", "CUT_PROV": "101", "CUT_COM": "10101", "REGION": "Los Lagos", "PROVINCIA": "Llanquihue", "COMUNA": "Puerto Montt", "variable": "Centros de Educaci\u00f3n B\u00e1sica y Media", "Nombres": "COLEGIO BOSQUEMAR", "POINT_X": -73.00029, "POINT_Y": -41.486}}, {"type": "Feature", "geometry": {"type": "Point", "coordinates": [-73.27488699999999, -41.48503899999997]}, "properties": {"CUT_REG": "10", "CUT_PROV": "101", "CUT_COM": "10101", "REGION": "Los Lagos", "PROVINCIA": "Llanquihue", "COMUNA": "Puerto Montt", "variable": "Centros de Educaci\u00f3n B\u00e1sica y Media", "Nombres": "ESCUELA RURAL LOS PIONEROS DE SALTO CHICO", "POINT_X": -73.274887, "POINT_Y": -41.485039}}, {"type": "Feature", "geometry": {"type": "Point", "coordinates": [-72.94957699999998, -41.48393999999999]}, "properties": {"CUT_REG": "10", "CUT_PROV": "101", "CUT_COM": "10101", "REGION": "Los Lagos", "PROVINCIA": "Llanquihue", "COMUNA": "Puerto Montt", "variable": "Centros de Educaci\u00f3n B\u00e1sica y Media", "Nombres": "ESCUELA RURAL \u00b7PUNTILLA TENGLO", "POINT_X": -72.949577, "POINT_Y": -41.48394}}, {"type": "Feature", "geometry": {"type": "Point", "coordinates": [-72.90257999999996, -41.48358200000003]}, "properties": {"CUT_REG": "10", "CUT_PROV": "101", "CUT_COM": "10101", "REGION": "Los Lagos", "PROVINCIA": "Llanquihue", "COMUNA": "Puerto Montt", "variable": "Centros de Educaci\u00f3n B\u00e1sica y Media", "Nombres": "ESCUELA RURAL PELLUCO", "POINT_X": -72.90258, "POINT_Y": -41.483582}}, {"type": "Feature", "geometry": {"type": "Point", "coordinates": [-73.67942000000002, -41.48339100000004]}, "properties": {"CUT_REG": "10", "CUT_PROV": "101", "CUT_COM": "10106", "REGION": "Los Lagos", "PROVINCIA": "Llanquihue", "COMUNA": "Los Muermos", "variable": "Centros de Educaci\u00f3n B\u00e1sica y Media", "Nombres": "ESCUELA RURAL PALIHUE", "POINT_X": -73.67942, "POINT_Y": -41.483391}}, {"type": "Feature", "geometry": {"type": "Point", "coordinates": [-72.854317, -41.48318099999998]}, "properties": {"CUT_REG": "10", "CUT_PROV": "101", "CUT_COM": "10101", "REGION": "Los Lagos", "PROVINCIA": "Llanquihue", "COMUNA": "Puerto Montt", "variable": "Centros de Educaci\u00f3n B\u00e1sica y Media", "Nombres": "ESCUELA RURAL LA CHAMIZA", "POINT_X": -72.854317, "POINT_Y": -41.483181}}, {"type": "Feature", "geometry": {"type": "Point", "coordinates": [-73.49044799999999, -41.48315450000001]}, "properties": {"CUT_REG": "10", "CUT_PROV": "101", "CUT_COM": "10106", "REGION": "Los Lagos", "PROVINCIA": "Llanquihue", "COMUNA": "Los Muermos", "variable": "Centros de Educaci\u00f3n B\u00e1sica y Media", "Nombres": "ESCUELA RURAL HUILLINCO", "POINT_X": -73.490448, "POINT_Y": -41.4831545}}, {"type": "Feature", "geometry": {"type": "Point", "coordinates": [-73.00909000000004, -41.48162500000002]}, "properties": {"CUT_REG": "10", "CUT_PROV": "101", "CUT_COM": "10101", "REGION": "Los Lagos", "PROVINCIA": "Llanquihue", "COMUNA": "Puerto Montt", "variable": "Centros de Educaci\u00f3n B\u00e1sica y Media", "Nombres": "LICEO TECNICO PROFESIONAL DE ADULTOS CORESOL DE PUERTO MONTT", "POINT_X": -73.00909, "POINT_Y": -41.481625}}, {"type": "Feature", "geometry": {"type": "Point", "coordinates": [-72.957436, -41.48107999999996]}, "properties": {"CUT_REG": "10", "CUT_PROV": "101", "CUT_COM": "10101", "REGION": "Los Lagos", "PROVINCIA": "Llanquihue", "COMUNA": "Puerto Montt", "variable": "Centros de Educaci\u00f3n B\u00e1sica y Media", "Nombres": "ESCUELA ESPECIAL DE LENGUAJE PEQUE\u00d1O ARCOIRIS", "POINT_X": -72.957436, "POINT_Y": -41.48108}}, {"type": "Feature", "geometry": {"type": "Point", "coordinates": [-73.20590200000004, -41.480578999999985]}, "properties": {"CUT_REG": "10", "CUT_PROV": "101", "CUT_COM": "10101", "REGION": "Los Lagos", "PROVINCIA": "Llanquihue", "COMUNA": "Puerto Montt", "variable": "Centros de Educaci\u00f3n B\u00e1sica y Media", "Nombres": "ESCUELA RURAL COLONIA EL GATO", "POINT_X": -73.205902, "POINT_Y": -41.480579}}, {"type": "Feature", "geometry": {"type": "Point", "coordinates": [-72.968117, -41.47924000000004]}, "properties": {"CUT_REG": "10", "CUT_PROV": "101", "CUT_COM": "10101", "REGION": "Los Lagos", "PROVINCIA": "Llanquihue", "COMUNA": "Puerto Montt", "variable": "Centros de Educaci\u00f3n B\u00e1sica y Media", "Nombres": "ESCUELA MIRASOL", "POINT_X": -72.968117, "POINT_Y": -41.47924}}, {"type": "Feature", "geometry": {"type": "Point", "coordinates": [-72.97387699999999, -41.47893099999996]}, "properties": {"CUT_REG": "10", "CUT_PROV": "101", "CUT_COM": "10101", "REGION": "Los Lagos", "PROVINCIA": "Llanquihue", "COMUNA": "Puerto Montt", "variable": "Centros de Educaci\u00f3n B\u00e1sica y Media", "Nombres": "INSTITUTO DEL PACIFICO", "POINT_X": -72.973877, "POINT_Y": -41.478931}}, {"type": "Feature", "geometry": {"type": "Point", "coordinates": [-72.95472700000002, -41.478900999999965]}, "properties": {"CUT_REG": "10", "CUT_PROV": "101", "CUT_COM": "10101", "REGION": "Los Lagos", "PROVINCIA": "Llanquihue", "COMUNA": "Puerto Montt", "variable": "Centros de Educaci\u00f3n B\u00e1sica y Media", "Nombres": "ESCUELA N 7 ARABE-SIRIA", "POINT_X": -72.954727, "POINT_Y": -41.478901}}, {"type": "Feature", "geometry": {"type": "Point", "coordinates": [-72.95720699999995, -41.47866799999996]}, "properties": {"CUT_REG": "10", "CUT_PROV": "101", "CUT_COM": "10101", "REGION": "Los Lagos", "PROVINCIA": "Llanquihue", "COMUNA": "Puerto Montt", "variable": "Centros de Educaci\u00f3n B\u00e1sica y Media", "Nombres": "CENTRO EDUCACIONAL LOS CARRERA", "POINT_X": -72.957207, "POINT_Y": -41.478668}}, {"type": "Feature", "geometry": {"type": "Point", "coordinates": [-72.96842999999997, -41.478470000000016]}, "properties": {"CUT_REG": "10", "CUT_PROV": "101", "CUT_COM": "10101", "REGION": "Los Lagos", "PROVINCIA": "Llanquihue", "COMUNA": "Puerto Montt", "variable": "Centros de Educaci\u00f3n B\u00e1sica y Media", "Nombres": "ESCUELA PARTICULAR N. 320 ADVENTISTA", "POINT_X": -72.96843, "POINT_Y": -41.47847}}, {"type": "Feature", "geometry": {"type": "Point", "coordinates": [-72.957977, -41.47841999999996]}, "properties": {"CUT_REG": "10", "CUT_PROV": "101", "CUT_COM": "10101", "REGION": "Los Lagos", "PROVINCIA": "Llanquihue", "COMUNA": "Puerto Montt", "variable": "Centros de Educaci\u00f3n B\u00e1sica y Media", "Nombres": "ESCUELA PARTICULAR N. 197 SAN IGNACIO", "POINT_X": -72.957977, "POINT_Y": -41.47842}}, {"type": "Feature", "geometry": {"type": "Point", "coordinates": [-72.98401600000001, -41.47810000000004]}, "properties": {"CUT_REG": "10", "CUT_PROV": "101", "CUT_COM": "10101", "REGION": "Los Lagos", "PROVINCIA": "Llanquihue", "COMUNA": "Puerto Montt", "variable": "Centros de Educaci\u00f3n B\u00e1sica y Media", "Nombres": "LICEO POLITECNICO MIRASOL", "POINT_X": -72.984016, "POINT_Y": -41.4781}}, {"type": "Feature", "geometry": {"type": "Point", "coordinates": [-73.01764699999998, -41.47752000000001]}, "properties": {"CUT_REG": "10", "CUT_PROV": "101", "CUT_COM": "10101", "REGION": "Los Lagos", "PROVINCIA": "Llanquihue", "COMUNA": "Puerto Montt", "variable": "Centros de Educaci\u00f3n B\u00e1sica y Media", "Nombres": "ESCUELA RURAL ALTO BONITO", "POINT_X": -73.017647, "POINT_Y": -41.47752}}, {"type": "Feature", "geometry": {"type": "Point", "coordinates": [-72.96940599999999, -41.477303]}, "properties": {"CUT_REG": "10", "CUT_PROV": "101", "CUT_COM": "10101", "REGION": "Los Lagos", "PROVINCIA": "Llanquihue", "COMUNA": "Puerto Montt", "variable": "Centros de Educaci\u00f3n B\u00e1sica y Media", "Nombres": "ESCUELA ESPECIAL DE LENGUAJE DIALECTA", "POINT_X": -72.969406, "POINT_Y": -41.477303}}, {"type": "Feature", "geometry": {"type": "Point", "coordinates": [-72.95575000000002, -41.47724999999997]}, "properties": {"CUT_REG": "10", "CUT_PROV": "101", "CUT_COM": "10101", "REGION": "Los Lagos", "PROVINCIA": "Llanquihue", "COMUNA": "Puerto Montt", "variable": "Centros de Educaci\u00f3n B\u00e1sica y Media", "Nombres": "ESCUELA ESPECIAL DE LENGUAJE LOURDES", "POINT_X": -72.95575, "POINT_Y": -41.47725}}, {"type": "Feature", "geometry": {"type": "Point", "coordinates": [-72.95062255999997, -41.47690582]}, "properties": {"CUT_REG": "10", "CUT_PROV": "101", "CUT_COM": "10101", "REGION": "Los Lagos", "PROVINCIA": "Llanquihue", "COMUNA": "Puerto Montt", "variable": "Centros de Educaci\u00f3n B\u00e1sica y Media", "Nombres": "ESCUELA DE CULTURA Y DIFUSION ARTISTICA", "POINT_X": -72.95062256, "POINT_Y": -41.47690582}}, {"type": "Feature", "geometry": {"type": "Point", "coordinates": [-72.96658999999997, -41.47673999999996]}, "properties": {"CUT_REG": "10", "CUT_PROV": "101", "CUT_COM": "10101", "REGION": "Los Lagos", "PROVINCIA": "Llanquihue", "COMUNA": "Puerto Montt", "variable": "Centros de Educaci\u00f3n B\u00e1sica y Media", "Nombres": "ESCUELA PARA AUTISTAS `CAMINO DE ESPERANZA`", "POINT_X": -72.96659, "POINT_Y": -41.47674}}, {"type": "Feature", "geometry": {"type": "Point", "coordinates": [-72.98329900000002, -41.475409999999954]}, "properties": {"CUT_REG": "10", "CUT_PROV": "101", "CUT_COM": "10101", "REGION": "Los Lagos", "PROVINCIA": "Llanquihue", "COMUNA": "Puerto Montt", "variable": "Centros de Educaci\u00f3n B\u00e1sica y Media", "Nombres": "COLEGIO CATOLICO BEATO FEDERICO OZANAM", "POINT_X": -72.983299, "POINT_Y": -41.47541}}, {"type": "Feature", "geometry": {"type": "Point", "coordinates": [-72.95509999999999, -41.47540000000002]}, "properties": {"CUT_REG": "10", "CUT_PROV": "101", "CUT_COM": "10101", "REGION": "Los Lagos", "PROVINCIA": "Llanquihue", "COMUNA": "Puerto Montt", "variable": "Centros de Educaci\u00f3n B\u00e1sica y Media", "Nombres": "ESCUELA ESPECIAL DE LENGUAJE NAHUEN", "POINT_X": -72.9551, "POINT_Y": -41.4754}}, {"type": "Feature", "geometry": {"type": "Point", "coordinates": [-72.91050999999999, -41.47537599999998]}, "properties": {"CUT_REG": "10", "CUT_PROV": "101", "CUT_COM": "10101", "REGION": "Los Lagos", "PROVINCIA": "Llanquihue", "COMUNA": "Puerto Montt", "variable": "Centros de Educaci\u00f3n B\u00e1sica y Media", "Nombres": "ESCUELA ESPECIAL DE LENGUAJE TECNOLOGICA II", "POINT_X": -72.91051, "POINT_Y": -41.475376}}, {"type": "Feature", "geometry": {"type": "Point", "coordinates": [-72.97885099999996, -41.47502100000001]}, "properties": {"CUT_REG": "10", "CUT_PROV": "101", "CUT_COM": "10101", "REGION": "Los Lagos", "PROVINCIA": "Llanquihue", "COMUNA": "Puerto Montt", "variable": "Centros de Educaci\u00f3n B\u00e1sica y Media", "Nombres": "ESCUELA BASICA LAS CAMELIAS", "POINT_X": -72.978851, "POINT_Y": -41.475021}}, {"type": "Feature", "geometry": {"type": "Point", "coordinates": [-72.97583000000003, -41.47480000000002]}, "properties": {"CUT_REG": "10", "CUT_PROV": "101", "CUT_COM": "10101", "REGION": "Los Lagos", "PROVINCIA": "Llanquihue", "COMUNA": "Puerto Montt", "variable": "Centros de Educaci\u00f3n B\u00e1sica y Media", "Nombres": "COLEGIO ROBERT PACE", "POINT_X": -72.97583, "POINT_Y": -41.4748}}, {"type": "Feature", "geometry": {"type": "Point", "coordinates": [-72.961365, -41.474716]}, "properties": {"CUT_REG": "10", "CUT_PROV": "101", "CUT_COM": "10101", "REGION": "Los Lagos", "PROVINCIA": "Llanquihue", "COMUNA": "Puerto Montt", "variable": "Centros de Educaci\u00f3n B\u00e1sica y Media", "Nombres": "ESCUELA ESPECIAL DE LENGUAJE `AMAPOLA`", "POINT_X": -72.961365, "POINT_Y": -41.474716}}, {"type": "Feature", "geometry": {"type": "Point", "coordinates": [-72.96125729999997, -41.474699000000015]}, "properties": {"CUT_REG": "10", "CUT_PROV": "101", "CUT_COM": "10101", "REGION": "Los Lagos", "PROVINCIA": "Llanquihue", "COMUNA": "Puerto Montt", "variable": "Centros de Educaci\u00f3n B\u00e1sica y Media", "Nombres": "JARDIN INFANTIL `TIA MARTITA`", "POINT_X": -72.9612573, "POINT_Y": -41.474699}}, {"type": "Feature", "geometry": {"type": "Point", "coordinates": [-72.912613, -41.474628]}, "properties": {"CUT_REG": "10", "CUT_PROV": "101", "CUT_COM": "10101", "REGION": "Los Lagos", "PROVINCIA": "Llanquihue", "COMUNA": "Puerto Montt", "variable": "Centros de Educaci\u00f3n B\u00e1sica y Media", "Nombres": "ESCUELA CAPITAN ARTURO PRAT CHACON", "POINT_X": -72.912613, "POINT_Y": -41.474628}}, {"type": "Feature", "geometry": {"type": "Point", "coordinates": [-72.90911606000003, -41.47444381000004]}, "properties": {"CUT_REG": "10", "CUT_PROV": "101", "CUT_COM": "10101", "REGION": "Los Lagos", "PROVINCIA": "Llanquihue", "COMUNA": "Puerto Montt", "variable": "Centros de Educaci\u00f3n B\u00e1sica y Media", "Nombres": "JARDIN INFANTIL RINCONCITO FELIZ", "POINT_X": -72.90911606, "POINT_Y": -41.47444381}}, {"type": "Feature", "geometry": {"type": "Point", "coordinates": [-72.96774299999997, -41.47360999999997]}, "properties": {"CUT_REG": "10", "CUT_PROV": "101", "CUT_COM": "10101", "REGION": "Los Lagos", "PROVINCIA": "Llanquihue", "COMUNA": "Puerto Montt", "variable": "Centros de Educaci\u00f3n B\u00e1sica y Media", "Nombres": "COLEGIO CRISTIANO BETESDA", "POINT_X": -72.967743, "POINT_Y": -41.47361}}, {"type": "Feature", "geometry": {"type": "Point", "coordinates": [-72.98229999999995, -41.473300999999985]}, "properties": {"CUT_REG": "10", "CUT_PROV": "101", "CUT_COM": "10101", "REGION": "Los Lagos", "PROVINCIA": "Llanquihue", "COMUNA": "Puerto Montt", "variable": "Centros de Educaci\u00f3n B\u00e1sica y Media", "Nombres": "LICEO POLIVALENTE BENJAMIN VICU\u00d1A MACKENNA", "POINT_X": -72.9823, "POINT_Y": -41.473301}}, {"type": "Feature", "geometry": {"type": "Point", "coordinates": [-72.954597, -41.47327]}, "properties": {"CUT_REG": "10", "CUT_PROV": "101", "CUT_COM": "10101", "REGION": "Los Lagos", "PROVINCIA": "Llanquihue", "COMUNA": "Puerto Montt", "variable": "Centros de Educaci\u00f3n B\u00e1sica y Media", "Nombres": "ESCUELA N 10 ANGELMO", "POINT_X": -72.954597, "POINT_Y": -41.47327}}, {"type": "Feature", "geometry": {"type": "Point", "coordinates": [-72.92328599999996, -41.472858000000016]}, "properties": {"CUT_REG": "10", "CUT_PROV": "101", "CUT_COM": "10101", "REGION": "Los Lagos", "PROVINCIA": "Llanquihue", "COMUNA": "Puerto Montt", "variable": "Centros de Educaci\u00f3n B\u00e1sica y Media", "Nombres": "LICEO COMERCIAL MIRAMAR", "POINT_X": -72.923286, "POINT_Y": -41.472858}}, {"type": "Feature", "geometry": {"type": "Point", "coordinates": [-72.95467999999995, -41.472686999999986]}, "properties": {"CUT_REG": "10", "CUT_PROV": "101", "CUT_COM": "10101", "REGION": "Los Lagos", "PROVINCIA": "Llanquihue", "COMUNA": "Puerto Montt", "variable": "Centros de Educaci\u00f3n B\u00e1sica y Media", "Nombres": "ESCUELA ESPECIAL DE LENGUAJE MARIA PAZ", "POINT_X": -72.95468, "POINT_Y": -41.472687}}, {"type": "Feature", "geometry": {"type": "Point", "coordinates": [-72.94875999999996, -41.472508000000005]}, "properties": {"CUT_REG": "10", "CUT_PROV": "101", "CUT_COM": "10101", "REGION": "Los Lagos", "PROVINCIA": "Llanquihue", "COMUNA": "Puerto Montt", "variable": "Centros de Educaci\u00f3n B\u00e1sica y Media", "Nombres": "JARDIN INFANTIL Y SALA CUNA REINO DE PAPEL", "POINT_X": -72.94876, "POINT_Y": -41.472508}}, {"type": "Feature", "geometry": {"type": "Point", "coordinates": [-72.93315099999997, -41.47201200000001]}, "properties": {"CUT_REG": "10", "CUT_PROV": "101", "CUT_COM": "10101", "REGION": "Los Lagos", "PROVINCIA": "Llanquihue", "COMUNA": "Puerto Montt", "variable": "Centros de Educaci\u00f3n B\u00e1sica y Media", "Nombres": "LICEO ISIDORA ZEGERS DE HUNEEUS", "POINT_X": -72.933151, "POINT_Y": -41.472012}}, {"type": "Feature", "geometry": {"type": "Point", "coordinates": [-72.94974928000002, -41.471970530000036]}, "properties": {"CUT_REG": "10", "CUT_PROV": "101", "CUT_COM": "10101", "REGION": "Los Lagos", "PROVINCIA": "Llanquihue", "COMUNA": "Puerto Montt", "variable": "Centros de Educaci\u00f3n B\u00e1sica y Media", "Nombres": "SALA CUNA Y JARDIN INFANTIL MAGICA FANTASIA", "POINT_X": -72.94974928, "POINT_Y": -41.47197053}}, {"type": "Feature", "geometry": {"type": "Point", "coordinates": [-72.93222799999998, -41.47175303999998]}, "properties": {"CUT_REG": "10", "CUT_PROV": "101", "CUT_COM": "10101", "REGION": "Los Lagos", "PROVINCIA": "Llanquihue", "COMUNA": "Puerto Montt", "variable": "Centros de Educaci\u00f3n B\u00e1sica y Media", "Nombres": "JARDIN INFANTIL `ARLEQUIN`", "POINT_X": -72.932228, "POINT_Y": -41.47175304}}, {"type": "Feature", "geometry": {"type": "Point", "coordinates": [-72.92259200000001, -41.471600000000024]}, "properties": {"CUT_REG": "10", "CUT_PROV": "101", "CUT_COM": "10101", "REGION": "Los Lagos", "PROVINCIA": "Llanquihue", "COMUNA": "Puerto Montt", "variable": "Centros de Educaci\u00f3n B\u00e1sica y Media", "Nombres": "ESCUELA N 5 MIRAMAR", "POINT_X": -72.922592, "POINT_Y": -41.4716}}, {"type": "Feature", "geometry": {"type": "Point", "coordinates": [-72.928703, -41.47151899999998]}, "properties": {"CUT_REG": "10", "CUT_PROV": "101", "CUT_COM": "10101", "REGION": "Los Lagos", "PROVINCIA": "Llanquihue", "COMUNA": "Puerto Montt", "variable": "Centros de Educaci\u00f3n B\u00e1sica y Media", "Nombres": "LICEO INDUSTRIAL PUERTO MONTT", "POINT_X": -72.928703, "POINT_Y": -41.471519}}, {"type": "Feature", "geometry": {"type": "Point", "coordinates": [-72.94832336999998, -41.47147328000001]}, "properties": {"CUT_REG": "10", "CUT_PROV": "101", "CUT_COM": "10101", "REGION": "Los Lagos", "PROVINCIA": "Llanquihue", "COMUNA": "Puerto Montt", "variable": "Centros de Educaci\u00f3n B\u00e1sica y Media", "Nombres": "LA ARAUCANA EDUCACION", "POINT_X": -72.94832337, "POINT_Y": -41.47147328}}, {"type": "Feature", "geometry": {"type": "Point", "coordinates": [-72.92817128999997, -41.471366499999974]}, "properties": {"CUT_REG": "10", "CUT_PROV": "101", "CUT_COM": "10101", "REGION": "Los Lagos", "PROVINCIA": "Llanquihue", "COMUNA": "Puerto Montt", "variable": "Centros de Educaci\u00f3n B\u00e1sica y Media", "Nombres": "COLEGIO LAFQUEN MONTESSORI PUERTO MONTT", "POINT_X": -72.92817129, "POINT_Y": -41.4713665}}, {"type": "Feature", "geometry": {"type": "Point", "coordinates": [-72.952217, -41.47118]}, "properties": {"CUT_REG": "10", "CUT_PROV": "101", "CUT_COM": "10101", "REGION": "Los Lagos", "PROVINCIA": "Llanquihue", "COMUNA": "Puerto Montt", "variable": "Centros de Educaci\u00f3n B\u00e1sica y Media", "Nombres": "INSTITUTO POLITECNICO MARIA AUXILIADORA", "POINT_X": -72.952217, "POINT_Y": -41.47118}}, {"type": "Feature", "geometry": {"type": "Point", "coordinates": [-72.947685, -41.47118]}, "properties": {"CUT_REG": "10", "CUT_PROV": "101", "CUT_COM": "10101", "REGION": "Los Lagos", "PROVINCIA": "Llanquihue", "COMUNA": "Puerto Montt", "variable": "Centros de Educaci\u00f3n B\u00e1sica y Media", "Nombres": "CORPORACION DE EDUCACION LA ARAUCANA", "POINT_X": -72.947685, "POINT_Y": -41.47118}}, {"type": "Feature", "geometry": {"type": "Point", "coordinates": [-73.22685250000002, -41.47115150000003]}, "properties": {"CUT_REG": "10", "CUT_PROV": "101", "CUT_COM": "10101", "REGION": "Los Lagos", "PROVINCIA": "Llanquihue", "COMUNA": "Puerto Montt", "variable": "Centros de Educaci\u00f3n B\u00e1sica y Media", "Nombres": "ESCUELA RURAL SAN JOSE", "POINT_X": -73.2268525, "POINT_Y": -41.4711515}}, {"type": "Feature", "geometry": {"type": "Point", "coordinates": [-72.97130899999996, -41.471009999999964]}, "properties": {"CUT_REG": "10", "CUT_PROV": "101", "CUT_COM": "10101", "REGION": "Los Lagos", "PROVINCIA": "Llanquihue", "COMUNA": "Puerto Montt", "variable": "Centros de Educaci\u00f3n B\u00e1sica y Media", "Nombres": "SALA CUNA Y JARDIN INFANTIL DIENTECITO DE LECHE", "POINT_X": -72.971309, "POINT_Y": -41.47101}}, {"type": "Feature", "geometry": {"type": "Point", "coordinates": [-72.96620999999996, -41.470325000000045]}, "properties": {"CUT_REG": "10", "CUT_PROV": "101", "CUT_COM": "10101", "REGION": "Los Lagos", "PROVINCIA": "Llanquihue", "COMUNA": "Puerto Montt", "variable": "Centros de Educaci\u00f3n B\u00e1sica y Media", "Nombres": "COMUNIDAD DE ACCION EDUCATIVA VINCULOS", "POINT_X": -72.96621, "POINT_Y": -41.470325}}, {"type": "Feature", "geometry": {"type": "Point", "coordinates": [-72.96737599999997, -41.47017000000001]}, "properties": {"CUT_REG": "10", "CUT_PROV": "101", "CUT_COM": "10101", "REGION": "Los Lagos", "PROVINCIA": "Llanquihue", "COMUNA": "Puerto Montt", "variable": "Centros de Educaci\u00f3n B\u00e1sica y Media", "Nombres": "COLEGIO DE PARVULOS MI GATITO MARTIN", "POINT_X": -72.967376, "POINT_Y": -41.47017}}, {"type": "Feature", "geometry": {"type": "Point", "coordinates": [-72.932503, -41.47006999999999]}, "properties": {"CUT_REG": "10", "CUT_PROV": "101", "CUT_COM": "10101", "REGION": "Los Lagos", "PROVINCIA": "Llanquihue", "COMUNA": "Puerto Montt", "variable": "Centros de Educaci\u00f3n B\u00e1sica y Media", "Nombres": "COLEGIO PUERTO MONTT", "POINT_X": -72.932503, "POINT_Y": -41.47007}}, {"type": "Feature", "geometry": {"type": "Point", "coordinates": [-72.94140999999996, -41.469849999999994]}, "properties": {"CUT_REG": "10", "CUT_PROV": "101", "CUT_COM": "10101", "REGION": "Los Lagos", "PROVINCIA": "Llanquihue", "COMUNA": "Puerto Montt", "variable": "Centros de Educaci\u00f3n B\u00e1sica y Media", "Nombres": "COLEGIO MADRE ISABEL LARRA\u00d1AGA", "POINT_X": -72.94141, "POINT_Y": -41.46985}}, {"type": "Feature", "geometry": {"type": "Point", "coordinates": [-72.93320999999997, -41.469783999999954]}, "properties": {"CUT_REG": "10", "CUT_PROV": "101", "CUT_COM": "10101", "REGION": "Los Lagos", "PROVINCIA": "Llanquihue", "COMUNA": "Puerto Montt", "variable": "Centros de Educaci\u00f3n B\u00e1sica y Media", "Nombres": "INSTITUTO ALEMAN DE PUERTO MONTT", "POINT_X": -72.93321, "POINT_Y": -41.469784}}, {"type": "Feature", "geometry": {"type": "Point", "coordinates": [-72.94257399999998, -41.469489999999965]}, "properties": {"CUT_REG": "10", "CUT_PROV": "101", "CUT_COM": "10101", "REGION": "Los Lagos", "PROVINCIA": "Llanquihue", "COMUNA": "Puerto Montt", "variable": "Centros de Educaci\u00f3n B\u00e1sica y Media", "Nombres": "LICEO DE HOMBRES MANUEL MONTT", "POINT_X": -72.942574, "POINT_Y": -41.46949}}, {"type": "Feature", "geometry": {"type": "Point", "coordinates": [-72.93807199999999, -41.46932999999996]}, "properties": {"CUT_REG": "10", "CUT_PROV": "101", "CUT_COM": "10101", "REGION": "Los Lagos", "PROVINCIA": "Llanquihue", "COMUNA": "Puerto Montt", "variable": "Centros de Educaci\u00f3n B\u00e1sica y Media", "Nombres": "COLEGIO ARRIARAN BARROS", "POINT_X": -72.938072, "POINT_Y": -41.46933}}, {"type": "Feature", "geometry": {"type": "Point", "coordinates": [-72.92823999999997, -41.46892999999999]}, "properties": {"CUT_REG": "10", "CUT_PROV": "101", "CUT_COM": "10101", "REGION": "Los Lagos", "PROVINCIA": "Llanquihue", "COMUNA": "Puerto Montt", "variable": "Centros de Educaci\u00f3n B\u00e1sica y Media", "Nombres": "ESCUELA ESPECIAL DE LENGUAJE JUAN BAUTISTA II", "POINT_X": -72.92824, "POINT_Y": -41.46893}}, {"type": "Feature", "geometry": {"type": "Point", "coordinates": [-72.94241299999999, -41.468841999999995]}, "properties": {"CUT_REG": "10", "CUT_PROV": "101", "CUT_COM": "10101", "REGION": "Los Lagos", "PROVINCIA": "Llanquihue", "COMUNA": "Puerto Montt", "variable": "Centros de Educaci\u00f3n B\u00e1sica y Media", "Nombres": "ESCUELA N\u00b02 REPUBLICA ARGENTINA", "POINT_X": -72.942413, "POINT_Y": -41.468842}}, {"type": "Feature", "geometry": {"type": "Point", "coordinates": [-72.92684999999997, -41.46865000000001]}, "properties": {"CUT_REG": "10", "CUT_PROV": "101", "CUT_COM": "10101", "REGION": "Los Lagos", "PROVINCIA": "Llanquihue", "COMUNA": "Puerto Montt", "variable": "Centros de Educaci\u00f3n B\u00e1sica y Media", "Nombres": "CENTRO EDUCACIONAL AMANCAY", "POINT_X": -72.92685, "POINT_Y": -41.46865}}, {"type": "Feature", "geometry": {"type": "Point", "coordinates": [-72.94135284000002, -41.46850585999998]}, "properties": {"CUT_REG": "10", "CUT_PROV": "101", "CUT_COM": "10101", "REGION": "Los Lagos", "PROVINCIA": "Llanquihue", "COMUNA": "Puerto Montt", "variable": "Centros de Educaci\u00f3n B\u00e1sica y Media", "Nombres": "CENTRO DE EDUCACION DE ADULTOS JOSE BERNARDO SUAREZ", "POINT_X": -72.94135284, "POINT_Y": -41.46850586}}, {"type": "Feature", "geometry": {"type": "Point", "coordinates": [-72.93054200000002, -41.46777000000003]}, "properties": {"CUT_REG": "10", "CUT_PROV": "101", "CUT_COM": "10101", "REGION": "Los Lagos", "PROVINCIA": "Llanquihue", "COMUNA": "Puerto Montt", "variable": "Centros de Educaci\u00f3n B\u00e1sica y Media", "Nombres": "INSTITUTO COMERCIAL DE PUERTO MONTT", "POINT_X": -72.930542, "POINT_Y": -41.46777}}, {"type": "Feature", "geometry": {"type": "Point", "coordinates": [-72.97012000000001, -41.467662999999966]}, "properties": {"CUT_REG": "10", "CUT_PROV": "101", "CUT_COM": "10101", "REGION": "Los Lagos", "PROVINCIA": "Llanquihue", "COMUNA": "Puerto Montt", "variable": "Centros de Educaci\u00f3n B\u00e1sica y Media", "Nombres": "ESCUELA ESPECIAL DE LENGUAJE CUNCUNITA", "POINT_X": -72.97012, "POINT_Y": -41.467663}}, {"type": "Feature", "geometry": {"type": "Point", "coordinates": [-72.94713000000002, -41.467517999999956]}, "properties": {"CUT_REG": "10", "CUT_PROV": "101", "CUT_COM": "10101", "REGION": "Los Lagos", "PROVINCIA": "Llanquihue", "COMUNA": "Puerto Montt", "variable": "Centros de Educaci\u00f3n B\u00e1sica y Media", "Nombres": "ESCUELA ESPECIAL `TALLERES LABORALES INPROA`", "POINT_X": -72.94713, "POINT_Y": -41.467518}}, {"type": "Feature", "geometry": {"type": "Point", "coordinates": [-72.97409100000002, -41.46711000000004]}, "properties": {"CUT_REG": "10", "CUT_PROV": "101", "CUT_COM": "10101", "REGION": "Los Lagos", "PROVINCIA": "Llanquihue", "COMUNA": "Puerto Montt", "variable": "Centros de Educaci\u00f3n B\u00e1sica y Media", "Nombres": "ESCUELA ROTARIO PEDRO AVELINO BRAVO", "POINT_X": -72.974091, "POINT_Y": -41.46711}}, {"type": "Feature", "geometry": {"type": "Point", "coordinates": [-72.99835999999996, -41.466536999999974]}, "properties": {"CUT_REG": "10", "CUT_PROV": "101", "CUT_COM": "10101", "REGION": "Los Lagos", "PROVINCIA": "Llanquihue", "COMUNA": "Puerto Montt", "variable": "Centros de Educaci\u00f3n B\u00e1sica y Media", "Nombres": "ESCUELA ESPECIAL DE LENGUAJE SANTA INES", "POINT_X": -72.99836, "POINT_Y": -41.466537}}, {"type": "Feature", "geometry": {"type": "Point", "coordinates": [-72.932152, -41.466269999999994]}, "properties": {"CUT_REG": "10", "CUT_PROV": "101", "CUT_COM": "10101", "REGION": "Los Lagos", "PROVINCIA": "Llanquihue", "COMUNA": "Puerto Montt", "variable": "Centros de Educaci\u00f3n B\u00e1sica y Media", "Nombres": "COLEGIO SAN JOSE PUERTO MONTT", "POINT_X": -72.932152, "POINT_Y": -41.46627}}, {"type": "Feature", "geometry": {"type": "Point", "coordinates": [-72.95300999999998, -41.46606000000003]}, "properties": {"CUT_REG": "10", "CUT_PROV": "101", "CUT_COM": "10101", "REGION": "Los Lagos", "PROVINCIA": "Llanquihue", "COMUNA": "Puerto Montt", "variable": "Centros de Educaci\u00f3n B\u00e1sica y Media", "Nombres": "JARDIN INFANTIL `EL TALLITO`", "POINT_X": -72.95301, "POINT_Y": -41.46606}}, {"type": "Feature", "geometry": {"type": "Point", "coordinates": [-72.96286800000001, -41.46482100000001]}, "properties": {"CUT_REG": "10", "CUT_PROV": "101", "CUT_COM": "10101", "REGION": "Los Lagos", "PROVINCIA": "Llanquihue", "COMUNA": "Puerto Montt", "variable": "Centros de Educaci\u00f3n B\u00e1sica y Media", "Nombres": "ESCUELA BASICA SANTA INES", "POINT_X": -72.962868, "POINT_Y": -41.464821}}, {"type": "Feature", "geometry": {"type": "Point", "coordinates": [-72.92506409, -41.464759830000006]}, "properties": {"CUT_REG": "10", "CUT_PROV": "101", "CUT_COM": "10101", "REGION": "Los Lagos", "PROVINCIA": "Llanquihue", "COMUNA": "Puerto Montt", "variable": "Centros de Educaci\u00f3n B\u00e1sica y Media", "Nombres": "ESCUELA DIFERENCIAL `LOS EUCALIPTOS`", "POINT_X": -72.92506409, "POINT_Y": -41.46475983}}, {"type": "Feature", "geometry": {"type": "Point", "coordinates": [-72.96521, -41.464640000000045]}, "properties": {"CUT_REG": "10", "CUT_PROV": "101", "CUT_COM": "10101", "REGION": "Los Lagos", "PROVINCIA": "Llanquihue", "COMUNA": "Puerto Montt", "variable": "Centros de Educaci\u00f3n B\u00e1sica y Media", "Nombres": "ESCUELA ESPECIAL `LAURA VICU\u00d1A`", "POINT_X": -72.96521, "POINT_Y": -41.46464}}, {"type": "Feature", "geometry": {"type": "Point", "coordinates": [-72.93325043000002, -41.46338272000002]}, "properties": {"CUT_REG": "10", "CUT_PROV": "101", "CUT_COM": "10101", "REGION": "Los Lagos", "PROVINCIA": "Llanquihue", "COMUNA": "Puerto Montt", "variable": "Centros de Educaci\u00f3n B\u00e1sica y Media", "Nombres": "C.E.I.A. NARCISO GARCIA BARRIA", "POINT_X": -72.93325043, "POINT_Y": -41.46338272}}, {"type": "Feature", "geometry": {"type": "Point", "coordinates": [-72.96248600000004, -41.46324899999997]}, "properties": {"CUT_REG": "10", "CUT_PROV": "101", "CUT_COM": "10101", "REGION": "Los Lagos", "PROVINCIA": "Llanquihue", "COMUNA": "Puerto Montt", "variable": "Centros de Educaci\u00f3n B\u00e1sica y Media", "Nombres": "COLEGIO SALESIANO PADRE JOSE FERNANDEZ PEREZ", "POINT_X": -72.962486, "POINT_Y": -41.463249}}, {"type": "Feature", "geometry": {"type": "Point", "coordinates": [-72.92113499999999, -41.46314599999997]}, "properties": {"CUT_REG": "10", "CUT_PROV": "101", "CUT_COM": "10101", "REGION": "Los Lagos", "PROVINCIA": "Llanquihue", "COMUNA": "Puerto Montt", "variable": "Centros de Educaci\u00f3n B\u00e1sica y Media", "Nombres": "ESCUELA ESPECIAL `SANTA HELENA`", "POINT_X": -72.921135, "POINT_Y": -41.463146}}, {"type": "Feature", "geometry": {"type": "Point", "coordinates": [-72.92955, -41.462830000000025]}, "properties": {"CUT_REG": "10", "CUT_PROV": "101", "CUT_COM": "10101", "REGION": "Los Lagos", "PROVINCIA": "Llanquihue", "COMUNA": "Puerto Montt", "variable": "Centros de Educaci\u00f3n B\u00e1sica y Media", "Nombres": "ESCUELA N 3 MELIPULLI", "POINT_X": -72.92955, "POINT_Y": -41.46283}}, {"type": "Feature", "geometry": {"type": "Point", "coordinates": [-72.90861699000004, -41.462602729999965]}, "properties": {"CUT_REG": "10", "CUT_PROV": "101", "CUT_COM": "10101", "REGION": "Los Lagos", "PROVINCIA": "Llanquihue", "COMUNA": "Puerto Montt", "variable": "Centros de Educaci\u00f3n B\u00e1sica y Media", "Nombres": "JARDIN INFANTIL AMIGUITOS", "POINT_X": -72.90861699, "POINT_Y": -41.46260273}}, {"type": "Feature", "geometry": {"type": "Point", "coordinates": [-72.98496999999999, -41.462371999999974]}, "properties": {"CUT_REG": "10", "CUT_PROV": "101", "CUT_COM": "10101", "REGION": "Los Lagos", "PROVINCIA": "Llanquihue", "COMUNA": "Puerto Montt", "variable": "Centros de Educaci\u00f3n B\u00e1sica y Media", "Nombres": "LICEO TECNICO PROFESIONAL AGRICOLA MARITIMO BOSQUE NATIVO", "POINT_X": -72.98497, "POINT_Y": -41.462372}}, {"type": "Feature", "geometry": {"type": "Point", "coordinates": [-72.92333199999996, -41.46220000000004]}, "properties": {"CUT_REG": "10", "CUT_PROV": "101", "CUT_COM": "10101", "REGION": "Los Lagos", "PROVINCIA": "Llanquihue", "COMUNA": "Puerto Montt", "variable": "Centros de Educaci\u00f3n B\u00e1sica y Media", "Nombres": "COLEGIO TECNICO NACIONES UNIDAS", "POINT_X": -72.923332, "POINT_Y": -41.4622}}, {"type": "Feature", "geometry": {"type": "Point", "coordinates": [-72.944122, -41.46217000000004]}, "properties": {"CUT_REG": "10", "CUT_PROV": "101", "CUT_COM": "10101", "REGION": "Los Lagos", "PROVINCIA": "Llanquihue", "COMUNA": "Puerto Montt", "variable": "Centros de Educaci\u00f3n B\u00e1sica y Media", "Nombres": "ESCUELA RURAL LAUCA", "POINT_X": -72.944122, "POINT_Y": -41.46217}}, {"type": "Feature", "geometry": {"type": "Point", "coordinates": [-72.94398500000003, -41.46211200000004]}, "properties": {"CUT_REG": "10", "CUT_PROV": "101", "CUT_COM": "10101", "REGION": "Los Lagos", "PROVINCIA": "Llanquihue", "COMUNA": "Puerto Montt", "variable": "Centros de Educaci\u00f3n B\u00e1sica y Media", "Nombres": "ESCUELA ESPECIAL ANDRES BELLO", "POINT_X": -72.943985, "POINT_Y": -41.462112}}, {"type": "Feature", "geometry": {"type": "Point", "coordinates": [-72.931129, -41.46188000000003]}, "properties": {"CUT_REG": "10", "CUT_PROV": "101", "CUT_COM": "10101", "REGION": "Los Lagos", "PROVINCIA": "Llanquihue", "COMUNA": "Puerto Montt", "variable": "Centros de Educaci\u00f3n B\u00e1sica y Media", "Nombres": "COLEGIO PILLANLIKAN", "POINT_X": -72.931129, "POINT_Y": -41.46188}}, {"type": "Feature", "geometry": {"type": "Point", "coordinates": [-72.96098999999998, -41.46181299999999]}, "properties": {"CUT_REG": "10", "CUT_PROV": "101", "CUT_COM": "10101", "REGION": "Los Lagos", "PROVINCIA": "Llanquihue", "COMUNA": "Puerto Montt", "variable": "Centros de Educaci\u00f3n B\u00e1sica y Media", "Nombres": "JARDIN INFANTIL `MI PEQUE\u00d1O SALESIANO`", "POINT_X": -72.96099, "POINT_Y": -41.461813}}, {"type": "Feature", "geometry": {"type": "Point", "coordinates": [-72.912162, -41.46171]}, "properties": {"CUT_REG": "10", "CUT_PROV": "101", "CUT_COM": "10101", "REGION": "Los Lagos", "PROVINCIA": "Llanquihue", "COMUNA": "Puerto Montt", "variable": "Centros de Educaci\u00f3n B\u00e1sica y Media", "Nombres": "JARD\u00cdN INFANTIL SONRISAS DE PUERTO MONTT", "POINT_X": -72.912162, "POINT_Y": -41.46171}}, {"type": "Feature", "geometry": {"type": "Point", "coordinates": [-72.9602356, -41.46170044]}, "properties": {"CUT_REG": "10", "CUT_PROV": "101", "CUT_COM": "10101", "REGION": "Los Lagos", "PROVINCIA": "Llanquihue", "COMUNA": "Puerto Montt", "variable": "Centros de Educaci\u00f3n B\u00e1sica y Media", "Nombres": "JARDIN INFANTIL `MI PEQUENO SALESIANO DE MARIA AUXILIADORA`", "POINT_X": -72.9602356, "POINT_Y": -41.46170044}}, {"type": "Feature", "geometry": {"type": "Point", "coordinates": [-72.96050599999998, -41.46149499999997]}, "properties": {"CUT_REG": "10", "CUT_PROV": "101", "CUT_COM": "10101", "REGION": "Los Lagos", "PROVINCIA": "Llanquihue", "COMUNA": "Puerto Montt", "variable": "Centros de Educaci\u00f3n B\u00e1sica y Media", "Nombres": "ESCUELA ESPECIAL DE LENGUAJE SOL DE IDEAS", "POINT_X": -72.960506, "POINT_Y": -41.461495}}, {"type": "Feature", "geometry": {"type": "Point", "coordinates": [-72.96028000000003, -41.46128000000003]}, "properties": {"CUT_REG": "10", "CUT_PROV": "101", "CUT_COM": "10101", "REGION": "Los Lagos", "PROVINCIA": "Llanquihue", "COMUNA": "Puerto Montt", "variable": "Centros de Educaci\u00f3n B\u00e1sica y Media", "Nombres": "ESCUELA ESPECIAL DE LENGUAJE `NUEVA LENGUA`", "POINT_X": -72.96028, "POINT_Y": -41.46128}}, {"type": "Feature", "geometry": {"type": "Point", "coordinates": [-72.94211999999999, -41.460853999999955]}, "properties": {"CUT_REG": "10", "CUT_PROV": "101", "CUT_COM": "10101", "REGION": "Los Lagos", "PROVINCIA": "Llanquihue", "COMUNA": "Puerto Montt", "variable": "Centros de Educaci\u00f3n B\u00e1sica y Media", "Nombres": "ESCUELA ESPECIAL DE LENGUAJE CUNCUNITA AMARILLA", "POINT_X": -72.94212, "POINT_Y": -41.460854}}, {"type": "Feature", "geometry": {"type": "Point", "coordinates": [-72.94324999999996, -41.46030000000004]}, "properties": {"CUT_REG": "10", "CUT_PROV": "101", "CUT_COM": "10101", "REGION": "Los Lagos", "PROVINCIA": "Llanquihue", "COMUNA": "Puerto Montt", "variable": "Centros de Educaci\u00f3n B\u00e1sica y Media", "Nombres": "ESCUELA ESPECIAL DE LENGUAJE MI MUNDO IDEAL", "POINT_X": -72.94325, "POINT_Y": -41.4603}}, {"type": "Feature", "geometry": {"type": "Point", "coordinates": [-72.994057, -41.46012900000001]}, "properties": {"CUT_REG": "10", "CUT_PROV": "101", "CUT_COM": "10101", "REGION": "Los Lagos", "PROVINCIA": "Llanquihue", "COMUNA": "Puerto Montt", "variable": "Centros de Educaci\u00f3n B\u00e1sica y Media", "Nombres": "COLEGIO CREACION LA ARAUCANA PUERTO MONTT", "POINT_X": -72.994057, "POINT_Y": -41.460129}}, {"type": "Feature", "geometry": {"type": "Point", "coordinates": [-72.94232200000002, -41.459140999999974]}, "properties": {"CUT_REG": "10", "CUT_PROV": "101", "CUT_COM": "10101", "REGION": "Los Lagos", "PROVINCIA": "Llanquihue", "COMUNA": "Puerto Montt", "variable": "Centros de Educaci\u00f3n B\u00e1sica y Media", "Nombres": "COLEGIO EJERCITO DE SALVACI\u00d3N", "POINT_X": -72.942322, "POINT_Y": -41.459141}}, {"type": "Feature", "geometry": {"type": "Point", "coordinates": [-72.90352799999997, -41.45911099999998]}, "properties": {"CUT_REG": "10", "CUT_PROV": "101", "CUT_COM": "10101", "REGION": "Los Lagos", "PROVINCIA": "Llanquihue", "COMUNA": "Puerto Montt", "variable": "Centros de Educaci\u00f3n B\u00e1sica y Media", "Nombres": "ESCUELA ESPECIAL DE LENGUAJE ACUARELA DE PALABRAS", "POINT_X": -72.903528, "POINT_Y": -41.459111}}, {"type": "Feature", "geometry": {"type": "Point", "coordinates": [-72.93846999999997, -41.458465999999994]}, "properties": {"CUT_REG": "10", "CUT_PROV": "101", "CUT_COM": "10101", "REGION": "Los Lagos", "PROVINCIA": "Llanquihue", "COMUNA": "Puerto Montt", "variable": "Centros de Educaci\u00f3n B\u00e1sica y Media", "Nombres": "ESCUELA ESPECIAL DE LENGUAJE ANTIHUAL", "POINT_X": -72.93847, "POINT_Y": -41.458466}}, {"type": "Feature", "geometry": {"type": "Point", "coordinates": [-72.93247599999998, -41.45816299999997]}, "properties": {"CUT_REG": "10", "CUT_PROV": "101", "CUT_COM": "10101", "REGION": "Los Lagos", "PROVINCIA": "Llanquihue", "COMUNA": "Puerto Montt", "variable": "Centros de Educaci\u00f3n B\u00e1sica y Media", "Nombres": "CENTRO DE EDUCACION INTEGRAL DE ADULTOS PAIDEIA", "POINT_X": -72.932476, "POINT_Y": -41.458163}}, {"type": "Feature", "geometry": {"type": "Point", "coordinates": [-72.94608299999999, -41.45779000000002]}, "properties": {"CUT_REG": "10", "CUT_PROV": "101", "CUT_COM": "10101", "REGION": "Los Lagos", "PROVINCIA": "Llanquihue", "COMUNA": "Puerto Montt", "variable": "Centros de Educaci\u00f3n B\u00e1sica y Media", "Nombres": "ESCUELA LIBERTAD", "POINT_X": -72.946083, "POINT_Y": -41.45779}}, {"type": "Feature", "geometry": {"type": "Point", "coordinates": [-72.92916099999997, -41.45772199999999]}, "properties": {"CUT_REG": "10", "CUT_PROV": "101", "CUT_COM": "10101", "REGION": "Los Lagos", "PROVINCIA": "Llanquihue", "COMUNA": "Puerto Montt", "variable": "Centros de Educaci\u00f3n B\u00e1sica y Media", "Nombres": "COLEGIO PAIDEIA", "POINT_X": -72.929161, "POINT_Y": -41.457722}}, {"type": "Feature", "geometry": {"type": "Point", "coordinates": [-72.94925299999998, -41.457297]}, "properties": {"CUT_REG": "10", "CUT_PROV": "101", "CUT_COM": "10101", "REGION": "Los Lagos", "PROVINCIA": "Llanquihue", "COMUNA": "Puerto Montt", "variable": "Centros de Educaci\u00f3n B\u00e1sica y Media", "Nombres": "ESCUELA ESPECIAL DE LENGUAJE VAINILLA", "POINT_X": -72.949253, "POINT_Y": -41.457297}}, {"type": "Feature", "geometry": {"type": "Point", "coordinates": [-72.91312000000002, -41.45651700000003]}, "properties": {"CUT_REG": "10", "CUT_PROV": "101", "CUT_COM": "10101", "REGION": "Los Lagos", "PROVINCIA": "Llanquihue", "COMUNA": "Puerto Montt", "variable": "Centros de Educaci\u00f3n B\u00e1sica y Media", "Nombres": "THE AMERICAN SCHOOL", "POINT_X": -72.91312, "POINT_Y": -41.456517}}, {"type": "Feature", "geometry": {"type": "Point", "coordinates": [-72.93187000000003, -41.456430000000026]}, "properties": {"CUT_REG": "10", "CUT_PROV": "101", "CUT_COM": "10101", "REGION": "Los Lagos", "PROVINCIA": "Llanquihue", "COMUNA": "Puerto Montt", "variable": "Centros de Educaci\u00f3n B\u00e1sica y Media", "Nombres": "ESCUELA ESPECIAL DE LENGUAJE MIS PRIMEROS PASOS", "POINT_X": -72.93187, "POINT_Y": -41.45643}}, {"type": "Feature", "geometry": {"type": "Point", "coordinates": [-72.90017699999999, -41.455219000000014]}, "properties": {"CUT_REG": "10", "CUT_PROV": "101", "CUT_COM": "10101", "REGION": "Los Lagos", "PROVINCIA": "Llanquihue", "COMUNA": "Puerto Montt", "variable": "Centros de Educaci\u00f3n B\u00e1sica y Media", "Nombres": "PATAGONIA COLLEGE", "POINT_X": -72.900177, "POINT_Y": -41.455219}}, {"type": "Feature", "geometry": {"type": "Point", "coordinates": [-72.94730400000002, -41.455008999999954]}, "properties": {"CUT_REG": "10", "CUT_PROV": "101", "CUT_COM": "10101", "REGION": "Los Lagos", "PROVINCIA": "Llanquihue", "COMUNA": "Puerto Montt", "variable": "Centros de Educaci\u00f3n B\u00e1sica y Media", "Nombres": "ESCUELA CHILOE", "POINT_X": -72.947304, "POINT_Y": -41.455009}}, {"type": "Feature", "geometry": {"type": "Point", "coordinates": [-72.91145300000002, -41.45423099999998]}, "properties": {"CUT_REG": "10", "CUT_PROV": "101", "CUT_COM": "10101", "REGION": "Los Lagos", "PROVINCIA": "Llanquihue", "COMUNA": "Puerto Montt", "variable": "Centros de Educaci\u00f3n B\u00e1sica y Media", "Nombres": "COLEGIO CHILENO NORTEAMERICANO", "POINT_X": -72.911453, "POINT_Y": -41.454231}}, {"type": "Feature", "geometry": {"type": "Point", "coordinates": [-72.65847799999995, -41.45351000000001]}, "properties": {"CUT_REG": "10", "CUT_PROV": "101", "CUT_COM": "10101", "REGION": "Los Lagos", "PROVINCIA": "Llanquihue", "COMUNA": "Puerto Montt", "variable": "Centros de Educaci\u00f3n B\u00e1sica y Media", "Nombres": "ESCUELA RURAL CORRENTOSO", "POINT_X": -72.658478, "POINT_Y": -41.45351}}, {"type": "Feature", "geometry": {"type": "Point", "coordinates": [-72.93592799999996, -41.45257200000002]}, "properties": {"CUT_REG": "10", "CUT_PROV": "101", "CUT_COM": "10101", "REGION": "Los Lagos", "PROVINCIA": "Llanquihue", "COMUNA": "Puerto Montt", "variable": "Centros de Educaci\u00f3n B\u00e1sica y Media", "Nombres": "COLEGIO SANTO TOMAS DE PUERTO MONTT", "POINT_X": -72.935928, "POINT_Y": -41.452572}}, {"type": "Feature", "geometry": {"type": "Point", "coordinates": [-72.91187299999996, -41.452560000000005]}, "properties": {"CUT_REG": "10", "CUT_PROV": "101", "CUT_COM": "10101", "REGION": "Los Lagos", "PROVINCIA": "Llanquihue", "COMUNA": "Puerto Montt", "variable": "Centros de Educaci\u00f3n B\u00e1sica y Media", "Nombres": "ESCUELA RURAL LA PALOMA", "POINT_X": -72.911873, "POINT_Y": -41.45256}}, {"type": "Feature", "geometry": {"type": "Point", "coordinates": [-72.92511233, -41.452206499999974]}, "properties": {"CUT_REG": "10", "CUT_PROV": "101", "CUT_COM": "10101", "REGION": "Los Lagos", "PROVINCIA": "Llanquihue", "COMUNA": "Puerto Montt", "variable": "Centros de Educaci\u00f3n B\u00e1sica y Media", "Nombres": "SALA CUNA Y JARDIN INFANTIL BICHITOS DE LUZ", "POINT_X": -72.92511233, "POINT_Y": -41.4522065}}, {"type": "Feature", "geometry": {"type": "Point", "coordinates": [-72.95457458000003, -41.45159912]}, "properties": {"CUT_REG": "10", "CUT_PROV": "101", "CUT_COM": "10101", "REGION": "Los Lagos", "PROVINCIA": "Llanquihue", "COMUNA": "Puerto Montt", "variable": "Centros de Educaci\u00f3n B\u00e1sica y Media", "Nombres": "ESCUELA DE ADULTOS RELONCAVI", "POINT_X": -72.95457458, "POINT_Y": -41.45159912}}, {"type": "Feature", "geometry": {"type": "Point", "coordinates": [-72.96314200000003, -41.45122900000001]}, "properties": {"CUT_REG": "10", "CUT_PROV": "101", "CUT_COM": "10101", "REGION": "Los Lagos", "PROVINCIA": "Llanquihue", "COMUNA": "Puerto Montt", "variable": "Centros de Educaci\u00f3n B\u00e1sica y Media", "Nombres": "ESCUELA CAYENEL", "POINT_X": -72.963142, "POINT_Y": -41.451229}}, {"type": "Feature", "geometry": {"type": "Point", "coordinates": [-72.90251200000002, -41.44942900000002]}, "properties": {"CUT_REG": "10", "CUT_PROV": "101", "CUT_COM": "10101", "REGION": "Los Lagos", "PROVINCIA": "Llanquihue", "COMUNA": "Puerto Montt", "variable": "Centros de Educaci\u00f3n B\u00e1sica y Media", "Nombres": "COLEGIO PUMANQUE", "POINT_X": -72.902512, "POINT_Y": -41.449429}}, {"type": "Feature", "geometry": {"type": "Point", "coordinates": [-73.47403000000003, -41.449181000000024]}, "properties": {"CUT_REG": "10", "CUT_PROV": "101", "CUT_COM": "10106", "REGION": "Los Lagos", "PROVINCIA": "Llanquihue", "COMUNA": "Los Muermos", "variable": "Centros de Educaci\u00f3n B\u00e1sica y Media", "Nombres": "ESCUELA RURAL CARACOL", "POINT_X": -73.47403, "POINT_Y": -41.449181}}, {"type": "Feature", "geometry": {"type": "Point", "coordinates": [-72.95725999999999, -41.44917]}, "properties": {"CUT_REG": "10", "CUT_PROV": "101", "CUT_COM": "10101", "REGION": "Los Lagos", "PROVINCIA": "Llanquihue", "COMUNA": "Puerto Montt", "variable": "Centros de Educaci\u00f3n B\u00e1sica y Media", "Nombres": "ESCUELA HOSPITALARIA PUERTO MONTT", "POINT_X": -72.95726, "POINT_Y": -41.44917}}, {"type": "Feature", "geometry": {"type": "Point", "coordinates": [-73.02110299999995, -41.447669999999974]}, "properties": {"CUT_REG": "10", "CUT_PROV": "101", "CUT_COM": "10101", "REGION": "Los Lagos", "PROVINCIA": "Llanquihue", "COMUNA": "Puerto Montt", "variable": "Centros de Educaci\u00f3n B\u00e1sica y Media", "Nombres": "ESCUELA RURAL LAGUNITAS", "POINT_X": -73.021103, "POINT_Y": -41.44767}}, {"type": "Feature", "geometry": {"type": "Point", "coordinates": [-72.92525499999999, -41.44722400000002]}, "properties": {"CUT_REG": "10", "CUT_PROV": "101", "CUT_COM": "10101", "REGION": "Los Lagos", "PROVINCIA": "Llanquihue", "COMUNA": "Puerto Montt", "variable": "Centros de Educaci\u00f3n B\u00e1sica y Media", "Nombres": "SALA CUNA Y JARDIN INFANTIL AMANCAY", "POINT_X": -72.925255, "POINT_Y": -41.447224}}, {"type": "Feature", "geometry": {"type": "Point", "coordinates": [-72.92347599999997, -41.44704099999997]}, "properties": {"CUT_REG": "10", "CUT_PROV": "101", "CUT_COM": "10101", "REGION": "Los Lagos", "PROVINCIA": "Llanquihue", "COMUNA": "Puerto Montt", "variable": "Centros de Educaci\u00f3n B\u00e1sica y Media", "Nombres": "ESCUELA ESPECIAL DE LENGUAJE EDELWEISS", "POINT_X": -72.923476, "POINT_Y": -41.447041}}, {"type": "Feature", "geometry": {"type": "Point", "coordinates": [-72.91458100000003, -41.446548000000035]}, "properties": {"CUT_REG": "10", "CUT_PROV": "101", "CUT_COM": "10101", "REGION": "Los Lagos", "PROVINCIA": "Llanquihue", "COMUNA": "Puerto Montt", "variable": "Centros de Educaci\u00f3n B\u00e1sica y Media", "Nombres": "COLEGIO PARTICULAR DA VINCI SCHOOL", "POINT_X": -72.914581, "POINT_Y": -41.446548}}, {"type": "Feature", "geometry": {"type": "Point", "coordinates": [-72.93267147, -41.44507090000003]}, "properties": {"CUT_REG": "10", "CUT_PROV": "101", "CUT_COM": "10101", "REGION": "Los Lagos", "PROVINCIA": "Llanquihue", "COMUNA": "Puerto Montt", "variable": "Centros de Educaci\u00f3n B\u00e1sica y Media", "Nombres": "JARDIN INFANTIL EL SAPITO PIRI Y SUS AMIGOS", "POINT_X": -72.93267147, "POINT_Y": -41.4450709}}, {"type": "Feature", "geometry": {"type": "Point", "coordinates": [-73.29113799999999, -41.44369900000004]}, "properties": {"CUT_REG": "10", "CUT_PROV": "101", "CUT_COM": "10106", "REGION": "Los Lagos", "PROVINCIA": "Llanquihue", "COMUNA": "Los Muermos", "variable": "Centros de Educaci\u00f3n B\u00e1sica y Media", "Nombres": "ESCUELA RURAL PARAGUAY CHICO EL GATO", "POINT_X": -73.291138, "POINT_Y": -41.443699}}, {"type": "Feature", "geometry": {"type": "Point", "coordinates": [-72.93850700000002, -41.44224899999996]}, "properties": {"CUT_REG": "10", "CUT_PROV": "101", "CUT_COM": "10101", "REGION": "Los Lagos", "PROVINCIA": "Llanquihue", "COMUNA": "Puerto Montt", "variable": "Centros de Educaci\u00f3n B\u00e1sica y Media", "Nombres": "THE BRISTISH SCHOOL PATAGONIA", "POINT_X": -72.938507, "POINT_Y": -41.442249}}, {"type": "Feature", "geometry": {"type": "Point", "coordinates": [-72.33009299999998, -41.44095999999998]}, "properties": {"CUT_REG": "10", "CUT_PROV": "101", "CUT_COM": "10109", "REGION": "Los Lagos", "PROVINCIA": "Llanquihue", "COMUNA": "Puerto Varas", "variable": "Centros de Educaci\u00f3n B\u00e1sica y Media", "Nombres": "ESCUELA RURAL LA PENINSULA", "POINT_X": -72.330093, "POINT_Y": -41.44096}}, {"type": "Feature", "geometry": {"type": "Point", "coordinates": [-72.93430350000003, -41.43861364]}, "properties": {"CUT_REG": "10", "CUT_PROV": "101", "CUT_COM": "10101", "REGION": "Los Lagos", "PROVINCIA": "Llanquihue", "COMUNA": "Puerto Montt", "variable": "Centros de Educaci\u00f3n B\u00e1sica y Media", "Nombres": "JARDIN INFANTIL Y SALA CUNA THE GREEN VALLEY", "POINT_X": -72.9343035, "POINT_Y": -41.43861364}}, {"type": "Feature", "geometry": {"type": "Point", "coordinates": [-72.81701700000002, -41.43164100000004]}, "properties": {"CUT_REG": "10", "CUT_PROV": "101", "CUT_COM": "10101", "REGION": "Los Lagos", "PROVINCIA": "Llanquihue", "COMUNA": "Puerto Montt", "variable": "Centros de Educaci\u00f3n B\u00e1sica y Media", "Nombres": "ESCUELA RURAL RIO CHICO", "POINT_X": -72.817017, "POINT_Y": -41.431641}}, {"type": "Feature", "geometry": {"type": "Point", "coordinates": [-73.62352846000002, -41.431241490000026]}, "properties": {"CUT_REG": "10", "CUT_PROV": "101", "CUT_COM": "10106", "REGION": "Los Lagos", "PROVINCIA": "Llanquihue", "COMUNA": "Los Muermos", "variable": "Centros de Educaci\u00f3n B\u00e1sica y Media", "Nombres": "ESCUELA PARTICULAR N.220 FUNDO LA PALOMA", "POINT_X": -73.62352846, "POINT_Y": -41.43124149}}, {"type": "Feature", "geometry": {"type": "Point", "coordinates": [-72.86990400000003, -41.43120999999999]}, "properties": {"CUT_REG": "10", "CUT_PROV": "101", "CUT_COM": "10101", "REGION": "Los Lagos", "PROVINCIA": "Llanquihue", "COMUNA": "Puerto Montt", "variable": "Centros de Educaci\u00f3n B\u00e1sica y Media", "Nombres": "ESCUELA RURAL SENDA SUR", "POINT_X": -72.869904, "POINT_Y": -41.43121}}, {"type": "Feature", "geometry": {"type": "Point", "coordinates": [-73.58177899999995, -41.426417999999984]}, "properties": {"CUT_REG": "10", "CUT_PROV": "101", "CUT_COM": "10106", "REGION": "Los Lagos", "PROVINCIA": "Llanquihue", "COMUNA": "Los Muermos", "variable": "Centros de Educaci\u00f3n B\u00e1sica y Media", "Nombres": "ESCUELA PARTICULAR N.308 EL MIRADOR", "POINT_X": -73.581779, "POINT_Y": -41.426418}}, {"type": "Feature", "geometry": {"type": "Point", "coordinates": [-72.90679200000002, -41.425670999999994]}, "properties": {"CUT_REG": "10", "CUT_PROV": "101", "CUT_COM": "10101", "REGION": "Los Lagos", "PROVINCIA": "Llanquihue", "COMUNA": "Puerto Montt", "variable": "Centros de Educaci\u00f3n B\u00e1sica y Media", "Nombres": "ESCUELA RURAL LA VARA", "POINT_X": -72.906792, "POINT_Y": -41.425671}}, {"type": "Feature", "geometry": {"type": "Point", "coordinates": [-73.08426700000004, -41.42549100000002]}, "properties": {"CUT_REG": "10", "CUT_PROV": "101", "CUT_COM": "10101", "REGION": "Los Lagos", "PROVINCIA": "Llanquihue", "COMUNA": "Puerto Montt", "variable": "Centros de Educaci\u00f3n B\u00e1sica y Media", "Nombres": "ESCUELA PARTICULAR BOSQUE VERDE", "POINT_X": -73.084267, "POINT_Y": -41.425491}}, {"type": "Feature", "geometry": {"type": "Point", "coordinates": [-73.100288, -41.423610999999994]}, "properties": {"CUT_REG": "10", "CUT_PROV": "101", "CUT_COM": "10101", "REGION": "Los Lagos", "PROVINCIA": "Llanquihue", "COMUNA": "Puerto Montt", "variable": "Centros de Educaci\u00f3n B\u00e1sica y Media", "Nombres": "ESCUELA RURAL TEPUAL", "POINT_X": -73.100288, "POINT_Y": -41.423611}}, {"type": "Feature", "geometry": {"type": "Point", "coordinates": [-73.77332299999998, -41.422530999999985]}, "properties": {"CUT_REG": "10", "CUT_PROV": "101", "CUT_COM": "10106", "REGION": "Los Lagos", "PROVINCIA": "Llanquihue", "COMUNA": "Los Muermos", "variable": "Centros de Educaci\u00f3n B\u00e1sica y Media", "Nombres": "ESCUELA PARTICULAR N.221 ESTAQUILLA BAJO", "POINT_X": -73.773323, "POINT_Y": -41.422531}}, {"type": "Feature", "geometry": {"type": "Point", "coordinates": [-72.90770699999997, -41.41339899999997]}, "properties": {"CUT_REG": "10", "CUT_PROV": "101", "CUT_COM": "10101", "REGION": "Los Lagos", "PROVINCIA": "Llanquihue", "COMUNA": "Puerto Montt", "variable": "Centros de Educaci\u00f3n B\u00e1sica y Media", "Nombres": "COLEGIO PATAGONIA ALERCE CORDILLERA", "POINT_X": -72.907707, "POINT_Y": -41.413399}}, {"type": "Feature", "geometry": {"type": "Point", "coordinates": [-72.90336000000002, -41.41019000000003]}, "properties": {"CUT_REG": "10", "CUT_PROV": "101", "CUT_COM": "10101", "REGION": "Los Lagos", "PROVINCIA": "Llanquihue", "COMUNA": "Puerto Montt", "variable": "Centros de Educaci\u00f3n B\u00e1sica y Media", "Nombres": "ESCUELA ESPECIAL DE LENGUAJE DIALECTA ALERCE", "POINT_X": -72.90336, "POINT_Y": -41.41019}}, {"type": "Feature", "geometry": {"type": "Point", "coordinates": [-72.91103362999996, -41.40858841000002]}, "properties": {"CUT_REG": "10", "CUT_PROV": "101", "CUT_COM": "10101", "REGION": "Los Lagos", "PROVINCIA": "Llanquihue", "COMUNA": "Puerto Montt", "variable": "Centros de Educaci\u00f3n B\u00e1sica y Media", "Nombres": "JARDIN INFANTIL MUNDO MELODIA", "POINT_X": -72.91103363, "POINT_Y": -41.40858841}}, {"type": "Feature", "geometry": {"type": "Point", "coordinates": [-72.90567799999997, -41.405929999999984]},