{"type": "FeatureCollection", "features": [{"type": "Feature", "geometry": {"type": "Point", "coordinates": [-70.85672157000005, -33.33643357999997]}, "properties": {"CUT_REG": "13", "CUT_PROV": "133", "CUT_COM": "13302", "REGION": "Metropolitana de Santiago", "PROVINCIA": "Chacabuco", "COMUNA": "Lampa", "variable": "Centros de Educaci\u00f3n B\u00e1sica y Media", "Nombres": "ESCUELA BASICA G-N\u00b0320 LIPANGUE", "POINT_X": -70.85672157, "POINT_Y": -33.33643358}}, {"type": "Feature", "geometry": {"type": "Point", "coordinates": [-70.76225038999996, -33.32978688999998]}, "properties": {"CUT_REG": "13", "CUT_PROV": "133", "CUT_COM": "13302", "REGION": "Metropolitana de Santiago", "PROVINCIA": "Chacabuco", "COMUNA": "Lampa", "variable": "Centros de Educaci\u00f3n B\u00e1sica y Media", "Nombres": "ESCUELA B\u00c1SICA N\u00b02477, COLEGIO WESTON ACADEMY EN VALLE GRANDE", "POINT_X": -70.76225039, "POINT_Y": -33.32978689}}, {"type": "Feature", "geometry": {"type": "Point", "coordinates": [-70.74763999999999, -33.328740000000046]}, "properties": {"CUT_REG": "13", "CUT_PROV": "133", "CUT_COM": "13302", "REGION": "Metropolitana de Santiago", "PROVINCIA": "Chacabuco", "COMUNA": "Lampa", "variable": "Centros de Educaci\u00f3n B\u00e1sica y Media", "Nombres": "ESCUELA ESPECIAL N\u00b0 2458 KIMUNTUWE", "POINT_X": -70.74764, "POINT_Y": -33.32874}}, {"type": "Feature", "geometry": {"type": "Point", "coordinates": [-70.74834599999997, -33.32532999999999]}, "properties": {"CUT_REG": "13", "CUT_PROV": "133", "CUT_COM": "13302", "REGION": "Metropolitana de Santiago", "PROVINCIA": "Chacabuco", "COMUNA": "Lampa", "variable": "Centros de Educaci\u00f3n B\u00e1sica y Media", "Nombres": "ESCUELA  ESPECIAL  2438 `PEQUE\u00d1OS  GENIOS  DE  VALLE  GRANDE`", "POINT_X": -70.748346, "POINT_Y": -33.32533}}, {"type": "Feature", "geometry": {"type": "Point", "coordinates": [-70.63207800000004, -33.32373599999999]}, "properties": {"CUT_REG": "13", "CUT_PROV": "133", "CUT_COM": "13301", "REGION": "Metropolitana de Santiago", "PROVINCIA": "Chacabuco", "COMUNA": "Colina", "variable": "Centros de Educaci\u00f3n B\u00e1sica y Media", "Nombres": "JARD\u00cdN INFANTIL BAMBOO", "POINT_X": -70.632078, "POINT_Y": -33.323736}}, {"type": "Feature", "geometry": {"type": "Point", "coordinates": [-70.75084800000005, -33.32254199999996]}, "properties": {"CUT_REG": "13", "CUT_PROV": "133", "CUT_COM": "13302", "REGION": "Metropolitana de Santiago", "PROVINCIA": "Chacabuco", "COMUNA": "Lampa", "variable": "Centros de Educaci\u00f3n B\u00e1sica y Media", "Nombres": "ESCUELA ESPECIAL SEMILLITAS DEL VALLE", "POINT_X": -70.750848, "POINT_Y": -33.322542}}, {"type": "Feature", "geometry": {"type": "Point", "coordinates": [-70.74706346999999, -33.32204578000003]}, "properties": {"CUT_REG": "13", "CUT_PROV": "133", "CUT_COM": "13302", "REGION": "Metropolitana de Santiago", "PROVINCIA": "Chacabuco", "COMUNA": "Lampa", "variable": "Centros de Educaci\u00f3n B\u00e1sica y Media", "Nombres": "ESCUELA  SAN PEDRO VALLE GRANDE", "POINT_X": -70.74706347, "POINT_Y": -33.32204578}}, {"type": "Feature", "geometry": {"type": "Point", "coordinates": [-70.65182999999999, -33.31904000000002]}, "properties": {"CUT_REG": "13", "CUT_PROV": "133", "CUT_COM": "13301", "REGION": "Metropolitana de Santiago", "PROVINCIA": "Chacabuco", "COMUNA": "Colina", "variable": "Centros de Educaci\u00f3n B\u00e1sica y Media", "Nombres": "ESCUELA B\u00c1SICA N\u00b02415 LYC\u00c9E ANTOINE DE SAINT EXUP\u00c9RY", "POINT_X": -70.65183, "POINT_Y": -33.31904}}, {"type": "Feature", "geometry": {"type": "Point", "coordinates": [-70.65538900000003, -33.30840100000002]}, "properties": {"CUT_REG": "13", "CUT_PROV": "133", "CUT_COM": "13301", "REGION": "Metropolitana de Santiago", "PROVINCIA": "Chacabuco", "COMUNA": "Colina", "variable": "Centros de Educaci\u00f3n B\u00e1sica y Media", "Nombres": "ESCUELA DE PARVULOS N\u00ba2493 JARD\u00cdN INFANTIL LEHIBOU", "POINT_X": -70.655389, "POINT_Y": -33.308401}}, {"type": "Feature", "geometry": {"type": "Point", "coordinates": [-70.85536319, -33.30479160999998]}, "properties": {"CUT_REG": "13", "CUT_PROV": "133", "CUT_COM": "13302", "REGION": "Metropolitana de Santiago", "PROVINCIA": "Chacabuco", "COMUNA": "Lampa", "variable": "Centros de Educaci\u00f3n B\u00e1sica y Media", "Nombres": "ESC. BAS. PART.  JERUSALEN", "POINT_X": -70.85536319, "POINT_Y": -33.30479161}}, {"type": "Feature", "geometry": {"type": "Point", "coordinates": [-70.73806200000003, -33.30400799999998]}, "properties": {"CUT_REG": "13", "CUT_PROV": "133", "CUT_COM": "13302", "REGION": "Metropolitana de Santiago", "PROVINCIA": "Chacabuco", "COMUNA": "Lampa", "variable": "Centros de Educaci\u00f3n B\u00e1sica y Media", "Nombres": "ESCUELA B\u00c1SICA N\u00b02484, COLEGIO PUMAHUE CHICAUMA", "POINT_X": -70.738062, "POINT_Y": -33.304008}}, {"type": "Feature", "geometry": {"type": "Point", "coordinates": [-70.85862428, -33.30157751999997]}, "properties": {"CUT_REG": "13", "CUT_PROV": "133", "CUT_COM": "13302", "REGION": "Metropolitana de Santiago", "PROVINCIA": "Chacabuco", "COMUNA": "Lampa", "variable": "Centros de Educaci\u00f3n B\u00e1sica y Media", "Nombres": "NORMA GONZ\u00c1LEZ GUERRA", "POINT_X": -70.85862428, "POINT_Y": -33.30157752}}, {"type": "Feature", "geometry": {"type": "Point", "coordinates": [-70.87471, -33.29947699999999]}, "properties": {"CUT_REG": "13", "CUT_PROV": "133", "CUT_COM": "13302", "REGION": "Metropolitana de Santiago", "PROVINCIA": "Chacabuco", "COMUNA": "Lampa", "variable": "Centros de Educaci\u00f3n B\u00e1sica y Media", "Nombres": "ESC.ESPECIAL N\u00ba 2279 SAN EXPEDITO DE LAMPA", "POINT_X": -70.87471, "POINT_Y": -33.299477}}, {"type": "Feature", "geometry": {"type": "Point", "coordinates": [-70.79783365, -33.29814342999996]}, "properties": {"CUT_REG": "13", "CUT_PROV": "133", "CUT_COM": "13302", "REGION": "Metropolitana de Santiago", "PROVINCIA": "Chacabuco", "COMUNA": "Lampa", "variable": "Centros de Educaci\u00f3n B\u00e1sica y Media", "Nombres": "ESCUELA BASICA CACIQUE COLIN", "POINT_X": -70.79783365, "POINT_Y": -33.29814343}}, {"type": "Feature", "geometry": {"type": "Point", "coordinates": [-70.87012799999997, -33.29778900000003]}, "properties": {"CUT_REG": "13", "CUT_PROV": "133", "CUT_COM": "13302", "REGION": "Metropolitana de Santiago", "PROVINCIA": "Chacabuco", "COMUNA": "Lampa", "variable": "Centros de Educaci\u00f3n B\u00e1sica y Media", "Nombres": "SALA CUNA LARA PINTA EL SOL", "POINT_X": -70.870128, "POINT_Y": -33.297789}}, {"type": "Feature", "geometry": {"type": "Point", "coordinates": [-70.87256000000002, -33.29719000000003]}, "properties": {"CUT_REG": "13", "CUT_PROV": "133", "CUT_COM": "13302", "REGION": "Metropolitana de Santiago", "PROVINCIA": "Chacabuco", "COMUNA": "Lampa", "variable": "Centros de Educaci\u00f3n B\u00e1sica y Media", "Nombres": "ESCUELA ESPECIAL KITARI", "POINT_X": -70.87256, "POINT_Y": -33.29719}}, {"type": "Feature", "geometry": {"type": "Point", "coordinates": [-70.86984999999996, -33.296800000000005]}, "properties": {"CUT_REG": "13", "CUT_PROV": "133", "CUT_COM": "13302", "REGION": "Metropolitana de Santiago", "PROVINCIA": "Chacabuco", "COMUNA": "Lampa", "variable": "Centros de Educaci\u00f3n B\u00e1sica y Media", "Nombres": "ESCUELA DE PARVILOS N\u00b0 2467 LARAPINTA EL SOL", "POINT_X": -70.86985, "POINT_Y": -33.2968}}, {"type": "Feature", "geometry": {"type": "Point", "coordinates": [-70.70054399999995, -33.29609099999996]}, "properties": {"CUT_REG": "13", "CUT_PROV": "133", "CUT_COM": "13301", "REGION": "Metropolitana de Santiago", "PROVINCIA": "Chacabuco", "COMUNA": "Colina", "variable": "Centros de Educaci\u00f3n B\u00e1sica y Media", "Nombres": "ESCUELA DE PARVULOS N\u00b02169 MY HOUSE", "POINT_X": -70.700544, "POINT_Y": -33.296091}}, {"type": "Feature", "geometry": {"type": "Point", "coordinates": [-70.87752955999997, -33.29550455000002]}, "properties": {"CUT_REG": "13", "CUT_PROV": "133", "CUT_COM": "13302", "REGION": "Metropolitana de Santiago", "PROVINCIA": "Chacabuco", "COMUNA": "Lampa", "variable": "Centros de Educaci\u00f3n B\u00e1sica y Media", "Nombres": "ESC.BAS. EMPRENDER LARAPINTA", "POINT_X": -70.87752956, "POINT_Y": -33.29550455}}, {"type": "Feature", "geometry": {"type": "Point", "coordinates": [-70.88866999999999, -33.294803999999964]}, "properties": {"CUT_REG": "13", "CUT_PROV": "133", "CUT_COM": "13302", "REGION": "Metropolitana de Santiago", "PROVINCIA": "Chacabuco", "COMUNA": "Lampa", "variable": "Centros de Educaci\u00f3n B\u00e1sica y Media", "Nombres": "ESCUELA BASICA COLEGIO SAN JUAN DE LAMPA", "POINT_X": -70.88867, "POINT_Y": -33.294804}}, {"type": "Feature", "geometry": {"type": "Point", "coordinates": [-70.88207000000003, -33.29476999999999]}, "properties": {"CUT_REG": "13", "CUT_PROV": "133", "CUT_COM": "13302", "REGION": "Metropolitana de Santiago", "PROVINCIA": "Chacabuco", "COMUNA": "Lampa", "variable": "Centros de Educaci\u00f3n B\u00e1sica y Media", "Nombres": "ESCUEL ESPECIAL BAMB\u00da", "POINT_X": -70.88207, "POINT_Y": -33.29477}}, {"type": "Feature", "geometry": {"type": "Point", "coordinates": [-70.88567999999995, -33.293140000000044]}, "properties": {"CUT_REG": "13", "CUT_PROV": "133", "CUT_COM": "13302", "REGION": "Metropolitana de Santiago", "PROVINCIA": "Chacabuco", "COMUNA": "Lampa", "variable": "Centros de Educaci\u00f3n B\u00e1sica y Media", "Nombres": "ESCUELA BASICA N\u00b0 2469 COLEGIO NEHUEN", "POINT_X": -70.88568, "POINT_Y": -33.29314}}, {"type": "Feature", "geometry": {"type": "Point", "coordinates": [-70.73426999999998, -33.292500000000025]}, "properties": {"CUT_REG": "13", "CUT_PROV": "133", "CUT_COM": "13302", "REGION": "Metropolitana de Santiago", "PROVINCIA": "Chacabuco", "COMUNA": "Lampa", "variable": "Centros de Educaci\u00f3n B\u00e1sica y Media", "Nombres": "COLEGIO SOL DEL VALLE", "POINT_X": -70.73427, "POINT_Y": -33.2925}}, {"type": "Feature", "geometry": {"type": "Point", "coordinates": [-70.87263000000003, -33.29209000000003]}, "properties": {"CUT_REG": "13", "CUT_PROV": "133", "CUT_COM": "13302", "REGION": "Metropolitana de Santiago", "PROVINCIA": "Chacabuco", "COMUNA": "Lampa", "variable": "Centros de Educaci\u00f3n B\u00e1sica y Media", "Nombres": "ESCUELA DE LENGUAJE N\u00b02399 GRANDES SUE\u00d1OS", "POINT_X": -70.87263, "POINT_Y": -33.29209}}, {"type": "Feature", "geometry": {"type": "Point", "coordinates": [-70.88589, -33.291363000000004]}, "properties": {"CUT_REG": "13", "CUT_PROV": "133", "CUT_COM": "13302", "REGION": "Metropolitana de Santiago", "PROVINCIA": "Chacabuco", "COMUNA": "Lampa", "variable": "Centros de Educaci\u00f3n B\u00e1sica y Media", "Nombres": "ESCUELA BASICA CRISTIANO JERUSALEN", "POINT_X": -70.88589, "POINT_Y": -33.291363}}, {"type": "Feature", "geometry": {"type": "Point", "coordinates": [-70.87760999999996, -33.28922700000002]}, "properties": {"CUT_REG": "13", "CUT_PROV": "133", "CUT_COM": "13302", "REGION": "Metropolitana de Santiago", "PROVINCIA": "Chacabuco", "COMUNA": "Lampa", "variable": "Centros de Educaci\u00f3n B\u00e1sica y Media", "Nombres": "ESCUELA ESPECIAL PARAISO", "POINT_X": -70.87761, "POINT_Y": -33.289227}}, {"type": "Feature", "geometry": {"type": "Point", "coordinates": [-70.87086537000005, -33.28825836999999]}, "properties": {"CUT_REG": "13", "CUT_PROV": "133", "CUT_COM": "13302", "REGION": "Metropolitana de Santiago", "PROVINCIA": "Chacabuco", "COMUNA": "Lampa", "variable": "Centros de Educaci\u00f3n B\u00e1sica y Media", "Nombres": "ESCUELA PART. SAN JOSE DE LAMPA", "POINT_X": -70.87086537, "POINT_Y": -33.28825837}}, {"type": "Feature", "geometry": {"type": "Point", "coordinates": [-70.67050999999998, -33.28783800000002]}, "properties": {"CUT_REG": "13", "CUT_PROV": "133", "CUT_COM": "13301", "REGION": "Metropolitana de Santiago", "PROVINCIA": "Chacabuco", "COMUNA": "Colina", "variable": "Centros de Educaci\u00f3n B\u00e1sica y Media", "Nombres": "COLEGIO DEL VERBO DIVINO DE CHICUREO", "POINT_X": -70.67051, "POINT_Y": -33.287838}}, {"type": "Feature", "geometry": {"type": "Point", "coordinates": [-70.87739588000001, -33.28710514999996]}, "properties": {"CUT_REG": "13", "CUT_PROV": "133", "CUT_COM": "13302", "REGION": "Metropolitana de Santiago", "PROVINCIA": "Chacabuco", "COMUNA": "Lampa", "variable": "Centros de Educaci\u00f3n B\u00e1sica y Media", "Nombres": "ESCUELA BASICA PARTICULAR PAICAVI DE LAMPA", "POINT_X": -70.87739588, "POINT_Y": -33.28710515}}, {"type": "Feature", "geometry": {"type": "Point", "coordinates": [-70.67076999999999, -33.286892]}, "properties": {"CUT_REG": "13", "CUT_PROV": "133", "CUT_COM": "13301", "REGION": "Metropolitana de Santiago", "PROVINCIA": "Chacabuco", "COMUNA": "Colina", "variable": "Centros de Educaci\u00f3n B\u00e1sica y Media", "Nombres": "COLEGIO SANTA CRUZ DE CHICUREO", "POINT_X": -70.67077, "POINT_Y": -33.286892}}, {"type": "Feature", "geometry": {"type": "Point", "coordinates": [-70.87187869000005, -33.28672948999996]}, "properties": {"CUT_REG": "13", "CUT_PROV": "133", "CUT_COM": "13302", "REGION": "Metropolitana de Santiago", "PROVINCIA": "Chacabuco", "COMUNA": "Lampa", "variable": "Centros de Educaci\u00f3n B\u00e1sica y Media", "Nombres": "COMPLEJO EDUCACIONAL DE LAMPA", "POINT_X": -70.87187869, "POINT_Y": -33.28672949}}, {"type": "Feature", "geometry": {"type": "Point", "coordinates": [-70.86986061000005, -33.286530999999975]}, "properties": {"CUT_REG": "13", "CUT_PROV": "133", "CUT_COM": "13302", "REGION": "Metropolitana de Santiago", "PROVINCIA": "Chacabuco", "COMUNA": "Lampa", "variable": "Centros de Educaci\u00f3n B\u00e1sica y Media", "Nombres": "ESCUELA ESPECIAL N\u00b0 2413, PEUMAYEN", "POINT_X": -70.86986061, "POINT_Y": -33.286531}}, {"type": "Feature", "geometry": {"type": "Point", "coordinates": [-70.87351205, -33.28608010999997]}, "properties": {"CUT_REG": "13", "CUT_PROV": "133", "CUT_COM": "13302", "REGION": "Metropolitana de Santiago", "PROVINCIA": "Chacabuco", "COMUNA": "Lampa", "variable": "Centros de Educaci\u00f3n B\u00e1sica y Media", "Nombres": "ESCUELA MANUEL SEGOVIA MONTENEGRO", "POINT_X": -70.87351205, "POINT_Y": -33.28608011}}, {"type": "Feature", "geometry": {"type": "Point", "coordinates": [-70.87282999999996, -33.28590800000003]}, "properties": {"CUT_REG": "13", "CUT_PROV": "133", "CUT_COM": "13302", "REGION": "Metropolitana de Santiago", "PROVINCIA": "Chacabuco", "COMUNA": "Lampa", "variable": "Centros de Educaci\u00f3n B\u00e1sica y Media", "Nombres": "ESCUELA ESPECIAL SAGRADA FAMILIA", "POINT_X": -70.87283, "POINT_Y": -33.285908}}, {"type": "Feature", "geometry": {"type": "Point", "coordinates": [-70.88729000000002, -33.28563699999999]}, "properties": {"CUT_REG": "13", "CUT_PROV": "133", "CUT_COM": "13302", "REGION": "Metropolitana de Santiago", "PROVINCIA": "Chacabuco", "COMUNA": "Lampa", "variable": "Centros de Educaci\u00f3n B\u00e1sica y Media", "Nombres": "COLEGIO ALBORADA DE LAMPA", "POINT_X": -70.88729, "POINT_Y": -33.285637}}, {"type": "Feature", "geometry": {"type": "Point", "coordinates": [-70.83372499999996, -33.285150000000016]}, "properties": {"CUT_REG": "13", "CUT_PROV": "133", "CUT_COM": "13302", "REGION": "Metropolitana de Santiago", "PROVINCIA": "Chacabuco", "COMUNA": "Lampa", "variable": "Centros de Educaci\u00f3n B\u00e1sica y Media", "Nombres": "ESCUELA ESPECIAL EL PORVENIR", "POINT_X": -70.833725, "POINT_Y": -33.28515}}, {"type": "Feature", "geometry": {"type": "Point", "coordinates": [-70.88761000000002, -33.28418700000001]}, "properties": {"CUT_REG": "13", "CUT_PROV": "133", "CUT_COM": "13302", "REGION": "Metropolitana de Santiago", "PROVINCIA": "Chacabuco", "COMUNA": "Lampa", "variable": "Centros de Educaci\u00f3n B\u00e1sica y Media", "Nombres": "ESC. ESPECIAL 1775 SAN ANTONIO II", "POINT_X": -70.88761, "POINT_Y": -33.284187}}, {"type": "Feature", "geometry": {"type": "Point", "coordinates": [-70.87251151, -33.28220086999999]}, "properties": {"CUT_REG": "13", "CUT_PROV": "133", "CUT_COM": "13302", "REGION": "Metropolitana de Santiago", "PROVINCIA": "Chacabuco", "COMUNA": "Lampa", "variable": "Centros de Educaci\u00f3n B\u00e1sica y Media", "Nombres": "ESC PART. SIGLO XXI DE LAMPA", "POINT_X": -70.87251151, "POINT_Y": -33.28220087}}, {"type": "Feature", "geometry": {"type": "Point", "coordinates": [-70.87702428, -33.28182782000003]}, "properties": {"CUT_REG": "13", "CUT_PROV": "133", "CUT_COM": "13302", "REGION": "Metropolitana de Santiago", "PROVINCIA": "Chacabuco", "COMUNA": "Lampa", "variable": "Centros de Educaci\u00f3n B\u00e1sica y Media", "Nombres": "ESCUELA BAS. INTEGRAL ENLACES DE LAMPA", "POINT_X": -70.87702428, "POINT_Y": -33.28182782}}, {"type": "Feature", "geometry": {"type": "Point", "coordinates": [-70.87669962999996, -33.281613319999956]}, "properties": {"CUT_REG": "13", "CUT_PROV": "133", "CUT_COM": "13302", "REGION": "Metropolitana de Santiago", "PROVINCIA": "Chacabuco", "COMUNA": "Lampa", "variable": "Centros de Educaci\u00f3n B\u00e1sica y Media", "Nombres": "COLEGIO POLIV. JERUSALEN DE LAMPA", "POINT_X": -70.87669963, "POINT_Y": -33.28161332}}, {"type": "Feature", "geometry": {"type": "Point", "coordinates": [-70.88011593, -33.28070559999999]}, "properties": {"CUT_REG": "13", "CUT_PROV": "133", "CUT_COM": "13302", "REGION": "Metropolitana de Santiago", "PROVINCIA": "Chacabuco", "COMUNA": "Lampa", "variable": "Centros de Educaci\u00f3n B\u00e1sica y Media", "Nombres": "ESCUELA POLONIA GUTIERREZ C.", "POINT_X": -70.88011593, "POINT_Y": -33.2807056}}, {"type": "Feature", "geometry": {"type": "Point", "coordinates": [-70.70319999999998, -33.27973599999997]}, "properties": {"CUT_REG": "13", "CUT_PROV": "133", "CUT_COM": "13301", "REGION": "Metropolitana de Santiago", "PROVINCIA": "Chacabuco", "COMUNA": "Colina", "variable": "Centros de Educaci\u00f3n B\u00e1sica y Media", "Nombres": "COLEGIO SAN NICOL\u00c1S DI\u00c1CONO", "POINT_X": -70.7032, "POINT_Y": -33.279736}}, {"type": "Feature", "geometry": {"type": "Point", "coordinates": [-70.63866, -33.27800100000003]}, "properties": {"CUT_REG": "13", "CUT_PROV": "133", "CUT_COM": "13301", "REGION": "Metropolitana de Santiago", "PROVINCIA": "Chacabuco", "COMUNA": "Colina", "variable": "Centros de Educaci\u00f3n B\u00e1sica y Media", "Nombres": "COLEGIO  SAN JOSE DE CHICUREO", "POINT_X": -70.63866, "POINT_Y": -33.278001}}, {"type": "Feature", "geometry": {"type": "Point", "coordinates": [-70.88572184000003, -33.27713856]}, "properties": {"CUT_REG": "13", "CUT_PROV": "133", "CUT_COM": "13302", "REGION": "Metropolitana de Santiago", "PROVINCIA": "Chacabuco", "COMUNA": "Lampa", "variable": "Centros de Educaci\u00f3n B\u00e1sica y Media", "Nombres": "ESCUELA BASICA N\u00ba 2286 LAMPA", "POINT_X": -70.88572184, "POINT_Y": -33.27713856}}, {"type": "Feature", "geometry": {"type": "Point", "coordinates": [-70.87845923999998, -33.27701169999998]}, "properties": {"CUT_REG": "13", "CUT_PROV": "133", "CUT_COM": "13302", "REGION": "Metropolitana de Santiago", "PROVINCIA": "Chacabuco", "COMUNA": "Lampa", "variable": "Centros de Educaci\u00f3n B\u00e1sica y Media", "Nombres": "ESCUELA BASICA MIRAFLORES DE LAMPA", "POINT_X": -70.87845924, "POINT_Y": -33.2770117}}, {"type": "Feature", "geometry": {"type": "Point", "coordinates": [-70.88730438999997, -33.27697139000002]}, "properties": {"CUT_REG": "13", "CUT_PROV": "133", "CUT_COM": "13302", "REGION": "Metropolitana de Santiago", "PROVINCIA": "Chacabuco", "COMUNA": "Lampa", "variable": "Centros de Educaci\u00f3n B\u00e1sica y Media", "Nombres": "ESCUELA BASICA N\u00b0 2468, RONALDO MU\u00d1OZ GIBBS", "POINT_X": -70.88730439, "POINT_Y": -33.27697139}}, {"type": "Feature", "geometry": {"type": "Point", "coordinates": [-70.64244999999997, -33.272896999999965]}, "properties": {"CUT_REG": "13", "CUT_PROV": "133", "CUT_COM": "13301", "REGION": "Metropolitana de Santiago", "PROVINCIA": "Chacabuco", "COMUNA": "Colina", "variable": "Centros de Educaci\u00f3n B\u00e1sica y Media", "Nombres": "COLEGIO SAN  ANSELMO", "POINT_X": -70.64245, "POINT_Y": -33.272897}}, {"type": "Feature", "geometry": {"type": "Point", "coordinates": [-70.72247999999996, -33.265436000000015]}, "properties": {"CUT_REG": "13", "CUT_PROV": "133", "CUT_COM": "13301", "REGION": "Metropolitana de Santiago", "PROVINCIA": "Chacabuco", "COMUNA": "Colina", "variable": "Centros de Educaci\u00f3n B\u00e1sica y Media", "Nombres": "COLEGIO RAYEN MAHUIDA", "POINT_X": -70.72248, "POINT_Y": -33.265436}}, {"type": "Feature", "geometry": {"type": "Point", "coordinates": [-70.88231539, -33.26409363999997]}, "properties": {"CUT_REG": "13", "CUT_PROV": "133", "CUT_COM": "13302", "REGION": "Metropolitana de Santiago", "PROVINCIA": "Chacabuco", "COMUNA": "Lampa", "variable": "Centros de Educaci\u00f3n B\u00e1sica y Media", "Nombres": "ESCUELA BASICA G-N\u00b0373 EL LUCERO", "POINT_X": -70.88231539, "POINT_Y": -33.26409364}}, {"type": "Feature", "geometry": {"type": "Point", "coordinates": [-70.75796278000004, -33.261351309999995]}, "properties": {"CUT_REG": "13", "CUT_PROV": "133", "CUT_COM": "13302", "REGION": "Metropolitana de Santiago", "PROVINCIA": "Chacabuco", "COMUNA": "Lampa", "variable": "Centros de Educaci\u00f3n B\u00e1sica y Media", "Nombres": "ESCUELA BASICA F-N\u00b0371 SANTA ROSA DE LAMPA", "POINT_X": -70.75796278, "POINT_Y": -33.26135131}}, {"type": "Feature", "geometry": {"type": "Point", "coordinates": [-70.61772738999997, -33.25922819000001]}, "properties": {"CUT_REG": "13", "CUT_PROV": "133", "CUT_COM": "13301", "REGION": "Metropolitana de Santiago", "PROVINCIA": "Chacabuco", "COMUNA": "Colina", "variable": "Centros de Educaci\u00f3n B\u00e1sica y Media", "Nombres": "ESCUELA DE PARVULOS N\u00b02437,  COLEGIO ALEM\u00c1N CHICUREO", "POINT_X": -70.61772739, "POINT_Y": -33.25922819}}, {"type": "Feature", "geometry": {"type": "Point", "coordinates": [-70.71997699999999, -33.25809299999997]}, "properties": {"CUT_REG": "13", "CUT_PROV": "133", "CUT_COM": "13301", "REGION": "Metropolitana de Santiago", "PROVINCIA": "Chacabuco", "COMUNA": "Colina", "variable": "Centros de Educaci\u00f3n B\u00e1sica y Media", "Nombres": "COLEGIO KIMEN MONTESSORI", "POINT_X": -70.719977, "POINT_Y": -33.258093}}, {"type": "Feature", "geometry": {"type": "Point", "coordinates": [-70.71502800000005, -33.250515000000014]}, "properties": {"CUT_REG": "13", "CUT_PROV": "133", "CUT_COM": "13301", "REGION": "Metropolitana de Santiago", "PROVINCIA": "Chacabuco", "COMUNA": "Colina", "variable": "Centros de Educaci\u00f3n B\u00e1sica y Media", "Nombres": "ESCUELA BASICA N\u00b02416 TREWHELA\u00b4S SCHOOL", "POINT_X": -70.715028, "POINT_Y": -33.250515}}, {"type": "Feature", "geometry": {"type": "Point", "coordinates": [-70.67071, -33.24798200000004]}, "properties": {"CUT_REG": "13", "CUT_PROV": "133", "CUT_COM": "13301", "REGION": "Metropolitana de Santiago", "PROVINCIA": "Chacabuco", "COMUNA": "Colina", "variable": "Centros de Educaci\u00f3n B\u00e1sica y Media", "Nombres": "LICEO BICENT. PROV.STA. TERESA DE LOS ANDES", "POINT_X": -70.67071, "POINT_Y": -33.247982}}, {"type": "Feature", "geometry": {"type": "Point", "coordinates": [-70.75265447000002, -33.24710517999997]}, "properties": {"CUT_REG": "13", "CUT_PROV": "133", "CUT_COM": "13301", "REGION": "Metropolitana de Santiago", "PROVINCIA": "Chacabuco", "COMUNA": "Colina", "variable": "Centros de Educaci\u00f3n B\u00e1sica y Media", "Nombres": "ESCUELA BASICA SANTA MARTA DE LIRAY", "POINT_X": -70.75265447, "POINT_Y": -33.24710518}}, {"type": "Feature", "geometry": {"type": "Point", "coordinates": [-70.77617399000005, -33.24623934]}, "properties": {"CUT_REG": "13", "CUT_PROV": "133", "CUT_COM": "13302", "REGION": "Metropolitana de Santiago", "PROVINCIA": "Chacabuco", "COMUNA": "Lampa", "variable": "Centros de Educaci\u00f3n B\u00e1sica y Media", "Nombres": "LICEO POLIVALENTE SAINT ANDREWS", "POINT_X": -70.77617399, "POINT_Y": -33.24623934}}, {"type": "Feature", "geometry": {"type": "Point", "coordinates": [-70.82385076999999, -33.24309135000004]}, "properties": {"CUT_REG": "13", "CUT_PROV": "133", "CUT_COM": "13302", "REGION": "Metropolitana de Santiago", "PROVINCIA": "Chacabuco", "COMUNA": "Lampa", "variable": "Centros de Educaci\u00f3n B\u00e1sica y Media", "Nombres": "ESCUELA SANTA  BARBARA", "POINT_X": -70.82385077, "POINT_Y": -33.24309135}}, {"type": "Feature", "geometry": {"type": "Point", "coordinates": [-70.68549901, -33.24264966]}, "properties": {"CUT_REG": "13", "CUT_PROV": "133", "CUT_COM": "13301", "REGION": "Metropolitana de Santiago", "PROVINCIA": "Chacabuco", "COMUNA": "Colina", "variable": "Centros de Educaci\u00f3n B\u00e1sica y Media", "Nombres": "ESCUELA BASICA SAN VICENTE DE LO ARCAYA", "POINT_X": -70.68549901, "POINT_Y": -33.24264966}}, {"type": "Feature", "geometry": {"type": "Point", "coordinates": [-70.765278, -33.24264399999998]}, "properties": {"CUT_REG": "13", "CUT_PROV": "133", "CUT_COM": "13302", "REGION": "Metropolitana de Santiago", "PROVINCIA": "Chacabuco", "COMUNA": "Lampa", "variable": "Centros de Educaci\u00f3n B\u00e1sica y Media", "Nombres": "ESC. ESPECIAL PADRE LUIS GUANELLA", "POINT_X": -70.765278, "POINT_Y": -33.242644}}, {"type": "Feature", "geometry": {"type": "Point", "coordinates": [-70.70037999999998, -33.24184400000004]}, "properties": {"CUT_REG": "13", "CUT_PROV": "133", "CUT_COM": "13301", "REGION": "Metropolitana de Santiago", "PROVINCIA": "Chacabuco", "COMUNA": "Colina", "variable": "Centros de Educaci\u00f3n B\u00e1sica y Media", "Nombres": "COLEGIO MONTESSORI PUCALAN", "POINT_X": -70.70038, "POINT_Y": -33.241844}}, {"type": "Feature", "geometry": {"type": "Point", "coordinates": [-70.81209358000001, -33.23969408999997]}, "properties": {"CUT_REG": "13", "CUT_PROV": "133", "CUT_COM": "13302", "REGION": "Metropolitana de Santiago", "PROVINCIA": "Chacabuco", "COMUNA": "Lampa", "variable": "Centros de Educaci\u00f3n B\u00e1sica y Media", "Nombres": "ESCUELA REPUBLICA DE POLONIA", "POINT_X": -70.81209358, "POINT_Y": -33.23969409}}, {"type": "Feature", "geometry": {"type": "Point", "coordinates": [-70.80914830999996, -33.23859871000002]}, "properties": {"CUT_REG": "13", "CUT_PROV": "133", "CUT_COM": "13302", "REGION": "Metropolitana de Santiago", "PROVINCIA": "Chacabuco", "COMUNA": "Lampa", "variable": "Centros de Educaci\u00f3n B\u00e1sica y Media", "Nombres": "ESCUELA BAS. AMANKAY DE LAMPA", "POINT_X": -70.80914831, "POINT_Y": -33.23859871}}, {"type": "Feature", "geometry": {"type": "Point", "coordinates": [-70.80743399999994, -33.23767000000001]}, "properties": {"CUT_REG": "13", "CUT_PROV": "133", "CUT_COM": "13302", "REGION": "Metropolitana de Santiago", "PROVINCIA": "Chacabuco", "COMUNA": "Lampa", "variable": "Centros de Educaci\u00f3n B\u00e1sica y Media", "Nombres": "ESCUELA ESP. PART. ACONCAGUA DE BATUCO", "POINT_X": -70.807434, "POINT_Y": -33.23767}}, {"type": "Feature", "geometry": {"type": "Point", "coordinates": [-70.80695999999999, -33.23749000000004]}, "properties": {"CUT_REG": "13", "CUT_PROV": "133", "CUT_COM": "13302", "REGION": "Metropolitana de Santiago", "PROVINCIA": "Chacabuco", "COMUNA": "Lampa", "variable": "Centros de Educaci\u00f3n B\u00e1sica y Media", "Nombres": "ESCUELA ESPECIAL DE  LENGUAJE LOS  CHAVITOS", "POINT_X": -70.80696, "POINT_Y": -33.23749}}, {"type": "Feature", "geometry": {"type": "Point", "coordinates": [-70.80813399999997, -33.236132000000026]}, "properties": {"CUT_REG": "13", "CUT_PROV": "133", "CUT_COM": "13302", "REGION": "Metropolitana de Santiago", "PROVINCIA": "Chacabuco", "COMUNA": "Lampa", "variable": "Centros de Educaci\u00f3n B\u00e1sica y Media", "Nombres": "ESCUELA ESPECIAL DE LENGUAJE PUCALEN", "POINT_X": -70.808134, "POINT_Y": -33.236132}}, {"type": "Feature", "geometry": {"type": "Point", "coordinates": [-70.81352707999997, -33.23598318999997]}, "properties": {"CUT_REG": "13", "CUT_PROV": "133", "CUT_COM": "13302", "REGION": "Metropolitana de Santiago", "PROVINCIA": "Chacabuco", "COMUNA": "Lampa", "variable": "Centros de Educaci\u00f3n B\u00e1sica y Media", "Nombres": "ESC. BAS. Y ESP. CENTRO INTEGRAL ALTAIR DE BA", "POINT_X": -70.81352708, "POINT_Y": -33.23598319}}, {"type": "Feature", "geometry": {"type": "Point", "coordinates": [-70.81049832000001, -33.23564788000003]}, "properties": {"CUT_REG": "13", "CUT_PROV": "133", "CUT_COM": "13302", "REGION": "Metropolitana de Santiago", "PROVINCIA": "Chacabuco", "COMUNA": "Lampa", "variable": "Centros de Educaci\u00f3n B\u00e1sica y Media", "Nombres": "ESCUELA PART. MASTER SCHOOL DE LAMPA", "POINT_X": -70.81049832, "POINT_Y": -33.23564788}}, {"type": "Feature", "geometry": {"type": "Point", "coordinates": [-70.80514500000001, -33.23557700000003]}, "properties": {"CUT_REG": "13", "CUT_PROV": "133", "CUT_COM": "13302", "REGION": "Metropolitana de Santiago", "PROVINCIA": "Chacabuco", "COMUNA": "Lampa", "variable": "Centros de Educaci\u00f3n B\u00e1sica y Media", "Nombres": "LICEO MUNICIP. DE ADULTOS PEDRO J. RODRIGUEZ", "POINT_X": -70.805145, "POINT_Y": -33.235577}}, {"type": "Feature", "geometry": {"type": "Point", "coordinates": [-70.71022000000005, -33.23340200000001]}, "properties": {"CUT_REG": "13", "CUT_PROV": "133", "CUT_COM": "13301", "REGION": "Metropolitana de Santiago", "PROVINCIA": "Chacabuco", "COMUNA": "Colina", "variable": "Centros de Educaci\u00f3n B\u00e1sica y Media", "Nombres": "CENTRO DE TRATAMIENTO INTEGRAL LOS LAURELES", "POINT_X": -70.71022, "POINT_Y": -33.233402}}, {"type": "Feature", "geometry": {"type": "Point", "coordinates": [-70.80998000000002, -33.23291800000002]}, "properties": {"CUT_REG": "13", "CUT_PROV": "133", "CUT_COM": "13302", "REGION": "Metropolitana de Santiago", "PROVINCIA": "Chacabuco", "COMUNA": "Lampa", "variable": "Centros de Educaci\u00f3n B\u00e1sica y Media", "Nombres": "ESCUELA ESPECIAL N\u00b01832 EXPLORADORES DE BATUCO", "POINT_X": -70.80998, "POINT_Y": -33.232918}}, {"type": "Feature", "geometry": {"type": "Point", "coordinates": [-70.78104886999998, -33.231355260000036]}, "properties": {"CUT_REG": "13", "CUT_PROV": "133", "CUT_COM": "13302", "REGION": "Metropolitana de Santiago", "PROVINCIA": "Chacabuco", "COMUNA": "Lampa", "variable": "Centros de Educaci\u00f3n B\u00e1sica y Media", "Nombres": "ESCUELA LAS PALMAS", "POINT_X": -70.78104887, "POINT_Y": -33.23135526}}, {"type": "Feature", "geometry": {"type": "Point", "coordinates": [-70.67252999999995, -33.229920000000035]}, "properties": {"CUT_REG": "13", "CUT_PROV": "133", "CUT_COM": "13301", "REGION": "Metropolitana de Santiago", "PROVINCIA": "Chacabuco", "COMUNA": "Colina", "variable": "Centros de Educaci\u00f3n B\u00e1sica y Media", "Nombres": "ESCUELA ESPECIAL ESPERANZA NUEVA", "POINT_X": -70.67253, "POINT_Y": -33.22992}}, {"type": "Feature", "geometry": {"type": "Point", "coordinates": [-70.80412000000001, -33.22982000000002]}, "properties": {"CUT_REG": "13", "CUT_PROV": "133", "CUT_COM": "13302", "REGION": "Metropolitana de Santiago", "PROVINCIA": "Chacabuco", "COMUNA": "Lampa", "variable": "Centros de Educaci\u00f3n B\u00e1sica y Media", "Nombres": "ESCUELA ESPECIAL N\u00b0 2462 SAN ANDRES DE BATUCO", "POINT_X": -70.80412, "POINT_Y": -33.22982}}, {"type": "Feature", "geometry": {"type": "Point", "coordinates": [-70.80517599999999, -33.22976999999997]}, "properties": {"CUT_REG": "13", "CUT_PROV": "133", "CUT_COM": "13302", "REGION": "Metropolitana de Santiago", "PROVINCIA": "Chacabuco", "COMUNA": "Lampa", "variable": "Centros de Educaci\u00f3n B\u00e1sica y Media", "Nombres": "COLEGIO ADULTOS MANQUEHUE", "POINT_X": -70.805176, "POINT_Y": -33.22977}}, {"type": "Feature", "geometry": {"type": "Point", "coordinates": [-70.80329, -33.22714600000002]}, "properties": {"CUT_REG": "13", "CUT_PROV": "133", "CUT_COM": "13302", "REGION": "Metropolitana de Santiago", "PROVINCIA": "Chacabuco", "COMUNA": "Lampa", "variable": "Centros de Educaci\u00f3n B\u00e1sica y Media", "Nombres": "LICEO MUNICIPAL DE BATUCO", "POINT_X": -70.80329, "POINT_Y": -33.227146}}, {"type": "Feature", "geometry": {"type": "Point", "coordinates": [-70.81013309999999, -33.22571237999997]}, "properties": {"CUT_REG": "13", "CUT_PROV": "133", "CUT_COM": "13302", "REGION": "Metropolitana de Santiago", "PROVINCIA": "Chacabuco", "COMUNA": "Lampa", "variable": "Centros de Educaci\u00f3n B\u00e1sica y Media", "Nombres": "ESCUELA BASICA SAN SEBASTIAN DE BATUCO", "POINT_X": -70.8101331, "POINT_Y": -33.22571238}}, {"type": "Feature", "geometry": {"type": "Point", "coordinates": [-70.77227635999995, -33.22541760000001]}, "properties": {"CUT_REG": "13", "CUT_PROV": "133", "CUT_COM": "13302", "REGION": "Metropolitana de Santiago", "PROVINCIA": "Chacabuco", "COMUNA": "Lampa", "variable": "Centros de Educaci\u00f3n B\u00e1sica y Media", "Nombres": "ESCUELA BASICA F - N\u00b0372 SANTA SARA", "POINT_X": -70.77227636, "POINT_Y": -33.2254176}}, {"type": "Feature", "geometry": {"type": "Point", "coordinates": [-70.74448000000001, -33.21991300000001]}, "properties": {"CUT_REG": "13", "CUT_PROV": "133", "CUT_COM": "13301", "REGION": "Metropolitana de Santiago", "PROVINCIA": "Chacabuco", "COMUNA": "Colina", "variable": "Centros de Educaci\u00f3n B\u00e1sica y Media", "Nombres": "COLEGIO PUMAHUE CHICUREO", "POINT_X": -70.74448, "POINT_Y": -33.219913}}, {"type": "Feature", "geometry": {"type": "Point", "coordinates": [-70.66314, -33.21859199999996]}, "properties": {"CUT_REG": "13", "CUT_PROV": "133", "CUT_COM": "13301", "REGION": "Metropolitana de Santiago", "PROVINCIA": "Chacabuco", "COMUNA": "Colina", "variable": "Centros de Educaci\u00f3n B\u00e1sica y Media", "Nombres": "COLEGIO HIGHLANDS", "POINT_X": -70.66314, "POINT_Y": -33.218592}}, {"type": "Feature", "geometry": {"type": "Point", "coordinates": [-70.68175500000001, -33.21262399999999]}, "properties": {"CUT_REG": "13", "CUT_PROV": "133", "CUT_COM": "13301", "REGION": "Metropolitana de Santiago", "PROVINCIA": "Chacabuco", "COMUNA": "Colina", "variable": "Centros de Educaci\u00f3n B\u00e1sica y Media", "Nombres": "LICEO REBECA OLIVARES BENITEZ", "POINT_X": -70.681755, "POINT_Y": -33.212624}}, {"type": "Feature", "geometry": {"type": "Point", "coordinates": [-70.67877999999999, -33.21208000000001]}, "properties": {"CUT_REG": "13", "CUT_PROV": "133", "CUT_COM": "13301", "REGION": "Metropolitana de Santiago", "PROVINCIA": "Chacabuco", "COMUNA": "Colina", "variable": "Centros de Educaci\u00f3n B\u00e1sica y Media", "Nombres": "ESCUELA DE PARV. PART. SAN JORGE DE COLINA", "POINT_X": -70.67878, "POINT_Y": -33.21208}}, {"type": "Feature", "geometry": {"type": "Point", "coordinates": [-70.66490999999999, -33.21198700000004]}, "properties": {"CUT_REG": "13", "CUT_PROV": "133", "CUT_COM": "13301", "REGION": "Metropolitana de Santiago", "PROVINCIA": "Chacabuco", "COMUNA": "Colina", "variable": "Centros de Educaci\u00f3n B\u00e1sica y Media", "Nombres": "COLEGIO DUNALASTAIR VALLE NORTE", "POINT_X": -70.66491, "POINT_Y": -33.211987}}, {"type": "Feature", "geometry": {"type": "Point", "coordinates": [-70.68074626999996, -33.21132966000001]}, "properties": {"CUT_REG": "13", "CUT_PROV": "133", "CUT_COM": "13301", "REGION": "Metropolitana de Santiago", "PROVINCIA": "Chacabuco", "COMUNA": "Colina", "variable": "Centros de Educaci\u00f3n B\u00e1sica y Media", "Nombres": "ESCUELA BASICA ALGARROBAL", "POINT_X": -70.68074627, "POINT_Y": -33.21132966}}, {"type": "Feature", "geometry": {"type": "Point", "coordinates": [-70.67405999999997, -33.21034599999998]}, "properties": {"CUT_REG": "13", "CUT_PROV": "133", "CUT_COM": "13301", "REGION": "Metropolitana de Santiago", "PROVINCIA": "Chacabuco", "COMUNA": "Colina", "variable": "Centros de Educaci\u00f3n B\u00e1sica y Media", "Nombres": "ESC.DE TRAST.PRIM. DE LA COM.CHACABUCO", "POINT_X": -70.67406, "POINT_Y": -33.210346}}, {"type": "Feature", "geometry": {"type": "Point", "coordinates": [-70.67945, -33.209904]}, "properties": {"CUT_REG": "13", "CUT_PROV": "133", "CUT_COM": "13301", "REGION": "Metropolitana de Santiago", "PROVINCIA": "Chacabuco", "COMUNA": "Colina", "variable": "Centros de Educaci\u00f3n B\u00e1sica y Media", "Nombres": "ESCUELA ESPECIAL ERNESTO SOTO NEGRETE", "POINT_X": -70.67945, "POINT_Y": -33.209904}}, {"type": "Feature", "geometry": {"type": "Point", "coordinates": [-70.67893138999997, -33.20899130999998]}, "properties": {"CUT_REG": "13", "CUT_PROV": "133", "CUT_COM": "13301", "REGION": "Metropolitana de Santiago", "PROVINCIA": "Chacabuco", "COMUNA": "Colina", "variable": "Centros de Educaci\u00f3n B\u00e1sica y Media", "Nombres": "LICEO ESMERALDA", "POINT_X": -70.67893139, "POINT_Y": -33.20899131}}, {"type": "Feature", "geometry": {"type": "Point", "coordinates": [-70.67290438000002, -33.20854943000001]}, "properties": {"CUT_REG": "13", "CUT_PROV": "133", "CUT_COM": "13301", "REGION": "Metropolitana de Santiago", "PROVINCIA": "Chacabuco", "COMUNA": "Colina", "variable": "Centros de Educaci\u00f3n B\u00e1sica y Media", "Nombres": "INSTITUTO SAN MIGUEL", "POINT_X": -70.67290438, "POINT_Y": -33.20854943}}, {"type": "Feature", "geometry": {"type": "Point", "coordinates": [-70.68373231000001, -33.20815083999998]}, "properties": {"CUT_REG": "13", "CUT_PROV": "133", "CUT_COM": "13301", "REGION": "Metropolitana de Santiago", "PROVINCIA": "Chacabuco", "COMUNA": "Colina", "variable": "Centros de Educaci\u00f3n B\u00e1sica y Media", "Nombres": "ANDALIEN DE COLINA", "POINT_X": -70.68373231, "POINT_Y": -33.20815084}}, {"type": "Feature", "geometry": {"type": "Point", "coordinates": [-70.67119999999994, -33.20813000000003]}, "properties": {"CUT_REG": "13", "CUT_PROV": "133", "CUT_COM": "13301", "REGION": "Metropolitana de Santiago", "PROVINCIA": "Chacabuco", "COMUNA": "Colina", "variable": "Centros de Educaci\u00f3n B\u00e1sica y Media", "Nombres": "ESCUELA ESPECIAL N\u00b0 2483 ANKATU", "POINT_X": -70.6712, "POINT_Y": -33.20813}}, {"type": "Feature", "geometry": {"type": "Point", "coordinates": [-70.67226, -33.20796199999999]}, "properties": {"CUT_REG": "13", "CUT_PROV": "133", "CUT_COM": "13301", "REGION": "Metropolitana de Santiago", "PROVINCIA": "Chacabuco", "COMUNA": "Colina", "variable": "Centros de Educaci\u00f3n B\u00e1sica y Media", "Nombres": "ESC. ESPECIAL ELSA MATILDE ULRICH JARA", "POINT_X": -70.67226, "POINT_Y": -33.207962}}, {"type": "Feature", "geometry": {"type": "Point", "coordinates": [-70.67902582999997, -33.20774126000002]}, "properties": {"CUT_REG": "13", "CUT_PROV": "133", "CUT_COM": "13301", "REGION": "Metropolitana de Santiago", "PROVINCIA": "Chacabuco", "COMUNA": "Colina", "variable": "Centros de Educaci\u00f3n B\u00e1sica y Media", "Nombres": "ESCUELA BASICA MARCOS GOOYCOLEA CORTES", "POINT_X": -70.67902583, "POINT_Y": -33.20774126}}, {"type": "Feature", "geometry": {"type": "Point", "coordinates": [-70.67634099999998, -33.20767399999996]}, "properties": {"CUT_REG": "13", "CUT_PROV": "133", "CUT_COM": "13301", "REGION": "Metropolitana de Santiago", "PROVINCIA": "Chacabuco", "COMUNA": "Colina", "variable": "Centros de Educaci\u00f3n B\u00e1sica y Media", "Nombres": "ESCUELA ESPECIAL PORVENIR", "POINT_X": -70.676341, "POINT_Y": -33.207674}}, {"type": "Feature", "geometry": {"type": "Point", "coordinates": [-70.67110268999998, -33.20630044]}, "properties": {"CUT_REG": "13", "CUT_PROV": "133", "CUT_COM": "13301", "REGION": "Metropolitana de Santiago", "PROVINCIA": "Chacabuco", "COMUNA": "Colina", "variable": "Centros de Educaci\u00f3n B\u00e1sica y Media", "Nombres": "ESCUELA BASICA SANTA TERESA DEL CARMELO", "POINT_X": -70.67110269, "POINT_Y": -33.20630044}}, {"type": "Feature", "geometry": {"type": "Point", "coordinates": [-70.82552383999996, -33.20623470999998]}, "properties": {"CUT_REG": "13", "CUT_PROV": "133", "CUT_COM": "13302", "REGION": "Metropolitana de Santiago", "PROVINCIA": "Chacabuco", "COMUNA": "Lampa", "variable": "Centros de Educaci\u00f3n B\u00e1sica y Media", "Nombres": "ESCUELA MANUEL RODRIGUEZ ERDOIZA", "POINT_X": -70.82552384, "POINT_Y": -33.20623471}}, {"type": "Feature", "geometry": {"type": "Point", "coordinates": [-70.67636744000004, -33.205371329999956]}, "properties": {"CUT_REG": "13", "CUT_PROV": "133", "CUT_COM": "13301", "REGION": "Metropolitana de Santiago", "PROVINCIA": "Chacabuco", "COMUNA": "Colina", "variable": "Centros de Educaci\u00f3n B\u00e1sica y Media", "Nombres": "LICEO CORONEL ENRIQUE CABRERA JIMENEZ", "POINT_X": -70.67636744, "POINT_Y": -33.20537133}}, {"type": "Feature", "geometry": {"type": "Point", "coordinates": [-70.67806509999998, -33.20513141]}, "properties": {"CUT_REG": "13", "CUT_PROV": "133", "CUT_COM": "13301", "REGION": "Metropolitana de Santiago", "PROVINCIA": "Chacabuco", "COMUNA": "Colina", "variable": "Centros de Educaci\u00f3n B\u00e1sica y Media", "Nombres": "ESCUELA INMACULADA CONCEPCION", "POINT_X": -70.6780651, "POINT_Y": -33.20513141}}, {"type": "Feature", "geometry": {"type": "Point", "coordinates": [-70.67795330999996, -33.20480360999996]}, "properties": {"CUT_REG": "13", "CUT_PROV": "133", "CUT_COM": "13301", "REGION": "Metropolitana de Santiago", "PROVINCIA": "Chacabuco", "COMUNA": "Colina", "variable": "Centros de Educaci\u00f3n B\u00e1sica y Media", "Nombres": "ESCUELA ESPECIAL CENTRO EDUCACIONAL PUKARA", "POINT_X": -70.67795331, "POINT_Y": -33.20480361}}, {"type": "Feature", "geometry": {"type": "Point", "coordinates": [-70.67412944000003, -33.20475427999997]}, "properties": {"CUT_REG": "13", "CUT_PROV": "133", "CUT_COM": "13301", "REGION": "Metropolitana de Santiago", "PROVINCIA": "Chacabuco", "COMUNA": "Colina", "variable": "Centros de Educaci\u00f3n B\u00e1sica y Media", "Nombres": "ESCUELA SAINT MARY SCHOOL", "POINT_X": -70.67412944, "POINT_Y": -33.20475428}}, {"type": "Feature", "geometry": {"type": "Point", "coordinates": [-70.67462999999998, -33.20455999999997]}, "properties": {"CUT_REG": "13", "CUT_PROV": "133", "CUT_COM": "13301", "REGION": "Metropolitana de Santiago", "PROVINCIA": "Chacabuco", "COMUNA": "Colina", "variable": "Centros de Educaci\u00f3n B\u00e1sica y Media", "Nombres": "COLEGIO DE ADULTOS SEMBRADOR SAN BENITO", "POINT_X": -70.67463, "POINT_Y": -33.20456}}, {"type": "Feature", "geometry": {"type": "Point", "coordinates": [-70.67253519000002, -33.20448223000002]}, "properties": {"CUT_REG": "13", "CUT_PROV": "133", "CUT_COM": "13301", "REGION": "Metropolitana de Santiago", "PROVINCIA": "Chacabuco", "COMUNA": "Colina", "variable": "Centros de Educaci\u00f3n B\u00e1sica y Media", "Nombres": "COLEGIO POLIVALENTE SEMBRADOR", "POINT_X": -70.67253519, "POINT_Y": -33.20448223}}, {"type": "Feature", "geometry": {"type": "Point", "coordinates": [-70.67813000000002, -33.204284999999956]}, "properties": {"CUT_REG": "13", "CUT_PROV": "133", "CUT_COM": "13301", "REGION": "Metropolitana de Santiago", "PROVINCIA": "Chacabuco", "COMUNA": "Colina", "variable": "Centros de Educaci\u00f3n B\u00e1sica y Media", "Nombres": "ESC.PART.ESPECIAL LA CONCEPCION DE COLINA", "POINT_X": -70.67813, "POINT_Y": -33.204285}}, {"type": "Feature", "geometry": {"type": "Point", "coordinates": [-70.67828, -33.20424700000001]}, "properties": {"CUT_REG": "13", "CUT_PROV": "133", "CUT_COM": "13301", "REGION": "Metropolitana de Santiago", "PROVINCIA": "Chacabuco", "COMUNA": "Colina", "variable": "Centros de Educaci\u00f3n B\u00e1sica y Media", "Nombres": "ESCUELA DE PARVULOS N\u00b02028 SAN SEBASTIAN GARDEN", "POINT_X": -70.67828, "POINT_Y": -33.204247}}, {"type": "Feature", "geometry": {"type": "Point", "coordinates": [-70.67895684999996, -33.204079490000005]}, "properties": {"CUT_REG": "13", "CUT_PROV": "133", "CUT_COM": "13301", "REGION": "Metropolitana de Santiago", "PROVINCIA": "Chacabuco", "COMUNA": "Colina", "variable": "Centros de Educaci\u00f3n B\u00e1sica y Media", "Nombres": "ESCUELA BAS. SAN SEBASTIAN DE COLINA", "POINT_X": -70.67895685, "POINT_Y": -33.20407949}}, {"type": "Feature", "geometry": {"type": "Point", "coordinates": [-70.68042496000001, -33.20398455999997]}, "properties": {"CUT_REG": "13", "CUT_PROV": "133", "CUT_COM": "13301", "REGION": "Metropolitana de Santiago", "PROVINCIA": "Chacabuco", "COMUNA": "Colina", "variable": "Centros de Educaci\u00f3n B\u00e1sica y Media", "Nombres": "COLEGIO SAN ANDRES DE COLINA", "POINT_X": -70.68042496, "POINT_Y": -33.20398456}}, {"type": "Feature", "geometry": {"type": "Point", "coordinates": [-70.68026279, -33.20398131999996]}, "properties": {"CUT_REG": "13", "CUT_PROV": "133", "CUT_COM": "13301", "REGION": "Metropolitana de Santiago", "PROVINCIA": "Chacabuco", "COMUNA": "Colina", "variable": "Centros de Educaci\u00f3n B\u00e1sica y Media", "Nombres": "ESCUELA PART. STA. CLARISA DE COLINA", "POINT_X": -70.68026279, "POINT_Y": -33.20398132}}, {"type": "Feature", "geometry": {"type": "Point", "coordinates": [-70.68201262000002, -33.20393824000004]}, "properties": {"CUT_REG": "13", "CUT_PROV": "133", "CUT_COM": "13301", "REGION": "Metropolitana de Santiago", "PROVINCIA": "Chacabuco", "COMUNA": "Colina", "variable": "Centros de Educaci\u00f3n B\u00e1sica y Media", "Nombres": "ESCUELA DE PARVULOS N\u00b01424 SNOOPY", "POINT_X": -70.68201262, "POINT_Y": -33.20393824}}, {"type": "Feature", "geometry": {"type": "Point", "coordinates": [-70.68070000000003, -33.20381499999997]}, "properties": {"CUT_REG": "13", "CUT_PROV": "133", "CUT_COM": "13301", "REGION": "Metropolitana de Santiago", "PROVINCIA": "Chacabuco", "COMUNA": "Colina", "variable": "Centros de Educaci\u00f3n B\u00e1sica y Media", "Nombres": "ESCUELA PART. SANTA MARIA DE GUADALUPE", "POINT_X": -70.6807, "POINT_Y": -33.203815}}, {"type": "Feature", "geometry": {"type": "Point", "coordinates": [-70.67510842999995, -33.20373094000003]}, "properties": {"CUT_REG": "13", "CUT_PROV": "133", "CUT_COM": "13301", "REGION": "Metropolitana de Santiago", "PROVINCIA": "Chacabuco", "COMUNA": "Colina", "variable": "Centros de Educaci\u00f3n B\u00e1sica y Media", "Nombres": "ESC.BASICA FRANCISCO PETRINOVIC KARLOVAC", "POINT_X": -70.67510843, "POINT_Y": -33.20373094}}, {"type": "Feature", "geometry": {"type": "Point", "coordinates": [-70.67968999999997, -33.20305]}, "properties": {"CUT_REG": "13", "CUT_PROV": "133", "CUT_COM": "13301", "REGION": "Metropolitana de Santiago", "PROVINCIA": "Chacabuco", "COMUNA": "Colina", "variable": "Centros de Educaci\u00f3n B\u00e1sica y Media", "Nombres": "ESCUELA ESP. PART. ACONCAGUA DE COLINA", "POINT_X": -70.67969, "POINT_Y": -33.20305}}, {"type": "Feature", "geometry": {"type": "Point", "coordinates": [-70.67525999999997, -33.20282700000002]}, "properties": {"CUT_REG": "13", "CUT_PROV": "133", "CUT_COM": "13301", "REGION": "Metropolitana de Santiago", "PROVINCIA": "Chacabuco", "COMUNA": "Colina", "variable": "Centros de Educaci\u00f3n B\u00e1sica y Media", "Nombres": "ESCUELA DE PARVULOS N\u00b02239 JARD\u00cdN INFANTIL CHICUREO", "POINT_X": -70.67526, "POINT_Y": -33.202827}}, {"type": "Feature", "geometry": {"type": "Point", "coordinates": [-70.67836612000002, -33.20199252999999]}, "properties": {"CUT_REG": "13", "CUT_PROV": "133", "CUT_COM": "13301", "REGION": "Metropolitana de Santiago", "PROVINCIA": "Chacabuco", "COMUNA": "Colina", "variable": "Centros de Educaci\u00f3n B\u00e1sica y Media", "Nombres": "ESCUELA PARTICULAR DESIREE", "POINT_X": -70.67836612, "POINT_Y": -33.20199253}}, {"type": "Feature", "geometry": {"type": "Point", "coordinates": [-70.67978999999997, -33.20082999999999]}, "properties": {"CUT_REG": "13", "CUT_PROV": "133", "CUT_COM": "13301", "REGION": "Metropolitana de Santiago", "PROVINCIA": "Chacabuco", "COMUNA": "Colina", "variable": "Centros de Educaci\u00f3n B\u00e1sica y Media", "Nombres": "ESCUELA ESPECIAL DIVINO NI\u00d1O JESUS", "POINT_X": -70.67979, "POINT_Y": -33.20083}}, {"type": "Feature", "geometry": {"type": "Point", "coordinates": [-70.67345999999998, -33.19992000000001]}, "properties": {"CUT_REG": "13", "CUT_PROV": "133", "CUT_COM": "13301", "REGION": "Metropolitana de Santiago", "PROVINCIA": "Chacabuco", "COMUNA": "Colina", "variable": "Centros de Educaci\u00f3n B\u00e1sica y Media", "Nombres": "ESCUELA ESPECIAL PART. UNAMKALEN", "POINT_X": -70.67346, "POINT_Y": -33.19992}}, {"type": "Feature", "geometry": {"type": "Point", "coordinates": [-70.67168400000003, -33.19964000000003]}, "properties": {"CUT_REG": "13", "CUT_PROV": "133", "CUT_COM": "13301", "REGION": "Metropolitana de Santiago", "PROVINCIA": "Chacabuco", "COMUNA": "Colina", "variable": "Centros de Educaci\u00f3n B\u00e1sica y Media", "Nombres": "LICEO HUMBERTO DIAZ CASANUEVA", "POINT_X": -70.671684, "POINT_Y": -33.19964}}, {"type": "Feature", "geometry": {"type": "Point", "coordinates": [-70.79327446499998, -33.197474505]}, "properties": {"CUT_REG": "13", "CUT_PROV": "133", "CUT_COM": "13302", "REGION": "Metropolitana de Santiago", "PROVINCIA": "Chacabuco", "COMUNA": "Lampa", "variable": "Centros de Educaci\u00f3n B\u00e1sica y Media", "Nombres": "COLEGIO SAGRADO CORAZON", "POINT_X": -70.793274465, "POINT_Y": -33.197474505}}, {"type": "Feature", "geometry": {"type": "Point", "coordinates": [-70.69637905499997, -33.196434775000036]}, "properties": {"CUT_REG": "13", "CUT_PROV": "133", "CUT_COM": "13301", "REGION": "Metropolitana de Santiago", "PROVINCIA": "Chacabuco", "COMUNA": "Colina", "variable": "Centros de Educaci\u00f3n B\u00e1sica y Media", "Nombres": "COLEGIO ALCAZAR", "POINT_X": -70.696379055, "POINT_Y": -33.196434775}}, {"type": "Feature", "geometry": {"type": "Point", "coordinates": [-70.67375371000003, -33.19594969999996]}, "properties": {"CUT_REG": "13", "CUT_PROV": "133", "CUT_COM": "13301", "REGION": "Metropolitana de Santiago", "PROVINCIA": "Chacabuco", "COMUNA": "Colina", "variable": "Centros de Educaci\u00f3n B\u00e1sica y Media", "Nombres": "ESCUELA PREMIO NOBEL PABLO NERUDA", "POINT_X": -70.67375371, "POINT_Y": -33.1959497}}, {"type": "Feature", "geometry": {"type": "Point", "coordinates": [-70.67255, -33.19590000000002]}, "properties": {"CUT_REG": "13", "CUT_PROV": "133", "CUT_COM": "13301", "REGION": "Metropolitana de Santiago", "PROVINCIA": "Chacabuco", "COMUNA": "Colina", "variable": "Centros de Educaci\u00f3n B\u00e1sica y Media", "Nombres": "ESCUELA BASICA N\u00b02474 COLEGIO CABO DE HORNOS", "POINT_X": -70.67255, "POINT_Y": -33.1959}}, {"type": "Feature", "geometry": {"type": "Point", "coordinates": [-70.67811684, -33.19562109000004]}, "properties": {"CUT_REG": "13", "CUT_PROV": "133", "CUT_COM": "13301", "REGION": "Metropolitana de Santiago", "PROVINCIA": "Chacabuco", "COMUNA": "Colina", "variable": "Centros de Educaci\u00f3n B\u00e1sica y Media", "Nombres": "ESC. BASICA  `SAN BENIGNO`", "POINT_X": -70.67811684, "POINT_Y": -33.19562109}}, {"type": "Feature", "geometry": {"type": "Point", "coordinates": [-70.68097963, -33.19548955999999]}, "properties": {"CUT_REG": "13", "CUT_PROV": "133", "CUT_COM": "13301", "REGION": "Metropolitana de Santiago", "PROVINCIA": "Chacabuco", "COMUNA": "Colina", "variable": "Centros de Educaci\u00f3n B\u00e1sica y Media", "Nombres": "COLEGIO MUNICIPAL INSTITUTO CHACABUCO", "POINT_X": -70.68097963, "POINT_Y": -33.19548956}}, {"type": "Feature", "geometry": {"type": "Point", "coordinates": [-70.67439896999996, -33.194640780000015]}, "properties": {"CUT_REG": "13", "CUT_PROV": "133", "CUT_COM": "13301", "REGION": "Metropolitana de Santiago", "PROVINCIA": "Chacabuco", "COMUNA": "Colina", "variable": "Centros de Educaci\u00f3n B\u00e1sica y Media", "Nombres": "LICEO POLIVALENTE RIGOBERTO FONTT I.", "POINT_X": -70.67439897, "POINT_Y": -33.19464078}}, {"type": "Feature", "geometry": {"type": "Point", "coordinates": [-70.65998999999996, -33.19400999999996]}, "properties": {"CUT_REG": "13", "CUT_PROV": "133", "CUT_COM": "13301", "REGION": "Metropolitana de Santiago", "PROVINCIA": "Chacabuco", "COMUNA": "Colina", "variable": "Centros de Educaci\u00f3n B\u00e1sica y Media", "Nombres": "COLEGIO LINCOLN INTERN ACADEMY VALLE NORTE CHICUREO", "POINT_X": -70.65999, "POINT_Y": -33.19401}}, {"type": "Feature", "geometry": {"type": "Point", "coordinates": [-70.66070277999995, -33.18816001999999]}, "properties": {"CUT_REG": "13", "CUT_PROV": "133", "CUT_COM": "13301", "REGION": "Metropolitana de Santiago", "PROVINCIA": "Chacabuco", "COMUNA": "Colina", "variable": "Centros de Educaci\u00f3n B\u00e1sica y Media", "Nombres": "COLEGIO SAN ANTONIO DE COLINA", "POINT_X": -70.66070278, "POINT_Y": -33.18816002}}, {"type": "Feature", "geometry": {"type": "Point", "coordinates": [-70.66718999999998, -33.18710699999999]}, "properties": {"CUT_REG": "13", "CUT_PROV": "133", "CUT_COM": "13301", "REGION": "Metropolitana de Santiago", "PROVINCIA": "Chacabuco", "COMUNA": "Colina", "variable": "Centros de Educaci\u00f3n B\u00e1sica y Media", "Nombres": "ESCUELA CAMINA ALTO", "POINT_X": -70.66719, "POINT_Y": -33.187107}}, {"type": "Feature", "geometry": {"type": "Point", "coordinates": [-70.67698830999997, -33.18332543000001]}, "properties": {"CUT_REG": "13", "CUT_PROV": "133", "CUT_COM": "13301", "REGION": "Metropolitana de Santiago", "PROVINCIA": "Chacabuco", "COMUNA": "Colina", "variable": "Centros de Educaci\u00f3n B\u00e1sica y Media", "Nombres": "ESCUELA BAS. REINA NORTE", "POINT_X": -70.67698831, "POINT_Y": -33.18332543}}, {"type": "Feature", "geometry": {"type": "Point", "coordinates": [-70.64775, -33.18300199999998]}, "properties": {"CUT_REG": "13", "CUT_PROV": "133", "CUT_COM": "13301", "REGION": "Metropolitana de Santiago", "PROVINCIA": "Chacabuco", "COMUNA": "Colina", "variable": "Centros de Educaci\u00f3n B\u00e1sica y Media", "Nombres": "ESC. ESPECIAL PART.NUESTRO HORIZONTE", "POINT_X": -70.64775, "POINT_Y": -33.183002}}, {"type": "Feature", "geometry": {"type": "Point", "coordinates": [-70.65309146, -33.18134283000001]}, "properties": {"CUT_REG": "13", "CUT_PROV": "133", "CUT_COM": "13301", "REGION": "Metropolitana de Santiago", "PROVINCIA": "Chacabuco", "COMUNA": "Colina", "variable": "Centros de Educaci\u00f3n B\u00e1sica y Media", "Nombres": "COLEGIO ABERSAN", "POINT_X": -70.65309146, "POINT_Y": -33.18134283}}, {"type": "Feature", "geometry": {"type": "Point", "coordinates": [-70.67110999999997, -33.18124799999998]}, "properties": {"CUT_REG": "13", "CUT_PROV": "133", "CUT_COM": "13301", "REGION": "Metropolitana de Santiago", "PROVINCIA": "Chacabuco", "COMUNA": "Colina", "variable": "Centros de Educaci\u00f3n B\u00e1sica y Media", "Nombres": "COLEGIO TERRA MONTE", "POINT_X": -70.67111, "POINT_Y": -33.181248}}, {"type": "Feature", "geometry": {"type": "Point", "coordinates": [-70.67153235, -33.181060630000026]}, "properties": {"CUT_REG": "13", "CUT_PROV": "133", "CUT_COM": "13301", "REGION": "Metropolitana de Santiago", "PROVINCIA": "Chacabuco", "COMUNA": "Colina", "variable": "Centros de Educaci\u00f3n B\u00e1sica y Media", "Nombres": "ESCUELA BAS. VALLE VERDE", "POINT_X": -70.67153235, "POINT_Y": -33.18106063}}, {"type": "Feature", "geometry": {"type": "Point", "coordinates": [-70.66368204999999, -33.18045083000002]}, "properties": {"CUT_REG": "13", "CUT_PROV": "133", "CUT_COM": "13301", "REGION": "Metropolitana de Santiago", "PROVINCIA": "Chacabuco", "COMUNA": "Colina", "variable": "Centros de Educaci\u00f3n B\u00e1sica y Media", "Nombres": "ESCUELA BASICA PART SANTA MARIA DE ESMERALDA", "POINT_X": -70.66368205, "POINT_Y": -33.18045083}}, {"type": "Feature", "geometry": {"type": "Point", "coordinates": [-70.67674000000002, -33.18022000000001]}, "properties": {"CUT_REG": "13", "CUT_PROV": "133", "CUT_COM": "13301", "REGION": "Metropolitana de Santiago", "PROVINCIA": "Chacabuco", "COMUNA": "Colina", "variable": "Centros de Educaci\u00f3n B\u00e1sica y Media", "Nombres": "COLEGIO DE ADULTOS SAN ANDRES DE COLINA", "POINT_X": -70.67674, "POINT_Y": -33.18022}}, {"type": "Feature", "geometry": {"type": "Point", "coordinates": [-70.65410600000001, -33.18004200000003]}, "properties": {"CUT_REG": "13", "CUT_PROV": "133", "CUT_COM": "13301", "REGION": "Metropolitana de Santiago", "PROVINCIA": "Chacabuco", "COMUNA": "Colina", "variable": "Centros de Educaci\u00f3n B\u00e1sica y Media", "Nombres": "ESCUELA PARTICULAR NUEVA ESMERALDA", "POINT_X": -70.654106, "POINT_Y": -33.180042}}, {"type": "Feature", "geometry": {"type": "Point", "coordinates": [-70.65634000000003, -33.178139999999956]}, "properties": {"CUT_REG": "13", "CUT_PROV": "133", "CUT_COM": "13301", "REGION": "Metropolitana de Santiago", "PROVINCIA": "Chacabuco", "COMUNA": "Colina", "variable": "Centros de Educaci\u00f3n B\u00e1sica y Media", "Nombres": "ESCUELA ESPECIAL TERESITA DE COLINA", "POINT_X": -70.65634, "POINT_Y": -33.17814}}, {"type": "Feature", "geometry": {"type": "Point", "coordinates": [-70.65629750999997, -33.17539447999999]}, "properties": {"CUT_REG": "13", "CUT_PROV": "133", "CUT_COM": "13301", "REGION": "Metropolitana de Santiago", "PROVINCIA": "Chacabuco", "COMUNA": "Colina", "variable": "Centros de Educaci\u00f3n B\u00e1sica y Media", "Nombres": "ESCUELA BASICA PEDRO AGUIRRE CERDA", "POINT_X": -70.65629751, "POINT_Y": -33.17539448}}, {"type": "Feature", "geometry": {"type": "Point", "coordinates": [-70.91323149999997, -33.173237]}, "properties": {"CUT_REG": "13", "CUT_PROV": "133", "CUT_COM": "13303", "REGION": "Metropolitana de Santiago", "PROVINCIA": "Chacabuco", "COMUNA": "Tiltil", "variable": "Centros de Educaci\u00f3n B\u00e1sica y Media", "Nombres": "COLEGIO FRANCISCO DE MIRANDA", "POINT_X": -70.9132315, "POINT_Y": -33.173237}}, {"type": "Feature", "geometry": {"type": "Point", "coordinates": [-70.762041465, -33.15463170999998]}, "properties": {"CUT_REG": "13", "CUT_PROV": "133", "CUT_COM": "13303", "REGION": "Metropolitana de Santiago", "PROVINCIA": "Chacabuco", "COMUNA": "Tiltil", "variable": "Centros de Educaci\u00f3n B\u00e1sica y Media", "Nombres": "ESCUELA BASICA FRAY CAMILO HENRIQUEZ", "POINT_X": -70.762041465, "POINT_Y": -33.15463171}}, {"type": "Feature", "geometry": {"type": "Point", "coordinates": [-70.88812451999996, -33.15228927999997]}, "properties": {"CUT_REG": "13", "CUT_PROV": "133", "CUT_COM": "13303", "REGION": "Metropolitana de Santiago", "PROVINCIA": "Chacabuco", "COMUNA": "Tiltil", "variable": "Centros de Educaci\u00f3n B\u00e1sica y Media", "Nombres": "ESCUELA BASICA G-N\u00b0352 PLAZUELA DE POLPAICO", "POINT_X": -70.88812452, "POINT_Y": -33.15228928}}, {"type": "Feature", "geometry": {"type": "Point", "coordinates": [-70.79886000000002, -33.144744999999965]}, "properties": {"CUT_REG": "13", "CUT_PROV": "133", "CUT_COM": "13303", "REGION": "Metropolitana de Santiago", "PROVINCIA": "Chacabuco", "COMUNA": "Tiltil", "variable": "Centros de Educaci\u00f3n B\u00e1sica y Media", "Nombres": "ESCUELA  ESPECIAL  N\u00b02420 LA  HUERTA", "POINT_X": -70.79886, "POINT_Y": -33.144745}}, {"type": "Feature", "geometry": {"type": "Point", "coordinates": [-70.80013999999997, -33.131653000000036]}, "properties": {"CUT_REG": "13", "CUT_PROV": "133", "CUT_COM": "13303", "REGION": "Metropolitana de Santiago", "PROVINCIA": "Chacabuco", "COMUNA": "Tiltil", "variable": "Centros de Educaci\u00f3n B\u00e1sica y Media", "Nombres": "COLEGIO DE ADULTOS ALTOS DEL HUERTO", "POINT_X": -70.80014, "POINT_Y": -33.131653}}, {"type": "Feature", "geometry": {"type": "Point", "coordinates": [-70.80230680000001, -33.13156619999996]}, "properties": {"CUT_REG": "13", "CUT_PROV": "133", "CUT_COM": "13303", "REGION": "Metropolitana de Santiago", "PROVINCIA": "Chacabuco", "COMUNA": "Tiltil", "variable": "Centros de Educaci\u00f3n B\u00e1sica y Media", "Nombres": "ALTOS DEL HUERTO", "POINT_X": -70.8023068, "POINT_Y": -33.1315662}}, {"type": "Feature", "geometry": {"type": "Point", "coordinates": [-70.80222209000001, -33.13037191]}, "properties": {"CUT_REG": "13", "CUT_PROV": "133", "CUT_COM": "13303", "REGION": "Metropolitana de Santiago", "PROVINCIA": "Chacabuco", "COMUNA": "Tiltil", "variable": "Centros de Educaci\u00f3n B\u00e1sica y Media", "Nombres": "LICEO HUERTOS FAMILIARES", "POINT_X": -70.80222209, "POINT_Y": -33.13037191}}, {"type": "Feature", "geometry": {"type": "Point", "coordinates": [-70.800544, -33.11215399999997]}, "properties": {"CUT_REG": "13", "CUT_PROV": "133", "CUT_COM": "13303", "REGION": "Metropolitana de Santiago", "PROVINCIA": "Chacabuco", "COMUNA": "Tiltil", "variable": "Centros de Educaci\u00f3n B\u00e1sica y Media", "Nombres": "COLEGIO DE ADULTOS MANQUEHUE DE TIL TIL", "POINT_X": -70.800544, "POINT_Y": -33.112154}}, {"type": "Feature", "geometry": {"type": "Point", "coordinates": [-70.97189750000004, -33.11173449999999]}, "properties": {"CUT_REG": "13", "CUT_PROV": "133", "CUT_COM": "13303", "REGION": "Metropolitana de Santiago", "PROVINCIA": "Chacabuco", "COMUNA": "Tiltil", "variable": "Centros de Educaci\u00f3n B\u00e1sica y Media", "Nombres": "JARDIN INFANTIL BURBUJITAS", "POINT_X": -70.9718975, "POINT_Y": -33.1117345}}, {"type": "Feature", "geometry": {"type": "Point", "coordinates": [-70.66243975999997, -33.100545999999994]}, "properties": {"CUT_REG": "13", "CUT_PROV": "133", "CUT_COM": "13301", "REGION": "Metropolitana de Santiago", "PROVINCIA": "Chacabuco", "COMUNA": "Colina", "variable": "Centros de Educaci\u00f3n B\u00e1sica y Media", "Nombres": "LICEO DARIO SALAS", "POINT_X": -70.66243976, "POINT_Y": -33.100546}}, {"type": "Feature", "geometry": {"type": "Point", "coordinates": [-70.67675205999996, -33.09454943999997]}, "properties": {"CUT_REG": "13", "CUT_PROV": "133", "CUT_COM": "13301", "REGION": "Metropolitana de Santiago", "PROVINCIA": "Chacabuco", "COMUNA": "Colina", "variable": "Centros de Educaci\u00f3n B\u00e1sica y Media", "Nombres": "ESCUELA JOSE BERNARDO SUAREZ", "POINT_X": -70.67675206, "POINT_Y": -33.09454944}}, {"type": "Feature", "geometry": {"type": "Point", "coordinates": [-70.92113967499998, -33.09316204500002]}, "properties": {"CUT_REG": "13", "CUT_PROV": "133", "CUT_COM": "13303", "REGION": "Metropolitana de Santiago", "PROVINCIA": "Chacabuco", "COMUNA": "Tiltil", "variable": "Centros de Educaci\u00f3n B\u00e1sica y Media", "Nombres": "COLEGIO SANTA ISABEL", "POINT_X": -70.921139675, "POINT_Y": -33.093162045}}, {"type": "Feature", "geometry": {"type": "Point", "coordinates": [-70.91840629000004, -33.09014963]}, "properties": {"CUT_REG": "13", "CUT_PROV": "133", "CUT_COM": "13303", "REGION": "Metropolitana de Santiago", "PROVINCIA": "Chacabuco", "COMUNA": "Tiltil", "variable": "Centros de Educaci\u00f3n B\u00e1sica y Media", "Nombres": "ESCUELA PARTICULAR LA MERCED", "POINT_X": -70.91840629, "POINT_Y": -33.09014963}}, {"type": "Feature", "geometry": {"type": "Point", "coordinates": [-70.92437662, -33.08643915000003]}, "properties": {"CUT_REG": "13", "CUT_PROV": "133", "CUT_COM": "13303", "REGION": "Metropolitana de Santiago", "PROVINCIA": "Chacabuco", "COMUNA": "Tiltil", "variable": "Centros de Educaci\u00f3n B\u00e1sica y Media", "Nombres": "LICEO POLIVALENTE MANUEL RODRIGUEZ", "POINT_X": -70.92437662, "POINT_Y": -33.08643915}}, {"type": "Feature", "geometry": {"type": "Point", "coordinates": [-70.93112360999996, -33.08642739000004]}, "properties": {"CUT_REG": "13", "CUT_PROV": "133", "CUT_COM": "13303", "REGION": "Metropolitana de Santiago", "PROVINCIA": "Chacabuco", "COMUNA": "Tiltil", "variable": "Centros de Educaci\u00f3n B\u00e1sica y Media", "Nombres": "ESC.ESP.N\u00b02439, MANQUEHUE DE TIL TIL", "POINT_X": -70.93112361, "POINT_Y": -33.08642739}}, {"type": "Feature", "geometry": {"type": "Point", "coordinates": [-70.93035900000001, -33.08057099999998]}, "properties": {"CUT_REG": "13", "CUT_PROV": "133", "CUT_COM": "13303", "REGION": "Metropolitana de Santiago", "PROVINCIA": "Chacabuco", "COMUNA": "Tiltil", "variable": "Centros de Educaci\u00f3n B\u00e1sica y Media", "Nombres": "ESCUELA BASICA N\u00b0 2464 `COLEGIO BASICO INTEGRADO PADRE PIO`", "POINT_X": -70.930359, "POINT_Y": -33.080571}}, {"type": "Feature", "geometry": {"type": "Point", "coordinates": [-70.92802999999995, -33.07903699999998]}, "properties": {"CUT_REG": "13", "CUT_PROV": "133", "CUT_COM": "13303", "REGION": "Metropolitana de Santiago", "PROVINCIA": "Chacabuco", "COMUNA": "Tiltil", "variable": "Centros de Educaci\u00f3n B\u00e1sica y Media", "Nombres": "ESCUELA ESP. PART. SAN PIO DE PIETRELCINA", "POINT_X": -70.92803, "POINT_Y": -33.079037}}, {"type": "Feature", "geometry": {"type": "Point", "coordinates": [-70.77044364000002, -33.076666899999985]}, "properties": {"CUT_REG": "13", "CUT_PROV": "133", "CUT_COM": "13303", "REGION": "Metropolitana de Santiago", "PROVINCIA": "Chacabuco", "COMUNA": "Tiltil", "variable": "Centros de Educaci\u00f3n B\u00e1sica y Media", "Nombres": "ESCUELA BASICA G-N\u00b0348", "POINT_X": -70.77044364, "POINT_Y": -33.0766669}}, {"type": "Feature", "geometry": {"type": "Point", "coordinates": [-70.92847000000003, -33.06992300000003]}, "properties": {"CUT_REG": "13", "CUT_PROV": "133", "CUT_COM": "13303", "REGION": "Metropolitana de Santiago", "PROVINCIA": "Chacabuco", "COMUNA": "Tiltil", "variable": "Centros de Educaci\u00f3n B\u00e1sica y Media", "Nombres": "ESCUELA B\u00c1SICA N\u00b0186 MANCHESTER COLLEGE", "POINT_X": -70.92847, "POINT_Y": -33.069923}}, {"type": "Feature", "geometry": {"type": "Point", "coordinates": [-70.97044575, -33.02487780000004]}, "properties": {"CUT_REG": "13", "CUT_PROV": "133", "CUT_COM": "13303", "REGION": "Metropolitana de Santiago", "PROVINCIA": "Chacabuco", "COMUNA": "Tiltil", "variable": "Centros de Educaci\u00f3n B\u00e1sica y Media", "Nombres": "ESCUELA BASICA G-N\u00b0350", "POINT_X": -70.97044575, "POINT_Y": -33.0248778}}, {"type": "Feature", "geometry": {"type": "Point", "coordinates": [-70.89220399999999, -33.018425000000015]}, "properties": {"CUT_REG": "13", "CUT_PROV": "133", "CUT_COM": "13303", "REGION": "Metropolitana de Santiago", "PROVINCIA": "Chacabuco", "COMUNA": "Tiltil", "variable": "Centros de Educaci\u00f3n B\u00e1sica y Media", "Nombres": "ESCUELA BASICA G-N\u00b0 346", "POINT_X": -70.892204, "POINT_Y": -33.018425}}, {"type": "Feature", "geometry": {"type": "Point", "coordinates": [-70.89308975, -33.00939177000001]}, "properties": {"CUT_REG": "13", "CUT_PROV": "133", "CUT_COM": "13303", "REGION": "Metropolitana de Santiago", "PROVINCIA": "Chacabuco", "COMUNA": "Tiltil", "variable": "Centros de Educaci\u00f3n B\u00e1sica y Media", "Nombres": "ESCUELA BASICA G-N\u00b0345 RUNGUE", "POINT_X": -70.89308975, "POINT_Y": -33.00939177}}, {"type": "Feature", "geometry": {"type": "Point", "coordinates": [-70.99142868000001, -33.003965229999984]}, "properties": {"CUT_REG": "13", "CUT_PROV": "133", "CUT_COM": "13303", "REGION": "Metropolitana de Santiago", "PROVINCIA": "Chacabuco", "COMUNA": "Tiltil", "variable": "Centros de Educaci\u00f3n B\u00e1sica y Media", "Nombres": "ESCUELA BASICA G-N\u00b0349", "POINT_X": -70.99142868, "POINT_Y": -33.00396523}}, {"type": "Feature", "geometry": {"type": "Point", "coordinates": [-70.83508638999997, -32.96646445000001]}, "properties": {"CUT_REG": "13", "CUT_PROV": "133", "CUT_COM": "13303", "REGION": "Metropolitana de Santiago", "PROVINCIA": "Chacabuco", "COMUNA": "Tiltil", "variable": "Centros de Educaci\u00f3n B\u00e1sica y Media", "Nombres": "LICEO MONTENEGRO", "POINT_X": -70.83508639, "POINT_Y": -32.96646445}}]}