{"type": "FeatureCollection", "features": [{"type": "Feature", "geometry": {"type": "Point", "coordinates": [-70.89616750000002, -33.981494999999995]}, "properties": {"CUT_REG": "13", "CUT_PROV": "134", "CUT_COM": "13404", "REGION": "Metropolitana de Santiago", "PROVINCIA": "Maipo", "COMUNA": "Paine", "variable": "Centros de Educaci\u00f3n B\u00e1sica y Media", "Nombres": "ESCUELA ESPECIAL DE LENGUAJE SAN GABRIEL", "POINT_X": -70.8961675, "POINT_Y": -33.981495}}, {"type": "Feature", "geometry": {"type": "Point", "coordinates": [-70.76315972499998, -33.92312206500002]}, "properties": {"CUT_REG": "13", "CUT_PROV": "134", "CUT_COM": "13404", "REGION": "Metropolitana de Santiago", "PROVINCIA": "Maipo", "COMUNA": "Paine", "variable": "Centros de Educaci\u00f3n B\u00e1sica y Media", "Nombres": "ESCUELA REPUBLICA DE ALEMANIA", "POINT_X": -70.763159725, "POINT_Y": -33.923122065}}, {"type": "Feature", "geometry": {"type": "Point", "coordinates": [-70.93061799999995, -33.90671899999996]}, "properties": {"CUT_REG": "13", "CUT_PROV": "134", "CUT_COM": "13404", "REGION": "Metropolitana de Santiago", "PROVINCIA": "Maipo", "COMUNA": "Paine", "variable": "Centros de Educaci\u00f3n B\u00e1sica y Media", "Nombres": "COLEGIO ALTA CUMBRE", "POINT_X": -70.930618, "POINT_Y": -33.906719}}, {"type": "Feature", "geometry": {"type": "Point", "coordinates": [-70.75461577999994, -33.90541020000003]}, "properties": {"CUT_REG": "13", "CUT_PROV": "134", "CUT_COM": "13404", "REGION": "Metropolitana de Santiago", "PROVINCIA": "Maipo", "COMUNA": "Paine", "variable": "Centros de Educaci\u00f3n B\u00e1sica y Media", "Nombres": "ESCUELA  BASICA G-N\u00b0832 AGUILA SUR", "POINT_X": -70.75461578, "POINT_Y": -33.9054102}}, {"type": "Feature", "geometry": {"type": "Point", "coordinates": [-70.65743048000002, -33.90300522999999]}, "properties": {"CUT_REG": "13", "CUT_PROV": "134", "CUT_COM": "13404", "REGION": "Metropolitana de Santiago", "PROVINCIA": "Maipo", "COMUNA": "Paine", "variable": "Centros de Educaci\u00f3n B\u00e1sica y Media", "Nombres": "ESCUELA BASICA G N\u00b0831 JAVIER EYZAGUIRRE ECHAURREN", "POINT_X": -70.65743048, "POINT_Y": -33.90300523}}, {"type": "Feature", "geometry": {"type": "Point", "coordinates": [-70.7144715, -33.88511699999997]}, "properties": {"CUT_REG": "13", "CUT_PROV": "134", "CUT_COM": "13404", "REGION": "Metropolitana de Santiago", "PROVINCIA": "Maipo", "COMUNA": "Paine", "variable": "Centros de Educaci\u00f3n B\u00e1sica y Media", "Nombres": "INSTITUTO SAGRADO CORAZON", "POINT_X": -70.7144715, "POINT_Y": -33.885117}}, {"type": "Feature", "geometry": {"type": "Point", "coordinates": [-70.88193191999997, -33.87718198999997]}, "properties": {"CUT_REG": "13", "CUT_PROV": "134", "CUT_COM": "13404", "REGION": "Metropolitana de Santiago", "PROVINCIA": "Maipo", "COMUNA": "Paine", "variable": "Centros de Educaci\u00f3n B\u00e1sica y Media", "Nombres": "ESCUELA CARMEN REVECO NUNEZ", "POINT_X": -70.88193192, "POINT_Y": -33.87718199}}, {"type": "Feature", "geometry": {"type": "Point", "coordinates": [-70.74771054999997, -33.873343030000036]}, "properties": {"CUT_REG": "13", "CUT_PROV": "134", "CUT_COM": "13404", "REGION": "Metropolitana de Santiago", "PROVINCIA": "Maipo", "COMUNA": "Paine", "variable": "Centros de Educaci\u00f3n B\u00e1sica y Media", "Nombres": "ESCUELA DE HOSPITAL", "POINT_X": -70.74771055, "POINT_Y": -33.87334303}}, {"type": "Feature", "geometry": {"type": "Point", "coordinates": [-70.66417379, -33.872687180000035]}, "properties": {"CUT_REG": "13", "CUT_PROV": "134", "CUT_COM": "13404", "REGION": "Metropolitana de Santiago", "PROVINCIA": "Maipo", "COMUNA": "Paine", "variable": "Centros de Educaci\u00f3n B\u00e1sica y Media", "Nombres": "ESCUELA SENDERO DE CULITRIN", "POINT_X": -70.66417379, "POINT_Y": -33.87268718}}, {"type": "Feature", "geometry": {"type": "Point", "coordinates": [-70.71786909000002, -33.86991224000003]}, "properties": {"CUT_REG": "13", "CUT_PROV": "134", "CUT_COM": "13404", "REGION": "Metropolitana de Santiago", "PROVINCIA": "Maipo", "COMUNA": "Paine", "variable": "Centros de Educaci\u00f3n B\u00e1sica y Media", "Nombres": "COLEGIO  CHALLAY", "POINT_X": -70.71786909, "POINT_Y": -33.86991224}}, {"type": "Feature", "geometry": {"type": "Point", "coordinates": [-70.68614974500002, -33.86576140999996]}, "properties": {"CUT_REG": "13", "CUT_PROV": "134", "CUT_COM": "13404", "REGION": "Metropolitana de Santiago", "PROVINCIA": "Maipo", "COMUNA": "Paine", "variable": "Centros de Educaci\u00f3n B\u00e1sica y Media", "Nombres": "COLEGIO SANTO TOMAS", "POINT_X": -70.686149745, "POINT_Y": -33.86576141}}, {"type": "Feature", "geometry": {"type": "Point", "coordinates": [-70.84489776999997, -33.86529336999996]}, "properties": {"CUT_REG": "13", "CUT_PROV": "134", "CUT_COM": "13404", "REGION": "Metropolitana de Santiago", "PROVINCIA": "Maipo", "COMUNA": "Paine", "variable": "Centros de Educaci\u00f3n B\u00e1sica y Media", "Nombres": "ESCUELA CERRILLOS", "POINT_X": -70.84489777, "POINT_Y": -33.86529337}}, {"type": "Feature", "geometry": {"type": "Point", "coordinates": [-70.75310597999999, -33.861884379999985]}, "properties": {"CUT_REG": "13", "CUT_PROV": "134", "CUT_COM": "13404", "REGION": "Metropolitana de Santiago", "PROVINCIA": "Maipo", "COMUNA": "Paine", "variable": "Centros de Educaci\u00f3n B\u00e1sica y Media", "Nombres": "COLEGIO ECOLOGICO PAINE", "POINT_X": -70.75310598, "POINT_Y": -33.86188438}}, {"type": "Feature", "geometry": {"type": "Point", "coordinates": [-70.67299599999996, -33.859112499999966]}, "properties": {"CUT_REG": "13", "CUT_PROV": "134", "CUT_COM": "13404", "REGION": "Metropolitana de Santiago", "PROVINCIA": "Maipo", "COMUNA": "Paine", "variable": "Centros de Educaci\u00f3n B\u00e1sica y Media", "Nombres": "ESCUELA DE LENGUAJE LA GRANJITA", "POINT_X": -70.672996, "POINT_Y": -33.8591125}}, {"type": "Feature", "geometry": {"type": "Point", "coordinates": [-70.76271961999998, -33.85476614999997]}, "properties": {"CUT_REG": "13", "CUT_PROV": "134", "CUT_COM": "13404", "REGION": "Metropolitana de Santiago", "PROVINCIA": "Maipo", "COMUNA": "Paine", "variable": "Centros de Educaci\u00f3n B\u00e1sica y Media", "Nombres": "ESCUELA ELIAS SANCHEZ ORTUZAR", "POINT_X": -70.76271962, "POINT_Y": -33.85476615}}, {"type": "Feature", "geometry": {"type": "Point", "coordinates": [-70.76381999999998, -33.85434300000004]}, "properties": {"CUT_REG": "13", "CUT_PROV": "134", "CUT_COM": "13404", "REGION": "Metropolitana de Santiago", "PROVINCIA": "Maipo", "COMUNA": "Paine", "variable": "Centros de Educaci\u00f3n B\u00e1sica y Media", "Nombres": "COLEGIO ALTAZOL DEL MAIPO", "POINT_X": -70.76382, "POINT_Y": -33.854343}}, {"type": "Feature", "geometry": {"type": "Point", "coordinates": [-70.61246155000002, -33.848900610000044]}, "properties": {"CUT_REG": "13", "CUT_PROV": "134", "CUT_COM": "13404", "REGION": "Metropolitana de Santiago", "PROVINCIA": "Maipo", "COMUNA": "Paine", "variable": "Centros de Educaci\u00f3n B\u00e1sica y Media", "Nombres": "LICEO  MARIA CARVAJAL FUENZALIDA", "POINT_X": -70.61246155, "POINT_Y": -33.84890061}}, {"type": "Feature", "geometry": {"type": "Point", "coordinates": [-70.95799904999998, -33.845103809999955]}, "properties": {"CUT_REG": "13", "CUT_PROV": "134", "CUT_COM": "13404", "REGION": "Metropolitana de Santiago", "PROVINCIA": "Maipo", "COMUNA": "Paine", "variable": "Centros de Educaci\u00f3n B\u00e1sica y Media", "Nombres": "ESCUELA BASICA G-N\u00b0830 FRANCISCO LETELIER VALDES", "POINT_X": -70.95799905, "POINT_Y": -33.84510381}}, {"type": "Feature", "geometry": {"type": "Point", "coordinates": [-70.83226405000005, -33.83962496999996]}, "properties": {"CUT_REG": "13", "CUT_PROV": "134", "CUT_COM": "13404", "REGION": "Metropolitana de Santiago", "PROVINCIA": "Maipo", "COMUNA": "Paine", "variable": "Centros de Educaci\u00f3n B\u00e1sica y Media", "Nombres": "ESCUELA BASICA F-N\u00b0835 HERMANOS SANCHEZ CERDA", "POINT_X": -70.83226405, "POINT_Y": -33.83962497}}, {"type": "Feature", "geometry": {"type": "Point", "coordinates": [-70.74192999999997, -33.83938599999999]}, "properties": {"CUT_REG": "13", "CUT_PROV": "134", "CUT_COM": "13404", "REGION": "Metropolitana de Santiago", "PROVINCIA": "Maipo", "COMUNA": "Paine", "variable": "Centros de Educaci\u00f3n B\u00e1sica y Media", "Nombres": "ESCUELA ESPECIAL MUNDO INFANTIL RUTA SUR", "POINT_X": -70.74193, "POINT_Y": -33.839386}}, {"type": "Feature", "geometry": {"type": "Point", "coordinates": [-70.74283599999997, -33.83035699999998]}, "properties": {"CUT_REG": "13", "CUT_PROV": "134", "CUT_COM": "13404", "REGION": "Metropolitana de Santiago", "PROVINCIA": "Maipo", "COMUNA": "Paine", "variable": "Centros de Educaci\u00f3n B\u00e1sica y Media", "Nombres": "ESCUELA ESPECIAL ARBOLIRIS", "POINT_X": -70.742836, "POINT_Y": -33.830357}}, {"type": "Feature", "geometry": {"type": "Point", "coordinates": [-70.76572019, -33.82761096999997]}, "properties": {"CUT_REG": "13", "CUT_PROV": "134", "CUT_COM": "13404", "REGION": "Metropolitana de Santiago", "PROVINCIA": "Maipo", "COMUNA": "Paine", "variable": "Centros de Educaci\u00f3n B\u00e1sica y Media", "Nombres": "ESCUELA  LAS COLONIAS", "POINT_X": -70.76572019, "POINT_Y": -33.82761097}}, {"type": "Feature", "geometry": {"type": "Point", "coordinates": [-70.74420999999997, -33.82247999999998]}, "properties": {"CUT_REG": "13", "CUT_PROV": "134", "CUT_COM": "13404", "REGION": "Metropolitana de Santiago", "PROVINCIA": "Maipo", "COMUNA": "Paine", "variable": "Centros de Educaci\u00f3n B\u00e1sica y Media", "Nombres": "ESCUELA ESPECIAL N\u00b0209 PEPITA DE SANDIA", "POINT_X": -70.74421, "POINT_Y": -33.82248}}, {"type": "Feature", "geometry": {"type": "Point", "coordinates": [-70.69084111499996, -33.822266990000024]}, "properties": {"CUT_REG": "13", "CUT_PROV": "134", "CUT_COM": "13404", "REGION": "Metropolitana de Santiago", "PROVINCIA": "Maipo", "COMUNA": "Paine", "variable": "Centros de Educaci\u00f3n B\u00e1sica y Media", "Nombres": "COLEGIO SAN ALBERTO", "POINT_X": -70.690841115, "POINT_Y": -33.82226699}}, {"type": "Feature", "geometry": {"type": "Point", "coordinates": [-70.73912035000002, -33.821472159999985]}, "properties": {"CUT_REG": "13", "CUT_PROV": "134", "CUT_COM": "13404", "REGION": "Metropolitana de Santiago", "PROVINCIA": "Maipo", "COMUNA": "Paine", "variable": "Centros de Educaci\u00f3n B\u00e1sica y Media", "Nombres": "COLEGIO LAS AMERICAS DE PAINE", "POINT_X": -70.73912035, "POINT_Y": -33.82147216}}, {"type": "Feature", "geometry": {"type": "Point", "coordinates": [-70.74374399999996, -33.82132299999999]}, "properties": {"CUT_REG": "13", "CUT_PROV": "134", "CUT_COM": "13404", "REGION": "Metropolitana de Santiago", "PROVINCIA": "Maipo", "COMUNA": "Paine", "variable": "Centros de Educaci\u00f3n B\u00e1sica y Media", "Nombres": "ESC. ESPECIAL STA. MARGARITA DE PAINE", "POINT_X": -70.743744, "POINT_Y": -33.821323}}, {"type": "Feature", "geometry": {"type": "Point", "coordinates": [-70.74169, -33.82094000000001]}, "properties": {"CUT_REG": "13", "CUT_PROV": "134", "CUT_COM": "13404", "REGION": "Metropolitana de Santiago", "PROVINCIA": "Maipo", "COMUNA": "Paine", "variable": "Centros de Educaci\u00f3n B\u00e1sica y Media", "Nombres": "ESCUELA ESPECIAL N\u00b0104  SANTA MARIA DE VINCULO", "POINT_X": -70.74169, "POINT_Y": -33.82094}}, {"type": "Feature", "geometry": {"type": "Point", "coordinates": [-70.73675499999999, -33.818282999999994]}, "properties": {"CUT_REG": "13", "CUT_PROV": "134", "CUT_COM": "13404", "REGION": "Metropolitana de Santiago", "PROVINCIA": "Maipo", "COMUNA": "Paine", "variable": "Centros de Educaci\u00f3n B\u00e1sica y Media", "Nombres": "ESCUELA ESPECIAL JULIO BERNALDO QUIROS", "POINT_X": -70.736755, "POINT_Y": -33.818283}}, {"type": "Feature", "geometry": {"type": "Point", "coordinates": [-70.73618999999995, -33.817054999999996]}, "properties": {"CUT_REG": "13", "CUT_PROV": "134", "CUT_COM": "13404", "REGION": "Metropolitana de Santiago", "PROVINCIA": "Maipo", "COMUNA": "Paine", "variable": "Centros de Educaci\u00f3n B\u00e1sica y Media", "Nombres": "ESCUELA DE PARV. LOS CARI\u00d1OSITOS", "POINT_X": -70.73619, "POINT_Y": -33.817055}}, {"type": "Feature", "geometry": {"type": "Point", "coordinates": [-70.74013, -33.816740000000046]}, "properties": {"CUT_REG": "13", "CUT_PROV": "134", "CUT_COM": "13404", "REGION": "Metropolitana de Santiago", "PROVINCIA": "Maipo", "COMUNA": "Paine", "variable": "Centros de Educaci\u00f3n B\u00e1sica y Media", "Nombres": "ESCUELA ESPECIAL RICALHUE", "POINT_X": -70.74013, "POINT_Y": -33.81674}}, {"type": "Feature", "geometry": {"type": "Point", "coordinates": [-70.74464999999995, -33.81229399999997]}, "properties": {"CUT_REG": "13", "CUT_PROV": "134", "CUT_COM": "13404", "REGION": "Metropolitana de Santiago", "PROVINCIA": "Maipo", "COMUNA": "Paine", "variable": "Centros de Educaci\u00f3n B\u00e1sica y Media", "Nombres": "COLEGIO SAN FRANCISCO DE PAINE", "POINT_X": -70.74465, "POINT_Y": -33.812294}}, {"type": "Feature", "geometry": {"type": "Point", "coordinates": [-70.73163999999997, -33.81213399999997]}, "properties": {"CUT_REG": "13", "CUT_PROV": "134", "CUT_COM": "13404", "REGION": "Metropolitana de Santiago", "PROVINCIA": "Maipo", "COMUNA": "Paine", "variable": "Centros de Educaci\u00f3n B\u00e1sica y Media", "Nombres": "ESCUELA ESPECIAL PARTICULAR ANTIRAY", "POINT_X": -70.73164, "POINT_Y": -33.812134}}, {"type": "Feature", "geometry": {"type": "Point", "coordinates": [-70.74259999999998, -33.81191]}, "properties": {"CUT_REG": "13", "CUT_PROV": "134", "CUT_COM": "13404", "REGION": "Metropolitana de Santiago", "PROVINCIA": "Maipo", "COMUNA": "Paine", "variable": "Centros de Educaci\u00f3n B\u00e1sica y Media", "Nombres": "LICEO MUNICIPAL DE ADULTO MIGUEL CAMPINO LARRAIN", "POINT_X": -70.7426, "POINT_Y": -33.81191}}, {"type": "Feature", "geometry": {"type": "Point", "coordinates": [-70.739776, -33.81150699999996]}, "properties": {"CUT_REG": "13", "CUT_PROV": "134", "CUT_COM": "13404", "REGION": "Metropolitana de Santiago", "PROVINCIA": "Maipo", "COMUNA": "Paine", "variable": "Centros de Educaci\u00f3n B\u00e1sica y Media", "Nombres": "SALA CUNA PASO A PASO", "POINT_X": -70.739776, "POINT_Y": -33.811507}}, {"type": "Feature", "geometry": {"type": "Point", "coordinates": [-70.76396152999996, -33.810899579999976]}, "properties": {"CUT_REG": "13", "CUT_PROV": "134", "CUT_COM": "13402", "REGION": "Metropolitana de Santiago", "PROVINCIA": "Maipo", "COMUNA": "Buin", "variable": "Centros de Educaci\u00f3n B\u00e1sica y Media", "Nombres": "ESCUELA HUMBERTO MORENO RAMIREZ", "POINT_X": -70.76396153, "POINT_Y": -33.81089958}}, {"type": "Feature", "geometry": {"type": "Point", "coordinates": [-70.85754796000003, -33.81067861999999]}, "properties": {"CUT_REG": "13", "CUT_PROV": "134", "CUT_COM": "13402", "REGION": "Metropolitana de Santiago", "PROVINCIA": "Maipo", "COMUNA": "Buin", "variable": "Centros de Educaci\u00f3n B\u00e1sica y Media", "Nombres": "ESCUELA VALDIVIA DE PAINE", "POINT_X": -70.85754796, "POINT_Y": -33.81067862}}, {"type": "Feature", "geometry": {"type": "Point", "coordinates": [-70.73441374999997, -33.810084869999976]}, "properties": {"CUT_REG": "13", "CUT_PROV": "134", "CUT_COM": "13404", "REGION": "Metropolitana de Santiago", "PROVINCIA": "Maipo", "COMUNA": "Paine", "variable": "Centros de Educaci\u00f3n B\u00e1sica y Media", "Nombres": "ESC. BASICA MUNICIPAL PAULA JARAQUEMADA ALQUI", "POINT_X": -70.73441375, "POINT_Y": -33.81008487}}, {"type": "Feature", "geometry": {"type": "Point", "coordinates": [-70.73659515999998, -33.80967955000001]}, "properties": {"CUT_REG": "13", "CUT_PROV": "134", "CUT_COM": "13404", "REGION": "Metropolitana de Santiago", "PROVINCIA": "Maipo", "COMUNA": "Paine", "variable": "Centros de Educaci\u00f3n B\u00e1sica y Media", "Nombres": "CENTRO EDUC. ENRIQUE BERNSTEIN CARABANTE", "POINT_X": -70.73659516, "POINT_Y": -33.80967955}}, {"type": "Feature", "geometry": {"type": "Point", "coordinates": [-70.73694, -33.809425000000005]}, "properties": {"CUT_REG": "13", "CUT_PROV": "134", "CUT_COM": "13404", "REGION": "Metropolitana de Santiago", "PROVINCIA": "Maipo", "COMUNA": "Paine", "variable": "Centros de Educaci\u00f3n B\u00e1sica y Media", "Nombres": "ESCUELA ESPECIAL PART. ARCO IRIS", "POINT_X": -70.73694, "POINT_Y": -33.809425}}, {"type": "Feature", "geometry": {"type": "Point", "coordinates": [-70.73767181, -33.809315740000024]}, "properties": {"CUT_REG": "13", "CUT_PROV": "134", "CUT_COM": "13404", "REGION": "Metropolitana de Santiago", "PROVINCIA": "Maipo", "COMUNA": "Paine", "variable": "Centros de Educaci\u00f3n B\u00e1sica y Media", "Nombres": "COLEGIO PART. MARIA ANA MOGAS", "POINT_X": -70.73767181, "POINT_Y": -33.80931574}}, {"type": "Feature", "geometry": {"type": "Point", "coordinates": [-70.73709856999999, -33.80802280999998]}, "properties": {"CUT_REG": "13", "CUT_PROV": "134", "CUT_COM": "13404", "REGION": "Metropolitana de Santiago", "PROVINCIA": "Maipo", "COMUNA": "Paine", "variable": "Centros de Educaci\u00f3n B\u00e1sica y Media", "Nombres": "ESCUELA BASICA SAN PEDRO APOSTOL DE PAINE", "POINT_X": -70.73709857, "POINT_Y": -33.80802281}}, {"type": "Feature", "geometry": {"type": "Point", "coordinates": [-70.73236431999996, -33.80736512000001]}, "properties": {"CUT_REG": "13", "CUT_PROV": "134", "CUT_COM": "13404", "REGION": "Metropolitana de Santiago", "PROVINCIA": "Maipo", "COMUNA": "Paine", "variable": "Centros de Educaci\u00f3n B\u00e1sica y Media", "Nombres": "ESC. BASICA N\u00ba 136 SAN SEBASTIAN DE PAINE", "POINT_X": -70.73236432, "POINT_Y": -33.80736512}}, {"type": "Feature", "geometry": {"type": "Point", "coordinates": [-70.74185220000001, -33.80612253999996]}, "properties": {"CUT_REG": "13", "CUT_PROV": "134", "CUT_COM": "13404", "REGION": "Metropolitana de Santiago", "PROVINCIA": "Maipo", "COMUNA": "Paine", "variable": "Centros de Educaci\u00f3n B\u00e1sica y Media", "Nombres": "COLEGIO SANTA MARIA DE PAINE", "POINT_X": -70.7418522, "POINT_Y": -33.80612254}}, {"type": "Feature", "geometry": {"type": "Point", "coordinates": [-70.72624999999996, -33.805813000000015]}, "properties": {"CUT_REG": "13", "CUT_PROV": "134", "CUT_COM": "13404", "REGION": "Metropolitana de Santiago", "PROVINCIA": "Maipo", "COMUNA": "Paine", "variable": "Centros de Educaci\u00f3n B\u00e1sica y Media", "Nombres": "ESCUELA B\u00c1SICA SAN GENNARO", "POINT_X": -70.72625, "POINT_Y": -33.805813}}, {"type": "Feature", "geometry": {"type": "Point", "coordinates": [-70.72592107000001, -33.80574702999998]}, "properties": {"CUT_REG": "13", "CUT_PROV": "134", "CUT_COM": "13404", "REGION": "Metropolitana de Santiago", "PROVINCIA": "Maipo", "COMUNA": "Paine", "variable": "Centros de Educaci\u00f3n B\u00e1sica y Media", "Nombres": "COLEGIO MODERNO PAINE", "POINT_X": -70.72592107, "POINT_Y": -33.80574703}}, {"type": "Feature", "geometry": {"type": "Point", "coordinates": [-70.723322, -33.80455400000003]}, "properties": {"CUT_REG": "13", "CUT_PROV": "134", "CUT_COM": "13404", "REGION": "Metropolitana de Santiago", "PROVINCIA": "Maipo", "COMUNA": "Paine", "variable": "Centros de Educaci\u00f3n B\u00e1sica y Media", "Nombres": "ESCUELA  BASICA  N\u00b0 206, `PULMAHUE`", "POINT_X": -70.723322, "POINT_Y": -33.804554}}, {"type": "Feature", "geometry": {"type": "Point", "coordinates": [-70.70504907000003, -33.804380160000036]}, "properties": {"CUT_REG": "13", "CUT_PROV": "134", "CUT_COM": "13404", "REGION": "Metropolitana de Santiago", "PROVINCIA": "Maipo", "COMUNA": "Paine", "variable": "Centros de Educaci\u00f3n B\u00e1sica y Media", "Nombres": "ESCUELA  BARBARA KAST RIST", "POINT_X": -70.70504907, "POINT_Y": -33.80438016}}, {"type": "Feature", "geometry": {"type": "Point", "coordinates": [-70.71394222, -33.80245061999999]}, "properties": {"CUT_REG": "13", "CUT_PROV": "134", "CUT_COM": "13404", "REGION": "Metropolitana de Santiago", "PROVINCIA": "Maipo", "COMUNA": "Paine", "variable": "Centros de Educaci\u00f3n B\u00e1sica y Media", "Nombres": "ESCUELA PART. NAHUEL", "POINT_X": -70.71394222, "POINT_Y": -33.80245062}}, {"type": "Feature", "geometry": {"type": "Point", "coordinates": [-70.79224107000002, -33.800960289999956]}, "properties": {"CUT_REG": "13", "CUT_PROV": "134", "CUT_COM": "13402", "REGION": "Metropolitana de Santiago", "PROVINCIA": "Maipo", "COMUNA": "Buin", "variable": "Centros de Educaci\u00f3n B\u00e1sica y Media", "Nombres": "ESCUELA VILUCO", "POINT_X": -70.79224107, "POINT_Y": -33.80096029}}, {"type": "Feature", "geometry": {"type": "Point", "coordinates": [-70.64823813999999, -33.77469812000003]}, "properties": {"CUT_REG": "13", "CUT_PROV": "134", "CUT_COM": "13404", "REGION": "Metropolitana de Santiago", "PROVINCIA": "Maipo", "COMUNA": "Paine", "variable": "Centros de Educaci\u00f3n B\u00e1sica y Media", "Nombres": "ESCUELA HUGO PINO VILCHEZ", "POINT_X": -70.64823814, "POINT_Y": -33.77469812}}, {"type": "Feature", "geometry": {"type": "Point", "coordinates": [-70.74123999999999, -33.77137]}, "properties": {"CUT_REG": "13", "CUT_PROV": "134", "CUT_COM": "13402", "REGION": "Metropolitana de Santiago", "PROVINCIA": "Maipo", "COMUNA": "Buin", "variable": "Centros de Educaci\u00f3n B\u00e1sica y Media", "Nombres": "ESC. PARV.Y ESP MUNDOPALABRA DE BUIN", "POINT_X": -70.74124, "POINT_Y": -33.77137}}, {"type": "Feature", "geometry": {"type": "Point", "coordinates": [-70.73678394999997, -33.76263173999997]}, "properties": {"CUT_REG": "13", "CUT_PROV": "134", "CUT_COM": "13402", "REGION": "Metropolitana de Santiago", "PROVINCIA": "Maipo", "COMUNA": "Buin", "variable": "Centros de Educaci\u00f3n B\u00e1sica y Media", "Nombres": "LICEO FRANCISCO JAVIER KRUGGER ALVARADO", "POINT_X": -70.73678395, "POINT_Y": -33.76263174}}, {"type": "Feature", "geometry": {"type": "Point", "coordinates": [-70.74214999999997, -33.76233999999999]}, "properties": {"CUT_REG": "13", "CUT_PROV": "134", "CUT_COM": "13402", "REGION": "Metropolitana de Santiago", "PROVINCIA": "Maipo", "COMUNA": "Buin", "variable": "Centros de Educaci\u00f3n B\u00e1sica y Media", "Nombres": "COLEGIO INGLES SAN JOSE DE LINDEROS", "POINT_X": -70.74215, "POINT_Y": -33.76234}}, {"type": "Feature", "geometry": {"type": "Point", "coordinates": [-70.73548, -33.76027999999999]}, "properties": {"CUT_REG": "13", "CUT_PROV": "134", "CUT_COM": "13402", "REGION": "Metropolitana de Santiago", "PROVINCIA": "Maipo", "COMUNA": "Buin", "variable": "Centros de Educaci\u00f3n B\u00e1sica y Media", "Nombres": "COLEGIO CAMPANARIO", "POINT_X": -70.73548, "POINT_Y": -33.76028}}, {"type": "Feature", "geometry": {"type": "Point", "coordinates": [-70.74938900000002, -33.747065000000006]}, "properties": {"CUT_REG": "13", "CUT_PROV": "134", "CUT_COM": "13402", "REGION": "Metropolitana de Santiago", "PROVINCIA": "Maipo", "COMUNA": "Buin", "variable": "Centros de Educaci\u00f3n B\u00e1sica y Media", "Nombres": "ESCUELA  SAN  IGNACIO  DE  BUIN", "POINT_X": -70.749389, "POINT_Y": -33.747065}}, {"type": "Feature", "geometry": {"type": "Point", "coordinates": [-70.75065671000002, -33.74456633000003]}, "properties": {"CUT_REG": "13", "CUT_PROV": "134", "CUT_COM": "13402", "REGION": "Metropolitana de Santiago", "PROVINCIA": "Maipo", "COMUNA": "Buin", "variable": "Centros de Educaci\u00f3n B\u00e1sica y Media", "Nombres": "ESCUELA VILLASECA", "POINT_X": -70.75065671, "POINT_Y": -33.74456633}}, {"type": "Feature", "geometry": {"type": "Point", "coordinates": [-70.74125000000001, -33.74116599999998]}, "properties": {"CUT_REG": "13", "CUT_PROV": "134", "CUT_COM": "13402", "REGION": "Metropolitana de Santiago", "PROVINCIA": "Maipo", "COMUNA": "Buin", "variable": "Centros de Educaci\u00f3n B\u00e1sica y Media", "Nombres": "COLEGIO BUIN", "POINT_X": -70.74125, "POINT_Y": -33.741166}}, {"type": "Feature", "geometry": {"type": "Point", "coordinates": [-70.73571000000003, -33.739640000000016]}, "properties": {"CUT_REG": "13", "CUT_PROV": "134", "CUT_COM": "13402", "REGION": "Metropolitana de Santiago", "PROVINCIA": "Maipo", "COMUNA": "Buin", "variable": "Centros de Educaci\u00f3n B\u00e1sica y Media", "Nombres": "ESCUELA  ESPECIAL  N\u00b0 208 LA  RONDA", "POINT_X": -70.73571, "POINT_Y": -33.73964}}, {"type": "Feature", "geometry": {"type": "Point", "coordinates": [-70.74443845000005, -33.73961682999996]}, "properties": {"CUT_REG": "13", "CUT_PROV": "134", "CUT_COM": "13402", "REGION": "Metropolitana de Santiago", "PROVINCIA": "Maipo", "COMUNA": "Buin", "variable": "Centros de Educaci\u00f3n B\u00e1sica y Media", "Nombres": "ESCUELA DEL CARI\u00d1O KIMELTUWE", "POINT_X": -70.74443845, "POINT_Y": -33.73961683}}, {"type": "Feature", "geometry": {"type": "Point", "coordinates": [-70.68104000000001, -33.73945000000001]}, "properties": {"CUT_REG": "13", "CUT_PROV": "134", "CUT_COM": "13402", "REGION": "Metropolitana de Santiago", "PROVINCIA": "Maipo", "COMUNA": "Buin", "variable": "Centros de Educaci\u00f3n B\u00e1sica y Media", "Nombres": "ESCUELA ESPECIAL N\u00b0197 MI  PEQUE\u00d1O  MOZART", "POINT_X": -70.68104, "POINT_Y": -33.73945}}, {"type": "Feature", "geometry": {"type": "Point", "coordinates": [-70.74093499999998, -33.73880199999996]}, "properties": {"CUT_REG": "13", "CUT_PROV": "134", "CUT_COM": "13402", "REGION": "Metropolitana de Santiago", "PROVINCIA": "Maipo", "COMUNA": "Buin", "variable": "Centros de Educaci\u00f3n B\u00e1sica y Media", "Nombres": "COLEGIO PATAGONIA DE BUIN", "POINT_X": -70.740935, "POINT_Y": -33.738802}}, {"type": "Feature", "geometry": {"type": "Point", "coordinates": [-70.741165, -33.73752999999996]}, "properties": {"CUT_REG": "13", "CUT_PROV": "134", "CUT_COM": "13402", "REGION": "Metropolitana de Santiago", "PROVINCIA": "Maipo", "COMUNA": "Buin", "variable": "Centros de Educaci\u00f3n B\u00e1sica y Media", "Nombres": "ESC ESP. CENTROS DE RETOS MULTIPLES LUZ Y ESP", "POINT_X": -70.741165, "POINT_Y": -33.73753}}, {"type": "Feature", "geometry": {"type": "Point", "coordinates": [-70.76025223000002, -33.73501345000002]}, "properties": {"CUT_REG": "13", "CUT_PROV": "134", "CUT_COM": "13402", "REGION": "Metropolitana de Santiago", "PROVINCIA": "Maipo", "COMUNA": "Buin", "variable": "Centros de Educaci\u00f3n B\u00e1sica y Media", "Nombres": "ESCUELA LO SALINAS", "POINT_X": -70.76025223, "POINT_Y": -33.73501345}}, {"type": "Feature", "geometry": {"type": "Point", "coordinates": [-70.77826755999999, -33.73442361999997]}, "properties": {"CUT_REG": "13", "CUT_PROV": "134", "CUT_COM": "13402", "REGION": "Metropolitana de Santiago", "PROVINCIA": "Maipo", "COMUNA": "Buin", "variable": "Centros de Educaci\u00f3n B\u00e1sica y Media", "Nombres": "COLEGIO DE MAIPO", "POINT_X": -70.77826756, "POINT_Y": -33.73442362}}, {"type": "Feature", "geometry": {"type": "Point", "coordinates": [-70.75639999999996, -33.73441699999996]}, "properties": {"CUT_REG": "13", "CUT_PROV": "134", "CUT_COM": "13402", "REGION": "Metropolitana de Santiago", "PROVINCIA": "Maipo", "COMUNA": "Buin", "variable": "Centros de Educaci\u00f3n B\u00e1sica y Media", "Nombres": "INSTITUTO SAN ALBERTO HURTADO", "POINT_X": -70.7564, "POINT_Y": -33.734417}}, {"type": "Feature", "geometry": {"type": "Point", "coordinates": [-70.75959000000003, -33.734149999999985]}, "properties": {"CUT_REG": "13", "CUT_PROV": "134", "CUT_COM": "13402", "REGION": "Metropolitana de Santiago", "PROVINCIA": "Maipo", "COMUNA": "Buin", "variable": "Centros de Educaci\u00f3n B\u00e1sica y Media", "Nombres": "COLEGIO SAN FERNANDO DE BUIN", "POINT_X": -70.75959, "POINT_Y": -33.73415}}, {"type": "Feature", "geometry": {"type": "Point", "coordinates": [-70.78005999999996, -33.733665]}, "properties": {"CUT_REG": "13", "CUT_PROV": "134", "CUT_COM": "13402", "REGION": "Metropolitana de Santiago", "PROVINCIA": "Maipo", "COMUNA": "Buin", "variable": "Centros de Educaci\u00f3n B\u00e1sica y Media", "Nombres": "ESCUELA ESPECIAL N\u00ba 168 NAJU", "POINT_X": -70.78006, "POINT_Y": -33.733665}}, {"type": "Feature", "geometry": {"type": "Point", "coordinates": [-70.74223477999996, -33.73355182999996]}, "properties": {"CUT_REG": "13", "CUT_PROV": "134", "CUT_COM": "13402", "REGION": "Metropolitana de Santiago", "PROVINCIA": "Maipo", "COMUNA": "Buin", "variable": "Centros de Educaci\u00f3n B\u00e1sica y Media", "Nombres": "ESC. DE PARV. Y ESP. PUKARAY", "POINT_X": -70.74223478, "POINT_Y": -33.73355183}}, {"type": "Feature", "geometry": {"type": "Point", "coordinates": [-70.75487000000001, -33.73335400000003]}, "properties": {"CUT_REG": "13", "CUT_PROV": "134", "CUT_COM": "13402", "REGION": "Metropolitana de Santiago", "PROVINCIA": "Maipo", "COMUNA": "Buin", "variable": "Centros de Educaci\u00f3n B\u00e1sica y Media", "Nombres": "COLEGIO SAINT JAMES SCHOOL", "POINT_X": -70.75487, "POINT_Y": -33.733354}}, {"type": "Feature", "geometry": {"type": "Point", "coordinates": [-70.74514299999998, -33.732084000000015]}, "properties": {"CUT_REG": "13", "CUT_PROV": "134", "CUT_COM": "13402", "REGION": "Metropolitana de Santiago", "PROVINCIA": "Maipo", "COMUNA": "Buin", "variable": "Centros de Educaci\u00f3n B\u00e1sica y Media", "Nombres": "ESCUELA  ESPECIAL N\u00b0198 LOS  GIRASOLES", "POINT_X": -70.745143, "POINT_Y": -33.732084}}, {"type": "Feature", "geometry": {"type": "Point", "coordinates": [-70.78363000000002, -33.73202500000002]}, "properties": {"CUT_REG": "13", "CUT_PROV": "134", "CUT_COM": "13402", "REGION": "Metropolitana de Santiago", "PROVINCIA": "Maipo", "COMUNA": "Buin", "variable": "Centros de Educaci\u00f3n B\u00e1sica y Media", "Nombres": "ESCUELA ESP. ARCOIRIS DE BUIN", "POINT_X": -70.78363, "POINT_Y": -33.732025}}, {"type": "Feature", "geometry": {"type": "Point", "coordinates": [-70.74300090000003, -33.73164938000003]}, "properties": {"CUT_REG": "13", "CUT_PROV": "134", "CUT_COM": "13402", "REGION": "Metropolitana de Santiago", "PROVINCIA": "Maipo", "COMUNA": "Buin", "variable": "Centros de Educaci\u00f3n B\u00e1sica y Media", "Nombres": "LICEO 131", "POINT_X": -70.7430009, "POINT_Y": -33.73164938}}, {"type": "Feature", "geometry": {"type": "Point", "coordinates": [-70.77296765999995, -33.731578590000034]}, "properties": {"CUT_REG": "13", "CUT_PROV": "134", "CUT_COM": "13402", "REGION": "Metropolitana de Santiago", "PROVINCIA": "Maipo", "COMUNA": "Buin", "variable": "Centros de Educaci\u00f3n B\u00e1sica y Media", "Nombres": "COLEGIO ALTO DEL VALLE", "POINT_X": -70.77296766, "POINT_Y": -33.73157859}}, {"type": "Feature", "geometry": {"type": "Point", "coordinates": [-70.75750000000002, -33.731419999999964]}, "properties": {"CUT_REG": "13", "CUT_PROV": "134", "CUT_COM": "13402", "REGION": "Metropolitana de Santiago", "PROVINCIA": "Maipo", "COMUNA": "Buin", "variable": "Centros de Educaci\u00f3n B\u00e1sica y Media", "Nombres": "CENTRO DE EDUC.ESPECIAL HNO.BERNARDO", "POINT_X": -70.7575, "POINT_Y": -33.73142}}, {"type": "Feature", "geometry": {"type": "Point", "coordinates": [-70.74115, -33.730159999999984]}, "properties": {"CUT_REG": "13", "CUT_PROV": "134", "CUT_COM": "13402", "REGION": "Metropolitana de Santiago", "PROVINCIA": "Maipo", "COMUNA": "Buin", "variable": "Centros de Educaci\u00f3n B\u00e1sica y Media", "Nombres": "ESCUELA ESPECIAL DE LENGUAJE EL CANELO", "POINT_X": -70.74115, "POINT_Y": -33.73016}}, {"type": "Feature", "geometry": {"type": "Point", "coordinates": [-70.74629999999996, -33.72993999999999]}, "properties": {"CUT_REG": "13", "CUT_PROV": "134", "CUT_COM": "13402", "REGION": "Metropolitana de Santiago", "PROVINCIA": "Maipo", "COMUNA": "Buin", "variable": "Centros de Educaci\u00f3n B\u00e1sica y Media", "Nombres": "ESCUELA ESPECIAL DEL LENGUAJE ROMIYANCO", "POINT_X": -70.7463, "POINT_Y": -33.72994}}, {"type": "Feature", "geometry": {"type": "Point", "coordinates": [-70.68480871, -33.72925953]}, "properties": {"CUT_REG": "13", "CUT_PROV": "134", "CUT_COM": "13402", "REGION": "Metropolitana de Santiago", "PROVINCIA": "Maipo", "COMUNA": "Buin", "variable": "Centros de Educaci\u00f3n B\u00e1sica y Media", "Nombres": "LICEO ALTO JAHUEL", "POINT_X": -70.68480871, "POINT_Y": -33.72925953}}, {"type": "Feature", "geometry": {"type": "Point", "coordinates": [-70.73969471000004, -33.72914399000003]}, "properties": {"CUT_REG": "13", "CUT_PROV": "134", "CUT_COM": "13402", "REGION": "Metropolitana de Santiago", "PROVINCIA": "Maipo", "COMUNA": "Buin", "variable": "Centros de Educaci\u00f3n B\u00e1sica y Media", "Nombres": "COLEGIO SAINT MARY COLLEGE", "POINT_X": -70.73969471, "POINT_Y": -33.72914399}}, {"type": "Feature", "geometry": {"type": "Point", "coordinates": [-70.74678237, -33.72909569000003]}, "properties": {"CUT_REG": "13", "CUT_PROV": "134", "CUT_COM": "13402", "REGION": "Metropolitana de Santiago", "PROVINCIA": "Maipo", "COMUNA": "Buin", "variable": "Centros de Educaci\u00f3n B\u00e1sica y Media", "Nombres": "ESC. PART. PABLO APOSTOL DE BUIN", "POINT_X": -70.74678237, "POINT_Y": -33.72909569}}, {"type": "Feature", "geometry": {"type": "Point", "coordinates": [-70.74299999999995, -33.728904999999976]}, "properties": {"CUT_REG": "13", "CUT_PROV": "134", "CUT_COM": "13402", "REGION": "Metropolitana de Santiago", "PROVINCIA": "Maipo", "COMUNA": "Buin", "variable": "Centros de Educaci\u00f3n B\u00e1sica y Media", "Nombres": "ESCUELA ESPECIAL PARTICULAR ANTAI", "POINT_X": -70.743, "POINT_Y": -33.728905}}, {"type": "Feature", "geometry": {"type": "Point", "coordinates": [-70.74785372, -33.72792375999997]}, "properties": {"CUT_REG": "13", "CUT_PROV": "134", "CUT_COM": "13402", "REGION": "Metropolitana de Santiago", "PROVINCIA": "Maipo", "COMUNA": "Buin", "variable": "Centros de Educaci\u00f3n B\u00e1sica y Media", "Nombres": "LICEO POLIVALENTE MODERNO CARDENAL CARO", "POINT_X": -70.74785372, "POINT_Y": -33.72792376}}, {"type": "Feature", "geometry": {"type": "Point", "coordinates": [-70.77438999999995, -33.726986000000004]}, "properties": {"CUT_REG": "13", "CUT_PROV": "134", "CUT_COM": "13402", "REGION": "Metropolitana de Santiago", "PROVINCIA": "Maipo", "COMUNA": "Buin", "variable": "Centros de Educaci\u00f3n B\u00e1sica y Media", "Nombres": "ESCUELA ESP. MI MUNDO EN PALABRAS DE BUIN", "POINT_X": -70.77439, "POINT_Y": -33.726986}}, {"type": "Feature", "geometry": {"type": "Point", "coordinates": [-70.74048197999997, -33.721361250000015]}, "properties": {"CUT_REG": "13", "CUT_PROV": "134", "CUT_COM": "13402", "REGION": "Metropolitana de Santiago", "PROVINCIA": "Maipo", "COMUNA": "Buin", "variable": "Centros de Educaci\u00f3n B\u00e1sica y Media", "Nombres": "LICEO TECNICO PROFESIONAL DE BUIN", "POINT_X": -70.74048198, "POINT_Y": -33.72136125}}, {"type": "Feature", "geometry": {"type": "Point", "coordinates": [-70.74147999999995, -33.71937000000001]}, "properties": {"CUT_REG": "13", "CUT_PROV": "134", "CUT_COM": "13402", "REGION": "Metropolitana de Santiago", "PROVINCIA": "Maipo", "COMUNA": "Buin", "variable": "Centros de Educaci\u00f3n B\u00e1sica y Media", "Nombres": "ESCUELA ESPECIAL N\u00b0  203 ALTO BUIN II", "POINT_X": -70.74148, "POINT_Y": -33.71937}}, {"type": "Feature", "geometry": {"type": "Point", "coordinates": [-70.67967766000001, -33.71460812000001]}, "properties": {"CUT_REG": "13", "CUT_PROV": "134", "CUT_COM": "13402", "REGION": "Metropolitana de Santiago", "PROVINCIA": "Maipo", "COMUNA": "Buin", "variable": "Centros de Educaci\u00f3n B\u00e1sica y Media", "Nombres": "ESC.BASICA Y ESP.MARIA DE LOS ANGELES DE BUIN", "POINT_X": -70.67967766, "POINT_Y": -33.71460812}}, {"type": "Feature", "geometry": {"type": "Point", "coordinates": [-70.74229206999999, -33.713862000000006]}, "properties": {"CUT_REG": "13", "CUT_PROV": "134", "CUT_COM": "13402", "REGION": "Metropolitana de Santiago", "PROVINCIA": "Maipo", "COMUNA": "Buin", "variable": "Centros de Educaci\u00f3n B\u00e1sica y Media", "Nombres": "ESCUELA B\u00c1SICA N 149 SAN MARCEL", "POINT_X": -70.74229207, "POINT_Y": -33.713862}}, {"type": "Feature", "geometry": {"type": "Point", "coordinates": [-70.74442855000002, -33.71385889000001]}, "properties": {"CUT_REG": "13", "CUT_PROV": "134", "CUT_COM": "13402", "REGION": "Metropolitana de Santiago", "PROVINCIA": "Maipo", "COMUNA": "Buin", "variable": "Centros de Educaci\u00f3n B\u00e1sica y Media", "Nombres": "ESCUELA LOS ROSALES DEL BAJO", "POINT_X": -70.74442855, "POINT_Y": -33.71385889}}, {"type": "Feature", "geometry": {"type": "Point", "coordinates": [-70.72206879999996, -33.71270284000002]}, "properties": {"CUT_REG": "13", "CUT_PROV": "134", "CUT_COM": "13402", "REGION": "Metropolitana de Santiago", "PROVINCIA": "Maipo", "COMUNA": "Buin", "variable": "Centros de Educaci\u00f3n B\u00e1sica y Media", "Nombres": "LICEO POLIVALENTE LOS GUINDOS", "POINT_X": -70.7220688, "POINT_Y": -33.71270284}}, {"type": "Feature", "geometry": {"type": "Point", "coordinates": [-70.70491665, -33.711231325000035]}, "properties": {"CUT_REG": "13", "CUT_PROV": "134", "CUT_COM": "13402", "REGION": "Metropolitana de Santiago", "PROVINCIA": "Maipo", "COMUNA": "Buin", "variable": "Centros de Educaci\u00f3n B\u00e1sica y Media", "Nombres": "LICEO ALBERTO HURTADO", "POINT_X": -70.70491665, "POINT_Y": -33.711231325}}, {"type": "Feature", "geometry": {"type": "Point", "coordinates": [-70.67259999999996, -33.70067600000003]}, "properties": {"CUT_REG": "13", "CUT_PROV": "134", "CUT_COM": "13402", "REGION": "Metropolitana de Santiago", "PROVINCIA": "Maipo", "COMUNA": "Buin", "variable": "Centros de Educaci\u00f3n B\u00e1sica y Media", "Nombres": "ESCUELA ESPECIAL DEFIC MENTAL CAMPOSANO", "POINT_X": -70.6726, "POINT_Y": -33.700676}}, {"type": "Feature", "geometry": {"type": "Point", "coordinates": [-70.69262197999996, -33.68853638000003]}, "properties": {"CUT_REG": "13", "CUT_PROV": "134", "CUT_COM": "13402", "REGION": "Metropolitana de Santiago", "PROVINCIA": "Maipo", "COMUNA": "Buin", "variable": "Centros de Educaci\u00f3n B\u00e1sica y Media", "Nombres": "ESCUELA BASICA G-N\u00b0813 LOS AROMOS DE EL RECURSO", "POINT_X": -70.69262198, "POINT_Y": -33.68853638}}, {"type": "Feature", "geometry": {"type": "Point", "coordinates": [-70.66786900000002, -33.67502199999998]}, "properties": {"CUT_REG": "13", "CUT_PROV": "134", "CUT_COM": "13402", "REGION": "Metropolitana de Santiago", "PROVINCIA": "Maipo", "COMUNA": "Buin", "variable": "Centros de Educaci\u00f3n B\u00e1sica y Media", "Nombres": "ESCUELA ESPECIAL N\u00b0165 MONTESOL", "POINT_X": -70.667869, "POINT_Y": -33.675022}}, {"type": "Feature", "geometry": {"type": "Point", "coordinates": [-70.74203499999996, -33.67083400000003]}, "properties": {"CUT_REG": "13", "CUT_PROV": "134", "CUT_COM": "13401", "REGION": "Metropolitana de Santiago", "PROVINCIA": "Maipo", "COMUNA": "San Bernardo", "variable": "Centros de Educaci\u00f3n B\u00e1sica y Media", "Nombres": "ESCUELA ESP. PART. EL PRINCIPITO DE LO HERRER", "POINT_X": -70.742035, "POINT_Y": -33.670834}}, {"type": "Feature", "geometry": {"type": "Point", "coordinates": [-70.74256407000003, -33.66880609000001]}, "properties": {"CUT_REG": "13", "CUT_PROV": "134", "CUT_COM": "13401", "REGION": "Metropolitana de Santiago", "PROVINCIA": "Maipo", "COMUNA": "San Bernardo", "variable": "Centros de Educaci\u00f3n B\u00e1sica y Media", "Nombres": "ESCUELA ELEODORO YANEZ PONCE DE LEON", "POINT_X": -70.74256407, "POINT_Y": -33.66880609}}, {"type": "Feature", "geometry": {"type": "Point", "coordinates": [-70.66182999999997, -33.660286000000006]}, "properties": {"CUT_REG": "13", "CUT_PROV": "134", "CUT_COM": "13402", "REGION": "Metropolitana de Santiago", "PROVINCIA": "Maipo", "COMUNA": "Buin", "variable": "Centros de Educaci\u00f3n B\u00e1sica y Media", "Nombres": "ESCUELA HOGAR REHABILITACION DON ORIONE", "POINT_X": -70.66183, "POINT_Y": -33.660286}}, {"type": "Feature", "geometry": {"type": "Point", "coordinates": [-70.66313638999996, -33.64869065000001]}, "properties": {"CUT_REG": "13", "CUT_PROV": "134", "CUT_COM": "13401", "REGION": "Metropolitana de Santiago", "PROVINCIA": "Maipo", "COMUNA": "San Bernardo", "variable": "Centros de Educaci\u00f3n B\u00e1sica y Media", "Nombres": "LICEO CLARA SOLOVERA", "POINT_X": -70.66313639, "POINT_Y": -33.64869065}}, {"type": "Feature", "geometry": {"type": "Point", "coordinates": [-70.77634999999995, -33.64499700000002]}, "properties": {"CUT_REG": "13", "CUT_PROV": "134", "CUT_COM": "13403", "REGION": "Metropolitana de Santiago", "PROVINCIA": "Maipo", "COMUNA": "Calera de Tango", "variable": "Centros de Educaci\u00f3n B\u00e1sica y Media", "Nombres": "ESCUELA ESPECIAL AMIGOS DEL BOSQUE", "POINT_X": -70.77635, "POINT_Y": -33.644997}}, {"type": "Feature", "geometry": {"type": "Point", "coordinates": [-70.73421338, -33.64243455000001]}, "properties": {"CUT_REG": "13", "CUT_PROV": "134", "CUT_COM": "13401", "REGION": "Metropolitana de Santiago", "PROVINCIA": "Maipo", "COMUNA": "San Bernardo", "variable": "Centros de Educaci\u00f3n B\u00e1sica y Media", "Nombres": "ESC. BAS. Y ESP. NTRA. SRA. DE LAS NIEVES", "POINT_X": -70.73421338, "POINT_Y": -33.64243455}}, {"type": "Feature", "geometry": {"type": "Point", "coordinates": [-70.67027263999995, -33.64106293000003]}, "properties": {"CUT_REG": "13", "CUT_PROV": "134", "CUT_COM": "13401", "REGION": "Metropolitana de Santiago", "PROVINCIA": "Maipo", "COMUNA": "San Bernardo", "variable": "Centros de Educaci\u00f3n B\u00e1sica y Media", "Nombres": "COLEGIO SANTIAGO EMPRENDEDORES", "POINT_X": -70.67027264, "POINT_Y": -33.64106293}}, {"type": "Feature", "geometry": {"type": "Point", "coordinates": [-70.69542000000001, -33.64045999999997]}, "properties": {"CUT_REG": "13", "CUT_PROV": "134", "CUT_COM": "13401", "REGION": "Metropolitana de Santiago", "PROVINCIA": "Maipo", "COMUNA": "San Bernardo", "variable": "Centros de Educaci\u00f3n B\u00e1sica y Media", "Nombres": "COLEGIO ALTERRA", "POINT_X": -70.69542, "POINT_Y": -33.64046}}, {"type": "Feature", "geometry": {"type": "Point", "coordinates": [-70.67900900000001, -33.639881000000024]}, "properties": {"CUT_REG": "13", "CUT_PROV": "134", "CUT_COM": "13401", "REGION": "Metropolitana de Santiago", "PROVINCIA": "Maipo", "COMUNA": "San Bernardo", "variable": "Centros de Educaci\u00f3n B\u00e1sica y Media", "Nombres": "ESCUELA CUMBRES  DE  NOS", "POINT_X": -70.679009, "POINT_Y": -33.639881}}, {"type": "Feature", "geometry": {"type": "Point", "coordinates": [-70.67482299999996, -33.639541999999956]}, "properties": {"CUT_REG": "13", "CUT_PROV": "134", "CUT_COM": "13401", "REGION": "Metropolitana de Santiago", "PROVINCIA": "Maipo", "COMUNA": "San Bernardo", "variable": "Centros de Educaci\u00f3n B\u00e1sica y Media", "Nombres": "COLEGIO DENHAM SCHOOL", "POINT_X": -70.674823, "POINT_Y": -33.639542}}, {"type": "Feature", "geometry": {"type": "Point", "coordinates": [-70.67546513999997, -33.63910357]}, "properties": {"CUT_REG": "13", "CUT_PROV": "134", "CUT_COM": "13401", "REGION": "Metropolitana de Santiago", "PROVINCIA": "Maipo", "COMUNA": "San Bernardo", "variable": "Centros de Educaci\u00f3n B\u00e1sica y Media", "Nombres": "ESCUELA HARAS LOS CONDORES", "POINT_X": -70.67546514, "POINT_Y": -33.63910357}}, {"type": "Feature", "geometry": {"type": "Point", "coordinates": [-70.70923193, -33.63890265999999]}, "properties": {"CUT_REG": "13", "CUT_PROV": "134", "CUT_COM": "13401", "REGION": "Metropolitana de Santiago", "PROVINCIA": "Maipo", "COMUNA": "San Bernardo", "variable": "Centros de Educaci\u00f3n B\u00e1sica y Media", "Nombres": "ESCUELA BASICA DR LUIS SEPULVEDA SALVATI", "POINT_X": -70.70923193, "POINT_Y": -33.63890266}}, {"type": "Feature", "geometry": {"type": "Point", "coordinates": [-70.70876999999997, -33.63781]}, "properties": {"CUT_REG": "13", "CUT_PROV": "134", "CUT_COM": "13401", "REGION": "Metropolitana de Santiago", "PROVINCIA": "Maipo", "COMUNA": "San Bernardo", "variable": "Centros de Educaci\u00f3n B\u00e1sica y Media", "Nombres": "ESCUELA DE PARVULOS CONEXIONES", "POINT_X": -70.70877, "POINT_Y": -33.63781}}, {"type": "Feature", "geometry": {"type": "Point", "coordinates": [-70.81222029000003, -33.63701714000003]}, "properties": {"CUT_REG": "13", "CUT_PROV": "134", "CUT_COM": "13403", "REGION": "Metropolitana de Santiago", "PROVINCIA": "Maipo", "COMUNA": "Calera de Tango", "variable": "Centros de Educaci\u00f3n B\u00e1sica y Media", "Nombres": "ESCUELA BASICA F-N\u00b0798 CALERA DE TANGO", "POINT_X": -70.81222029, "POINT_Y": -33.63701714}}, {"type": "Feature", "geometry": {"type": "Point", "coordinates": [-70.78606399999998, -33.63583799999999]}, "properties": {"CUT_REG": "13", "CUT_PROV": "134", "CUT_COM": "13403", "REGION": "Metropolitana de Santiago", "PROVINCIA": "Maipo", "COMUNA": "Calera de Tango", "variable": "Centros de Educaci\u00f3n B\u00e1sica y Media", "Nombres": "COLEGIO INSTITUTO CALERA DE TANGO", "POINT_X": -70.786064, "POINT_Y": -33.635838}}, {"type": "Feature", "geometry": {"type": "Point", "coordinates": [-70.80883399999996, -33.63409999999999]}, "properties": {"CUT_REG": "13", "CUT_PROV": "134", "CUT_COM": "13403", "REGION": "Metropolitana de Santiago", "PROVINCIA": "Maipo", "COMUNA": "Calera de Tango", "variable": "Centros de Educaci\u00f3n B\u00e1sica y Media", "Nombres": "SALA CUNA Y JARD\u00cdN INFANTIL EL CASTILLO", "POINT_X": -70.808834, "POINT_Y": -33.6341}}, {"type": "Feature", "geometry": {"type": "Point", "coordinates": [-70.76286999999999, -33.632110000000004]}, "properties": {"CUT_REG": "13", "CUT_PROV": "134", "CUT_COM": "13403", "REGION": "Metropolitana de Santiago", "PROVINCIA": "Maipo", "COMUNA": "Calera de Tango", "variable": "Centros de Educaci\u00f3n B\u00e1sica y Media", "Nombres": "ESCUELA ESPECIAL ANTUMALEN N\u00b0202", "POINT_X": -70.76287, "POINT_Y": -33.63211}}, {"type": "Feature", "geometry": {"type": "Point", "coordinates": [-70.75167999999996, -33.631630999999985]}, "properties": {"CUT_REG": "13", "CUT_PROV": "134", "CUT_COM": "13403", "REGION": "Metropolitana de Santiago", "PROVINCIA": "Maipo", "COMUNA": "Calera de Tango", "variable": "Centros de Educaci\u00f3n B\u00e1sica y Media", "Nombres": "COLEGIO SAN BARTOLOME DE NOS", "POINT_X": -70.75168, "POINT_Y": -33.631631}}, {"type": "Feature", "geometry": {"type": "Point", "coordinates": [-70.76014642999996, -33.630564350000014]}, "properties": {"CUT_REG": "13", "CUT_PROV": "134", "CUT_COM": "13403", "REGION": "Metropolitana de Santiago", "PROVINCIA": "Maipo", "COMUNA": "Calera de Tango", "variable": "Centros de Educaci\u00f3n B\u00e1sica y Media", "Nombres": "LICEO MUNICIPAL POETISA GABRIELA MISTRAL", "POINT_X": -70.76014643, "POINT_Y": -33.63056435}}, {"type": "Feature", "geometry": {"type": "Point", "coordinates": [-70.77815999999996, -33.62693400000002]}, "properties": {"CUT_REG": "13", "CUT_PROV": "134", "CUT_COM": "13403", "REGION": "Metropolitana de Santiago", "PROVINCIA": "Maipo", "COMUNA": "Calera de Tango", "variable": "Centros de Educaci\u00f3n B\u00e1sica y Media", "Nombres": "ESCUELA ESP. EL CARMEN", "POINT_X": -70.77816, "POINT_Y": -33.626934}}, {"type": "Feature", "geometry": {"type": "Point", "coordinates": [-70.70183381000001, -33.62681603000003]}, "properties": {"CUT_REG": "13", "CUT_PROV": "134", "CUT_COM": "13401", "REGION": "Metropolitana de Santiago", "PROVINCIA": "Maipo", "COMUNA": "San Bernardo", "variable": "Centros de Educaci\u00f3n B\u00e1sica y Media", "Nombres": "ESCUELA BASICA CINCO PINOS", "POINT_X": -70.70183381, "POINT_Y": -33.62681603}}, {"type": "Feature", "geometry": {"type": "Point", "coordinates": [-70.70537000000003, -33.625859999999975]}, "properties": {"CUT_REG": "13", "CUT_PROV": "134", "CUT_COM": "13401", "REGION": "Metropolitana de Santiago", "PROVINCIA": "Maipo", "COMUNA": "San Bernardo", "variable": "Centros de Educaci\u00f3n B\u00e1sica y Media", "Nombres": "COLEGIO LOS PENSAMIENTOS DE SAN BERNARDO", "POINT_X": -70.70537, "POINT_Y": -33.62586}}, {"type": "Feature", "geometry": {"type": "Point", "coordinates": [-70.77522099999997, -33.625738000000005]}, "properties": {"CUT_REG": "13", "CUT_PROV": "134", "CUT_COM": "13403", "REGION": "Metropolitana de Santiago", "PROVINCIA": "Maipo", "COMUNA": "Calera de Tango", "variable": "Centros de Educaci\u00f3n B\u00e1sica y Media", "Nombres": "RIELJAN COLLEGE", "POINT_X": -70.775221, "POINT_Y": -33.625738}}, {"type": "Feature", "geometry": {"type": "Point", "coordinates": [-70.683426, -33.62571]}, "properties": {"CUT_REG": "13", "CUT_PROV": "134", "CUT_COM": "13401", "REGION": "Metropolitana de Santiago", "PROVINCIA": "Maipo", "COMUNA": "San Bernardo", "variable": "Centros de Educaci\u00f3n B\u00e1sica y Media", "Nombres": "COLEGIO PALMARES VALLE LOS C\u00d3NDORES", "POINT_X": -70.683426, "POINT_Y": -33.62571}}, {"type": "Feature", "geometry": {"type": "Point", "coordinates": [-70.80203000000003, -33.62146800000002]}, "properties": {"CUT_REG": "13", "CUT_PROV": "134", "CUT_COM": "13403", "REGION": "Metropolitana de Santiago", "PROVINCIA": "Maipo", "COMUNA": "Calera de Tango", "variable": "Centros de Educaci\u00f3n B\u00e1sica y Media", "Nombres": "COLEGIO SAN ANDRES DE CALERA DE TANGO", "POINT_X": -70.80203, "POINT_Y": -33.621468}}, {"type": "Feature", "geometry": {"type": "Point", "coordinates": [-70.68900617000003, -33.621125410000005]}, "properties": {"CUT_REG": "13", "CUT_PROV": "134", "CUT_COM": "13401", "REGION": "Metropolitana de Santiago", "PROVINCIA": "Maipo", "COMUNA": "San Bernardo", "variable": "Centros de Educaci\u00f3n B\u00e1sica y Media", "Nombres": "ESCUELA BAS. KINGS SCHOOL", "POINT_X": -70.68900617, "POINT_Y": -33.62112541}}, {"type": "Feature", "geometry": {"type": "Point", "coordinates": [-70.68409999999997, -33.62091999999998]}, "properties": {"CUT_REG": "13", "CUT_PROV": "134", "CUT_COM": "13401", "REGION": "Metropolitana de Santiago", "PROVINCIA": "Maipo", "COMUNA": "San Bernardo", "variable": "Centros de Educaci\u00f3n B\u00e1sica y Media", "Nombres": "ESCUELA ESPECIAL DIFERENCIAL SAGRADO CORAZON", "POINT_X": -70.6841, "POINT_Y": -33.62092}}, {"type": "Feature", "geometry": {"type": "Point", "coordinates": [-70.69227510999995, -33.61982173999996]}, "properties": {"CUT_REG": "13", "CUT_PROV": "134", "CUT_COM": "13401", "REGION": "Metropolitana de Santiago", "PROVINCIA": "Maipo", "COMUNA": "San Bernardo", "variable": "Centros de Educaci\u00f3n B\u00e1sica y Media", "Nombres": "ESCUELA ABRAHAM LINCOLN", "POINT_X": -70.69227511, "POINT_Y": -33.61982174}}, {"type": "Feature", "geometry": {"type": "Point", "coordinates": [-70.69676230999997, -33.61866778999997]}, "properties": {"CUT_REG": "13", "CUT_PROV": "134", "CUT_COM": "13401", "REGION": "Metropolitana de Santiago", "PROVINCIA": "Maipo", "COMUNA": "San Bernardo", "variable": "Centros de Educaci\u00f3n B\u00e1sica y Media", "Nombres": "COLEGIO  FITZROY COLLEGE", "POINT_X": -70.69676231, "POINT_Y": -33.61866779}}, {"type": "Feature", "geometry": {"type": "Point", "coordinates": [-70.69790999999998, -33.61723999999996]}, "properties": {"CUT_REG": "13", "CUT_PROV": "134", "CUT_COM": "13401", "REGION": "Metropolitana de Santiago", "PROVINCIA": "Maipo", "COMUNA": "San Bernardo", "variable": "Centros de Educaci\u00f3n B\u00e1sica y Media", "Nombres": "ESC. DE PARV. JARDIN INFANTIL GIRASOL DE SAN", "POINT_X": -70.69791, "POINT_Y": -33.61724}}, {"type": "Feature", "geometry": {"type": "Point", "coordinates": [-70.70388548000003, -33.61661823000003]}, "properties": {"CUT_REG": "13", "CUT_PROV": "134", "CUT_COM": "13401", "REGION": "Metropolitana de Santiago", "PROVINCIA": "Maipo", "COMUNA": "San Bernardo", "variable": "Centros de Educaci\u00f3n B\u00e1sica y Media", "Nombres": "SAN IGNACIO COLLEGE", "POINT_X": -70.70388548, "POINT_Y": -33.61661823}}, {"type": "Feature", "geometry": {"type": "Point", "coordinates": [-70.69273977000003, -33.61635550999996]}, "properties": {"CUT_REG": "13", "CUT_PROV": "134", "CUT_COM": "13401", "REGION": "Metropolitana de Santiago", "PROVINCIA": "Maipo", "COMUNA": "San Bernardo", "variable": "Centros de Educaci\u00f3n B\u00e1sica y Media", "Nombres": "ESCUELA JOSE NUEZ MARTIN", "POINT_X": -70.69273977, "POINT_Y": -33.61635551}}, {"type": "Feature", "geometry": {"type": "Point", "coordinates": [-70.70553164999998, -33.61626362]}, "properties": {"CUT_REG": "13", "CUT_PROV": "134", "CUT_COM": "13401", "REGION": "Metropolitana de Santiago", "PROVINCIA": "Maipo", "COMUNA": "San Bernardo", "variable": "Centros de Educaci\u00f3n B\u00e1sica y Media", "Nombres": "COLEGIO SAN FRANCISCO DE ASIS DE SAN BERNARDO", "POINT_X": -70.70553165, "POINT_Y": -33.61626362}}, {"type": "Feature", "geometry": {"type": "Point", "coordinates": [-70.68538999999996, -33.61563500000003]}, "properties": {"CUT_REG": "13", "CUT_PROV": "134", "CUT_COM": "13401", "REGION": "Metropolitana de Santiago", "PROVINCIA": "Maipo", "COMUNA": "San Bernardo", "variable": "Centros de Educaci\u00f3n B\u00e1sica y Media", "Nombres": "ESCUELA  ESPECIAL  APRENDIENDO", "POINT_X": -70.68539, "POINT_Y": -33.615635}}, {"type": "Feature", "geometry": {"type": "Point", "coordinates": [-70.71812399999996, -33.613506]}, "properties": {"CUT_REG": "13", "CUT_PROV": "134", "CUT_COM": "13401", "REGION": "Metropolitana de Santiago", "PROVINCIA": "Maipo", "COMUNA": "San Bernardo", "variable": "Centros de Educaci\u00f3n B\u00e1sica y Media", "Nombres": "ESCUELA ESPECIAL DE LENGUAJE ALIMALINA", "POINT_X": -70.718124, "POINT_Y": -33.613506}}, {"type": "Feature", "geometry": {"type": "Point", "coordinates": [-70.69873600000003, -33.61254899999996]}, "properties": {"CUT_REG": "13", "CUT_PROV": "134", "CUT_COM": "13401", "REGION": "Metropolitana de Santiago", "PROVINCIA": "Maipo", "COMUNA": "San Bernardo", "variable": "Centros de Educaci\u00f3n B\u00e1sica y Media", "Nombres": "COLEGIO VALLES DEL MAIPO", "POINT_X": -70.698736, "POINT_Y": -33.612549}}, {"type": "Feature", "geometry": {"type": "Point", "coordinates": [-70.69328838000004, -33.612131260000034]}, "properties": {"CUT_REG": "13", "CUT_PROV": "134", "CUT_COM": "13401", "REGION": "Metropolitana de Santiago", "PROVINCIA": "Maipo", "COMUNA": "San Bernardo", "variable": "Centros de Educaci\u00f3n B\u00e1sica y Media", "Nombres": "LINCOLN COLLEGE SAN BERNARDO", "POINT_X": -70.69328838, "POINT_Y": -33.61213126}}, {"type": "Feature", "geometry": {"type": "Point", "coordinates": [-70.70334999999996, -33.61035499999997]}, "properties": {"CUT_REG": "13", "CUT_PROV": "134", "CUT_COM": "13401", "REGION": "Metropolitana de Santiago", "PROVINCIA": "Maipo", "COMUNA": "San Bernardo", "variable": "Centros de Educaci\u00f3n B\u00e1sica y Media", "Nombres": "ESC. ESP. SANTA GEMA GALGANI", "POINT_X": -70.70335, "POINT_Y": -33.610355}}, {"type": "Feature", "geometry": {"type": "Point", "coordinates": [-70.70859, -33.610130000000005]}, "properties": {"CUT_REG": "13", "CUT_PROV": "134", "CUT_COM": "13401", "REGION": "Metropolitana de Santiago", "PROVINCIA": "Maipo", "COMUNA": "San Bernardo", "variable": "Centros de Educaci\u00f3n B\u00e1sica y Media", "Nombres": "ESC. ESP. CORAZON DE JESUS DE SAN BERNARDO", "POINT_X": -70.70859, "POINT_Y": -33.61013}}, {"type": "Feature", "geometry": {"type": "Point", "coordinates": [-70.79015999999996, -33.60837500000001]}, "properties": {"CUT_REG": "13", "CUT_PROV": "134", "CUT_COM": "13403", "REGION": "Metropolitana de Santiago", "PROVINCIA": "Maipo", "COMUNA": "Calera de Tango", "variable": "Centros de Educaci\u00f3n B\u00e1sica y Media", "Nombres": "COLEGIO SAN FELIPE DIACONO", "POINT_X": -70.79016, "POINT_Y": -33.608375}}, {"type": "Feature", "geometry": {"type": "Point", "coordinates": [-70.69746949000003, -33.60772273999996]}, "properties": {"CUT_REG": "13", "CUT_PROV": "134", "CUT_COM": "13401", "REGION": "Metropolitana de Santiago", "PROVINCIA": "Maipo", "COMUNA": "San Bernardo", "variable": "Centros de Educaci\u00f3n B\u00e1sica y Media", "Nombres": "COLEGIO SEBASTIAN EL CANO SAN BERNARDO", "POINT_X": -70.69746949, "POINT_Y": -33.60772274}}, {"type": "Feature", "geometry": {"type": "Point", "coordinates": [-70.67070449999999, -33.607664999999976]}, "properties": {"CUT_REG": "13", "CUT_PROV": "134", "CUT_COM": "13401", "REGION": "Metropolitana de Santiago", "PROVINCIA": "Maipo", "COMUNA": "San Bernardo", "variable": "Centros de Educaci\u00f3n B\u00e1sica y Media", "Nombres": "CENTRO DE EDUCACION INTEGRADO DE  ADULTOS GLADYS LAZO N\u00ba 2", "POINT_X": -70.6707045, "POINT_Y": -33.607665}}, {"type": "Feature", "geometry": {"type": "Point", "coordinates": [-70.71203700000001, -33.60756084999997]}, "properties": {"CUT_REG": "13", "CUT_PROV": "134", "CUT_COM": "13401", "REGION": "Metropolitana de Santiago", "PROVINCIA": "Maipo", "COMUNA": "San Bernardo", "variable": "Centros de Educaci\u00f3n B\u00e1sica y Media", "Nombres": "COLEGIO ARAGON", "POINT_X": -70.712037, "POINT_Y": -33.60756085}}, {"type": "Feature", "geometry": {"type": "Point", "coordinates": [-70.68319, -33.607359999999964]}, "properties": {"CUT_REG": "13", "CUT_PROV": "134", "CUT_COM": "13401", "REGION": "Metropolitana de Santiago", "PROVINCIA": "Maipo", "COMUNA": "San Bernardo", "variable": "Centros de Educaci\u00f3n B\u00e1sica y Media", "Nombres": "COLEGIO HOSPITALARIO HOSPITAL DEL  PINO", "POINT_X": -70.68319, "POINT_Y": -33.60736}}, {"type": "Feature", "geometry": {"type": "Point", "coordinates": [-70.7892535, -33.60713319000003]}, "properties": {"CUT_REG": "13", "CUT_PROV": "134", "CUT_COM": "13403", "REGION": "Metropolitana de Santiago", "PROVINCIA": "Maipo", "COMUNA": "Calera de Tango", "variable": "Centros de Educaci\u00f3n B\u00e1sica y Media", "Nombres": "LICEO LONQUEN", "POINT_X": -70.7892535, "POINT_Y": -33.60713319}}, {"type": "Feature", "geometry": {"type": "Point", "coordinates": [-70.70527000000001, -33.606759999999966]}, "properties": {"CUT_REG": "13", "CUT_PROV": "134", "CUT_COM": "13401", "REGION": "Metropolitana de Santiago", "PROVINCIA": "Maipo", "COMUNA": "San Bernardo", "variable": "Centros de Educaci\u00f3n B\u00e1sica y Media", "Nombres": "ESCUELA DE LENGUAJE AMERICA II", "POINT_X": -70.70527, "POINT_Y": -33.60676}}, {"type": "Feature", "geometry": {"type": "Point", "coordinates": [-70.70298306999997, -33.60657719000003]}, "properties": {"CUT_REG": "13", "CUT_PROV": "134", "CUT_COM": "13401", "REGION": "Metropolitana de Santiago", "PROVINCIA": "Maipo", "COMUNA": "San Bernardo", "variable": "Centros de Educaci\u00f3n B\u00e1sica y Media", "Nombres": "COLEGIO GETSEMANI", "POINT_X": -70.70298307, "POINT_Y": -33.60657719}}, {"type": "Feature", "geometry": {"type": "Point", "coordinates": [-70.67359033000002, -33.60652262999996]}, "properties": {"CUT_REG": "13", "CUT_PROV": "134", "CUT_COM": "13401", "REGION": "Metropolitana de Santiago", "PROVINCIA": "Maipo", "COMUNA": "San Bernardo", "variable": "Centros de Educaci\u00f3n B\u00e1sica y Media", "Nombres": "COLEGIO NOBEL GABRIELA MISTRAL", "POINT_X": -70.67359033, "POINT_Y": -33.60652263}}, {"type": "Feature", "geometry": {"type": "Point", "coordinates": [-70.71208999999996, -33.60649499999998]}, "properties": {"CUT_REG": "13", "CUT_PROV": "134", "CUT_COM": "13401", "REGION": "Metropolitana de Santiago", "PROVINCIA": "Maipo", "COMUNA": "San Bernardo", "variable": "Centros de Educaci\u00f3n B\u00e1sica y Media", "Nombres": "ESCUELA ESP. SAN BERNARDO", "POINT_X": -70.71209, "POINT_Y": -33.606495}}, {"type": "Feature", "geometry": {"type": "Point", "coordinates": [-70.70662136000001, -33.606304839999964]}, "properties": {"CUT_REG": "13", "CUT_PROV": "134", "CUT_COM": "13401", "REGION": "Metropolitana de Santiago", "PROVINCIA": "Maipo", "COMUNA": "San Bernardo", "variable": "Centros de Educaci\u00f3n B\u00e1sica y Media", "Nombres": "ESCUELA ESCRITORA  MARCELA PAZ", "POINT_X": -70.70662136, "POINT_Y": -33.60630484}}, {"type": "Feature", "geometry": {"type": "Point", "coordinates": [-70.70762999999997, -33.606173999999974]}, "properties": {"CUT_REG": "13", "CUT_PROV": "134", "CUT_COM": "13401", "REGION": "Metropolitana de Santiago", "PROVINCIA": "Maipo", "COMUNA": "San Bernardo", "variable": "Centros de Educaci\u00f3n B\u00e1sica y Media", "Nombres": "LICEO NACIONAL BICENTENARIO DE EXCELENCIA", "POINT_X": -70.70763, "POINT_Y": -33.606174}}, {"type": "Feature", "geometry": {"type": "Point", "coordinates": [-70.69817, -33.60454999999999]}, "properties": {"CUT_REG": "13", "CUT_PROV": "134", "CUT_COM": "13401", "REGION": "Metropolitana de Santiago", "PROVINCIA": "Maipo", "COMUNA": "San Bernardo", "variable": "Centros de Educaci\u00f3n B\u00e1sica y Media", "Nombres": "ESCUELA ESPECIAL N\u00ba 214 PROFESOR ANTONIO OROZ", "POINT_X": -70.69817, "POINT_Y": -33.60455}}, {"type": "Feature", "geometry": {"type": "Point", "coordinates": [-70.69907000000003, -33.60426700000002]}, "properties": {"CUT_REG": "13", "CUT_PROV": "134", "CUT_COM": "13401", "REGION": "Metropolitana de Santiago", "PROVINCIA": "Maipo", "COMUNA": "San Bernardo", "variable": "Centros de Educaci\u00f3n B\u00e1sica y Media", "Nombres": "ESCUELA ESP. EL PALACIO DE LOS NI\u00d1OS DE SAN B", "POINT_X": -70.69907, "POINT_Y": -33.604267}}, {"type": "Feature", "geometry": {"type": "Point", "coordinates": [-70.68338810999995, -33.60423894000001]}, "properties": {"CUT_REG": "13", "CUT_PROV": "134", "CUT_COM": "13401", "REGION": "Metropolitana de Santiago", "PROVINCIA": "Maipo", "COMUNA": "San Bernardo", "variable": "Centros de Educaci\u00f3n B\u00e1sica y Media", "Nombres": "CENTRO EDUC.PART.ORDEN DE SAN JORGE", "POINT_X": -70.68338811, "POINT_Y": -33.60423894}}, {"type": "Feature", "geometry": {"type": "Point", "coordinates": [-70.70261000000002, -33.60398499999996]}, "properties": {"CUT_REG": "13", "CUT_PROV": "134", "CUT_COM": "13401", "REGION": "Metropolitana de Santiago", "PROVINCIA": "Maipo", "COMUNA": "San Bernardo", "variable": "Centros de Educaci\u00f3n B\u00e1sica y Media", "Nombres": "ESC. DE PARV. Y ESP. CASABLANCA DE SAN BERNAR", "POINT_X": -70.70261, "POINT_Y": -33.603985}}, {"type": "Feature", "geometry": {"type": "Point", "coordinates": [-70.68000637000003, -33.60390082000001]}, "properties": {"CUT_REG": "13", "CUT_PROV": "134", "CUT_COM": "13401", "REGION": "Metropolitana de Santiago", "PROVINCIA": "Maipo", "COMUNA": "San Bernardo", "variable": "Centros de Educaci\u00f3n B\u00e1sica y Media", "Nombres": "CENTRO EDUC. PADRE ALBERTO HURTADO DE SAN BER", "POINT_X": -70.68000637, "POINT_Y": -33.60390082}}, {"type": "Feature", "geometry": {"type": "Point", "coordinates": [-70.70331248999997, -33.60362401000002]}, "properties": {"CUT_REG": "13", "CUT_PROV": "134", "CUT_COM": "13401", "REGION": "Metropolitana de Santiago", "PROVINCIA": "Maipo", "COMUNA": "San Bernardo", "variable": "Centros de Educaci\u00f3n B\u00e1sica y Media", "Nombres": "ESCUELA BASICA PARTICULAR ROBERTO LORCA", "POINT_X": -70.70331249, "POINT_Y": -33.60362401}}, {"type": "Feature", "geometry": {"type": "Point", "coordinates": [-70.69942692, -33.60268327999999]}, "properties": {"CUT_REG": "13", "CUT_PROV": "134", "CUT_COM": "13401", "REGION": "Metropolitana de Santiago", "PROVINCIA": "Maipo", "COMUNA": "San Bernardo", "variable": "Centros de Educaci\u00f3n B\u00e1sica y Media", "Nombres": "COLEGIO AMERICAN ACADEMY", "POINT_X": -70.69942692, "POINT_Y": -33.60268328}}, {"type": "Feature", "geometry": {"type": "Point", "coordinates": [-70.70281999999997, -33.602019999999996]}, "properties": {"CUT_REG": "13", "CUT_PROV": "134", "CUT_COM": "13401", "REGION": "Metropolitana de Santiago", "PROVINCIA": "Maipo", "COMUNA": "San Bernardo", "variable": "Centros de Educaci\u00f3n B\u00e1sica y Media", "Nombres": "ESCUELA DE LENGUAJE MARIPOSITAS", "POINT_X": -70.70282, "POINT_Y": -33.60202}}, {"type": "Feature", "geometry": {"type": "Point", "coordinates": [-70.70138702, -33.60189896000002]}, "properties": {"CUT_REG": "13", "CUT_PROV": "134", "CUT_COM": "13401", "REGION": "Metropolitana de Santiago", "PROVINCIA": "Maipo", "COMUNA": "San Bernardo", "variable": "Centros de Educaci\u00f3n B\u00e1sica y Media", "Nombres": "COLEGIO  INGLES ISAAC NEWTON", "POINT_X": -70.70138702, "POINT_Y": -33.60189896}}, {"type": "Feature", "geometry": {"type": "Point", "coordinates": [-70.70430809000001, -33.60161529]}, "properties": {"CUT_REG": "13", "CUT_PROV": "134", "CUT_COM": "13401", "REGION": "Metropolitana de Santiago", "PROVINCIA": "Maipo", "COMUNA": "San Bernardo", "variable": "Centros de Educaci\u00f3n B\u00e1sica y Media", "Nombres": "LICEO POLIVALENTE A-127 FIDEL PINOCHET LE-BRUN", "POINT_X": -70.70430809, "POINT_Y": -33.60161529}}, {"type": "Feature", "geometry": {"type": "Point", "coordinates": [-70.69372999999999, -33.601542999999964]}, "properties": {"CUT_REG": "13", "CUT_PROV": "134", "CUT_COM": "13401", "REGION": "Metropolitana de Santiago", "PROVINCIA": "Maipo", "COMUNA": "San Bernardo", "variable": "Centros de Educaci\u00f3n B\u00e1sica y Media", "Nombres": "ESCUELA DE PARVULOS Y ESP. DA VINCE", "POINT_X": -70.69373, "POINT_Y": -33.601543}}, {"type": "Feature", "geometry": {"type": "Point", "coordinates": [-70.69292000000002, -33.60127599999999]}, "properties": {"CUT_REG": "13", "CUT_PROV": "134", "CUT_COM": "13401", "REGION": "Metropolitana de Santiago", "PROVINCIA": "Maipo", "COMUNA": "San Bernardo", "variable": "Centros de Educaci\u00f3n B\u00e1sica y Media", "Nombres": "ESC. DE PARV. Y ESP. CARACOLA", "POINT_X": -70.69292, "POINT_Y": -33.601276}}, {"type": "Feature", "geometry": {"type": "Point", "coordinates": [-70.70115000000001, -33.60101000000001]}, "properties": {"CUT_REG": "13", "CUT_PROV": "134", "CUT_COM": "13401", "REGION": "Metropolitana de Santiago", "PROVINCIA": "Maipo", "COMUNA": "San Bernardo", "variable": "Centros de Educaci\u00f3n B\u00e1sica y Media", "Nombres": "INSTITUTO  DOMINGO  EYZAGUIRRE", "POINT_X": -70.70115, "POINT_Y": -33.60101}}, {"type": "Feature", "geometry": {"type": "Point", "coordinates": [-70.70090999999996, -33.600307000000015]}, "properties": {"CUT_REG": "13", "CUT_PROV": "134", "CUT_COM": "13401", "REGION": "Metropolitana de Santiago", "PROVINCIA": "Maipo", "COMUNA": "San Bernardo", "variable": "Centros de Educaci\u00f3n B\u00e1sica y Media", "Nombres": "INSTITUTO COMERCIAL BARROS ARANA", "POINT_X": -70.70091, "POINT_Y": -33.600307}}, {"type": "Feature", "geometry": {"type": "Point", "coordinates": [-70.70386476000002, -33.600046619999965]}, "properties": {"CUT_REG": "13", "CUT_PROV": "134", "CUT_COM": "13401", "REGION": "Metropolitana de Santiago", "PROVINCIA": "Maipo", "COMUNA": "San Bernardo", "variable": "Centros de Educaci\u00f3n B\u00e1sica y Media", "Nombres": "LICEO ELVIRA BRADY MALDONADO-SN.BERNARDO", "POINT_X": -70.70386476, "POINT_Y": -33.60004662}}, {"type": "Feature", "geometry": {"type": "Point", "coordinates": [-70.69330000000002, -33.59974699999996]}, "properties": {"CUT_REG": "13", "CUT_PROV": "134", "CUT_COM": "13401", "REGION": "Metropolitana de Santiago", "PROVINCIA": "Maipo", "COMUNA": "San Bernardo", "variable": "Centros de Educaci\u00f3n B\u00e1sica y Media", "Nombres": "ESCUELA ESP. PART. SAN JOSE DE SAN BERNARDO", "POINT_X": -70.6933, "POINT_Y": -33.599747}}, {"type": "Feature", "geometry": {"type": "Point", "coordinates": [-70.70724000000004, -33.599469999999954]}, "properties": {"CUT_REG": "13", "CUT_PROV": "134", "CUT_COM": "13401", "REGION": "Metropolitana de Santiago", "PROVINCIA": "Maipo", "COMUNA": "San Bernardo", "variable": "Centros de Educaci\u00f3n B\u00e1sica y Media", "Nombres": "ESCUELA ESPECIAL N\u00ba 213 PRINCIPADO INFANCIA FELIZ", "POINT_X": -70.70724, "POINT_Y": -33.59947}}, {"type": "Feature", "geometry": {"type": "Point", "coordinates": [-70.69400000000003, -33.59931000000004]}, "properties": {"CUT_REG": "13", "CUT_PROV": "134", "CUT_COM": "13401", "REGION": "Metropolitana de Santiago", "PROVINCIA": "Maipo", "COMUNA": "San Bernardo", "variable": "Centros de Educaci\u00f3n B\u00e1sica y Media", "Nombres": "ESCUELA ESP. PART. CHARLES DE GAULLE", "POINT_X": -70.694, "POINT_Y": -33.59931}}, {"type": "Feature", "geometry": {"type": "Point", "coordinates": [-70.70838999999998, -33.59868999999998]}, "properties": {"CUT_REG": "13", "CUT_PROV": "134", "CUT_COM": "13401", "REGION": "Metropolitana de Santiago", "PROVINCIA": "Maipo", "COMUNA": "San Bernardo", "variable": "Centros de Educaci\u00f3n B\u00e1sica y Media", "Nombres": "ESCUELA DE PARV. BERNARD COLLEGE DE SAN BERNA", "POINT_X": -70.70839, "POINT_Y": -33.59869}}, {"type": "Feature", "geometry": {"type": "Point", "coordinates": [-70.70018460999998, -33.59858249999997]}, "properties": {"CUT_REG": "13", "CUT_PROV": "134", "CUT_COM": "13401", "REGION": "Metropolitana de Santiago", "PROVINCIA": "Maipo", "COMUNA": "San Bernardo", "variable": "Centros de Educaci\u00f3n B\u00e1sica y Media", "Nombres": "ESCUELA  ESPECIAL N\u00b0205 ,`MI MUNDO  EN  PALABRAS`", "POINT_X": -70.70018461, "POINT_Y": -33.5985825}}, {"type": "Feature", "geometry": {"type": "Point", "coordinates": [-70.70695000000002, -33.59853700000003]}, "properties": {"CUT_REG": "13", "CUT_PROV": "134", "CUT_COM": "13401", "REGION": "Metropolitana de Santiago", "PROVINCIA": "Maipo", "COMUNA": "San Bernardo", "variable": "Centros de Educaci\u00f3n B\u00e1sica y Media", "Nombres": "ESCUELA ESP. PART. EDUC. LAUDELINA ARANEDA", "POINT_X": -70.70695, "POINT_Y": -33.598537}}, {"type": "Feature", "geometry": {"type": "Point", "coordinates": [-70.71021102, -33.59828610999996]}, "properties": {"CUT_REG": "13", "CUT_PROV": "134", "CUT_COM": "13401", "REGION": "Metropolitana de Santiago", "PROVINCIA": "Maipo", "COMUNA": "San Bernardo", "variable": "Centros de Educaci\u00f3n B\u00e1sica y Media", "Nombres": "ESCUELA MAHUIDA", "POINT_X": -70.71021102, "POINT_Y": -33.59828611}}, {"type": "Feature", "geometry": {"type": "Point", "coordinates": [-70.67846370000001, -33.59813582999996]}, "properties": {"CUT_REG": "13", "CUT_PROV": "134", "CUT_COM": "13401", "REGION": "Metropolitana de Santiago", "PROVINCIA": "Maipo", "COMUNA": "San Bernardo", "variable": "Centros de Educaci\u00f3n B\u00e1sica y Media", "Nombres": "ESCUELA PART.COMANDANTE CARLOS CONDELL", "POINT_X": -70.6784637, "POINT_Y": -33.59813583}}, {"type": "Feature", "geometry": {"type": "Point", "coordinates": [-70.70024943000001, -33.59807240999996]}, "properties": {"CUT_REG": "13", "CUT_PROV": "134", "CUT_COM": "13401", "REGION": "Metropolitana de Santiago", "PROVINCIA": "Maipo", "COMUNA": "San Bernardo", "variable": "Centros de Educaci\u00f3n B\u00e1sica y Media", "Nombres": "INSTITUTO SAN PABLO MISIONERO", "POINT_X": -70.70024943, "POINT_Y": -33.59807241}}, {"type": "Feature", "geometry": {"type": "Point", "coordinates": [-70.71047999999996, -33.597633000000016]}, "properties": {"CUT_REG": "13", "CUT_PROV": "134", "CUT_COM": "13401", "REGION": "Metropolitana de Santiago", "PROVINCIA": "Maipo", "COMUNA": "San Bernardo", "variable": "Centros de Educaci\u00f3n B\u00e1sica y Media", "Nombres": "ESCUELA BASICA FEN MAPU", "POINT_X": -70.71048, "POINT_Y": -33.597633}}, {"type": "Feature", "geometry": {"type": "Point", "coordinates": [-70.66744522999997, -33.597524929999956]}, "properties": {"CUT_REG": "13", "CUT_PROV": "134", "CUT_COM": "13401", "REGION": "Metropolitana de Santiago", "PROVINCIA": "Maipo", "COMUNA": "San Bernardo", "variable": "Centros de Educaci\u00f3n B\u00e1sica y Media", "Nombres": "ESCUELA BASICA ELIODORO MATTE OSSA", "POINT_X": -70.66744523, "POINT_Y": -33.59752493}}, {"type": "Feature", "geometry": {"type": "Point", "coordinates": [-70.69855499999997, -33.59747300000001]}, "properties": {"CUT_REG": "13", "CUT_PROV": "134", "CUT_COM": "13401", "REGION": "Metropolitana de Santiago", "PROVINCIA": "Maipo", "COMUNA": "San Bernardo", "variable": "Centros de Educaci\u00f3n B\u00e1sica y Media", "Nombres": "ESCUELA ESP. KINCUIN", "POINT_X": -70.698555, "POINT_Y": -33.597473}}, {"type": "Feature", "geometry": {"type": "Point", "coordinates": [-70.71413844999998, -33.59744904999998]}, "properties": {"CUT_REG": "13", "CUT_PROV": "134", "CUT_COM": "13401", "REGION": "Metropolitana de Santiago", "PROVINCIA": "Maipo", "COMUNA": "San Bernardo", "variable": "Centros de Educaci\u00f3n B\u00e1sica y Media", "Nombres": "COLEGIO PART. INSTITUTO CORINTIO", "POINT_X": -70.71413845, "POINT_Y": -33.59744905}}, {"type": "Feature", "geometry": {"type": "Point", "coordinates": [-70.69283999999998, -33.59739700000003]}, "properties": {"CUT_REG": "13", "CUT_PROV": "134", "CUT_COM": "13401", "REGION": "Metropolitana de Santiago", "PROVINCIA": "Maipo", "COMUNA": "San Bernardo", "variable": "Centros de Educaci\u00f3n B\u00e1sica y Media", "Nombres": "ESCUELA ESPECIAL PART. N_ 110  TRINIDAD FERR", "POINT_X": -70.69284, "POINT_Y": -33.597397}}, {"type": "Feature", "geometry": {"type": "Point", "coordinates": [-70.70404000000002, -33.596900000000026]}, "properties": {"CUT_REG": "13", "CUT_PROV": "134", "CUT_COM": "13401", "REGION": "Metropolitana de Santiago", "PROVINCIA": "Maipo", "COMUNA": "San Bernardo", "variable": "Centros de Educaci\u00f3n B\u00e1sica y Media", "Nombres": "ESCUELA DE LENGUAGE ELISA GOMEZ", "POINT_X": -70.70404, "POINT_Y": -33.5969}}, {"type": "Feature", "geometry": {"type": "Point", "coordinates": [-70.68893281999999, -33.59667830999998]}, "properties": {"CUT_REG": "13", "CUT_PROV": "134", "CUT_COM": "13401", "REGION": "Metropolitana de Santiago", "PROVINCIA": "Maipo", "COMUNA": "San Bernardo", "variable": "Centros de Educaci\u00f3n B\u00e1sica y Media", "Nombres": "ESCUELA BASICA PARTICULAR CAMINITO", "POINT_X": -70.68893282, "POINT_Y": -33.59667831}}, {"type": "Feature", "geometry": {"type": "Point", "coordinates": [-70.70406522999998, -33.59664561000003]}, "properties": {"CUT_REG": "13", "CUT_PROV": "134", "CUT_COM": "13401", "REGION": "Metropolitana de Santiago", "PROVINCIA": "Maipo", "COMUNA": "San Bernardo", "variable": "Centros de Educaci\u00f3n B\u00e1sica y Media", "Nombres": "COLEGIO MONTESSORI", "POINT_X": -70.70406523, "POINT_Y": -33.59664561}}, {"type": "Feature", "geometry": {"type": "Point", "coordinates": [-70.70192000000003, -33.596607000000034]}, "properties": {"CUT_REG": "13", "CUT_PROV": "134", "CUT_COM": "13401", "REGION": "Metropolitana de Santiago", "PROVINCIA": "Maipo", "COMUNA": "San Bernardo", "variable": "Centros de Educaci\u00f3n B\u00e1sica y Media", "Nombres": "LICEO DE ADULTOS PUCARA DE CHENA", "POINT_X": -70.70192, "POINT_Y": -33.596607}}, {"type": "Feature", "geometry": {"type": "Point", "coordinates": [-70.70219399999996, -33.59636699999998]}, "properties": {"CUT_REG": "13", "CUT_PROV": "134", "CUT_COM": "13401", "REGION": "Metropolitana de Santiago", "PROVINCIA": "Maipo", "COMUNA": "San Bernardo", "variable": "Centros de Educaci\u00f3n B\u00e1sica y Media", "Nombres": "ESCUELA ESP. ANTIYAL", "POINT_X": -70.702194, "POINT_Y": -33.596367}}, {"type": "Feature", "geometry": {"type": "Point", "coordinates": [-70.68671550000002, -33.596173450000045]}, "properties": {"CUT_REG": "13", "CUT_PROV": "134", "CUT_COM": "13401", "REGION": "Metropolitana de Santiago", "PROVINCIA": "Maipo", "COMUNA": "San Bernardo", "variable": "Centros de Educaci\u00f3n B\u00e1sica y Media", "Nombres": "LICEO INDUSTRIAL HARDWARE", "POINT_X": -70.6867155, "POINT_Y": -33.59617345}}, {"type": "Feature", "geometry": {"type": "Point", "coordinates": [-70.68003659999994, -33.596075680000034]}, "properties": {"CUT_REG": "13", "CUT_PROV": "134", "CUT_COM": "13401", "REGION": "Metropolitana de Santiago", "PROVINCIA": "Maipo", "COMUNA": "San Bernardo", "variable": "Centros de Educaci\u00f3n B\u00e1sica y Media", "Nombres": "COLEGIO POLIV. SAN BERNARDO ABAD", "POINT_X": -70.6800366, "POINT_Y": -33.59607568}}, {"type": "Feature", "geometry": {"type": "Point", "coordinates": [-70.67585804999999, -33.59556606999997]}, "properties": {"CUT_REG": "13", "CUT_PROV": "134", "CUT_COM": "13401", "REGION": "Metropolitana de Santiago", "PROVINCIA": "Maipo", "COMUNA": "San Bernardo", "variable": "Centros de Educaci\u00f3n B\u00e1sica y Media", "Nombres": "COLEGIO JAIME GUZM\u00c1N ERRAZURIZ", "POINT_X": -70.67585805, "POINT_Y": -33.59556607}}, {"type": "Feature", "geometry": {"type": "Point", "coordinates": [-70.70018238999998, -33.59546363000002]}, "properties": {"CUT_REG": "13", "CUT_PROV": "134", "CUT_COM": "13401", "REGION": "Metropolitana de Santiago", "PROVINCIA": "Maipo", "COMUNA": "San Bernardo", "variable": "Centros de Educaci\u00f3n B\u00e1sica y Media", "Nombres": "COLEGIO SUPERIOR DEL MAIPO", "POINT_X": -70.70018239, "POINT_Y": -33.59546363}}, {"type": "Feature", "geometry": {"type": "Point", "coordinates": [-70.68632585000003, -33.59525441000003]}, "properties": {"CUT_REG": "13", "CUT_PROV": "134", "CUT_COM": "13401", "REGION": "Metropolitana de Santiago", "PROVINCIA": "Maipo", "COMUNA": "San Bernardo", "variable": "Centros de Educaci\u00f3n B\u00e1sica y Media", "Nombres": "HERNAN MERINO CORREA", "POINT_X": -70.68632585, "POINT_Y": -33.59525441}}, {"type": "Feature", "geometry": {"type": "Point", "coordinates": [-70.68016000000003, -33.594569999999976]}, "properties": {"CUT_REG": "13", "CUT_PROV": "134", "CUT_COM": "13401", "REGION": "Metropolitana de Santiago", "PROVINCIA": "Maipo", "COMUNA": "San Bernardo", "variable": "Centros de Educaci\u00f3n B\u00e1sica y Media", "Nombres": "ESCUELA ESPECIAL LAUTRARU PADRE HURTADO", "POINT_X": -70.68016, "POINT_Y": -33.59457}}, {"type": "Feature", "geometry": {"type": "Point", "coordinates": [-70.70694806000003, -33.59428637999996]}, "properties": {"CUT_REG": "13", "CUT_PROV": "134", "CUT_COM": "13401", "REGION": "Metropolitana de Santiago", "PROVINCIA": "Maipo", "COMUNA": "San Bernardo", "variable": "Centros de Educaci\u00f3n B\u00e1sica y Media", "Nombres": "ESCUELA PILAR MOLINER DE NUEZ", "POINT_X": -70.70694806, "POINT_Y": -33.59428638}}, {"type": "Feature", "geometry": {"type": "Point", "coordinates": [-70.70304400000003, -33.59406300000004]}, "properties": {"CUT_REG": "13", "CUT_PROV": "134", "CUT_COM": "13401", "REGION": "Metropolitana de Santiago", "PROVINCIA": "Maipo", "COMUNA": "San Bernardo", "variable": "Centros de Educaci\u00f3n B\u00e1sica y Media", "Nombres": "CENTRO VITAMINA PLAZA SAN BERNARDO", "POINT_X": -70.703044, "POINT_Y": -33.594063}}, {"type": "Feature", "geometry": {"type": "Point", "coordinates": [-70.70426499999999, -33.59399894999998]}, "properties": {"CUT_REG": "13", "CUT_PROV": "134", "CUT_COM": "13401", "REGION": "Metropolitana de Santiago", "PROVINCIA": "Maipo", "COMUNA": "San Bernardo", "variable": "Centros de Educaci\u00f3n B\u00e1sica y Media", "Nombres": "LICEO COMERCIAL DE SAN BERNARDO", "POINT_X": -70.704265, "POINT_Y": -33.59399895}}, {"type": "Feature", "geometry": {"type": "Point", "coordinates": [-70.69472799999996, -33.593630000000005]}, "properties": {"CUT_REG": "13", "CUT_PROV": "134", "CUT_COM": "13401", "REGION": "Metropolitana de Santiago", "PROVINCIA": "Maipo", "COMUNA": "San Bernardo", "variable": "Centros de Educaci\u00f3n B\u00e1sica y Media", "Nombres": "JARDIN INFANTIL Y SALA CUNA SUNNYSIDE", "POINT_X": -70.694728, "POINT_Y": -33.59363}}, {"type": "Feature", "geometry": {"type": "Point", "coordinates": [-70.69947, -33.59351999999996]}, "properties": {"CUT_REG": "13", "CUT_PROV": "134", "CUT_COM": "13401", "REGION": "Metropolitana de Santiago", "PROVINCIA": "Maipo", "COMUNA": "San Bernardo", "variable": "Centros de Educaci\u00f3n B\u00e1sica y Media", "Nombres": "ESC. DE PARVULOS PART 103 EL PRINCIPITO DE LO", "POINT_X": -70.69947, "POINT_Y": -33.59352}}, {"type": "Feature", "geometry": {"type": "Point", "coordinates": [-70.69393000000001, -33.59333400000003]}, "properties": {"CUT_REG": "13", "CUT_PROV": "134", "CUT_COM": "13401", "REGION": "Metropolitana de Santiago", "PROVINCIA": "Maipo", "COMUNA": "San Bernardo", "variable": "Centros de Educaci\u00f3n B\u00e1sica y Media", "Nombres": "ESCUELA DE PARVULOS REMOLINO", "POINT_X": -70.69393, "POINT_Y": -33.593334}}, {"type": "Feature", "geometry": {"type": "Point", "coordinates": [-70.69395099999997, -33.593111610000015]}, "properties": {"CUT_REG": "13", "CUT_PROV": "134", "CUT_COM": "13401", "REGION": "Metropolitana de Santiago", "PROVINCIA": "Maipo", "COMUNA": "San Bernardo", "variable": "Centros de Educaci\u00f3n B\u00e1sica y Media", "Nombres": "ESCUELA  BASICA N\u00b0201, REDWOOD COLLEGE", "POINT_X": -70.693951, "POINT_Y": -33.59311161}}, {"type": "Feature", "geometry": {"type": "Point", "coordinates": [-70.69451768999997, -33.59246926999998]}, "properties": {"CUT_REG": "13", "CUT_PROV": "134", "CUT_COM": "13401", "REGION": "Metropolitana de Santiago", "PROVINCIA": "Maipo", "COMUNA": "San Bernardo", "variable": "Centros de Educaci\u00f3n B\u00e1sica y Media", "Nombres": "ESCUELA ISABEL RIQUELME", "POINT_X": -70.69451769, "POINT_Y": -33.59246927}}, {"type": "Feature", "geometry": {"type": "Point", "coordinates": [-70.69495126999996, -33.59237225000003]}, "properties": {"CUT_REG": "13", "CUT_PROV": "134", "CUT_COM": "13401", "REGION": "Metropolitana de Santiago", "PROVINCIA": "Maipo", "COMUNA": "San Bernardo", "variable": "Centros de Educaci\u00f3n B\u00e1sica y Media", "Nombres": "ESCUELA L.GRAL. BERNARDO O\u00b4HIGGINS", "POINT_X": -70.69495127, "POINT_Y": -33.59237225}}, {"type": "Feature", "geometry": {"type": "Point", "coordinates": [-70.68736300000003, -33.591584000000005]}, "properties": {"CUT_REG": "13", "CUT_PROV": "134", "CUT_COM": "13401", "REGION": "Metropolitana de Santiago", "PROVINCIA": "Maipo", "COMUNA": "San Bernardo", "variable": "Centros de Educaci\u00f3n B\u00e1sica y Media", "Nombres": "ESCUELA  ESPECIAL  N\u00b0199 EL  AROMO", "POINT_X": -70.687363, "POINT_Y": -33.591584}}, {"type": "Feature", "geometry": {"type": "Point", "coordinates": [-70.70714599999998, -33.59097399999998]}, "properties": {"CUT_REG": "13", "CUT_PROV": "134", "CUT_COM": "13401", "REGION": "Metropolitana de Santiago", "PROVINCIA": "Maipo", "COMUNA": "San Bernardo", "variable": "Centros de Educaci\u00f3n B\u00e1sica y Media", "Nombres": "ESCUELA ESPECIAL N\u00b0204 ANGEL MIGUEL", "POINT_X": -70.707146, "POINT_Y": -33.590974}}, {"type": "Feature", "geometry": {"type": "Point", "coordinates": [-70.70037100000003, -33.590969000000015]}, "properties": {"CUT_REG": "13", "CUT_PROV": "134", "CUT_COM": "13401", "REGION": "Metropolitana de Santiago", "PROVINCIA": "Maipo", "COMUNA": "San Bernardo", "variable": "Centros de Educaci\u00f3n B\u00e1sica y Media", "Nombres": "ESCUELA DE PARVULOS EL CASTILLO DE LOS BAJITO", "POINT_X": -70.700371, "POINT_Y": -33.590969}}, {"type": "Feature", "geometry": {"type": "Point", "coordinates": [-70.68170620999999, -33.5906608]}, "properties": {"CUT_REG": "13", "CUT_PROV": "134", "CUT_COM": "13401", "REGION": "Metropolitana de Santiago", "PROVINCIA": "Maipo", "COMUNA": "San Bernardo", "variable": "Centros de Educaci\u00f3n B\u00e1sica y Media", "Nombres": "LICEO NUEVO PORVENIR", "POINT_X": -70.68170621, "POINT_Y": -33.5906608}}, {"type": "Feature", "geometry": {"type": "Point", "coordinates": [-70.68670951999997, -33.59061783]}, "properties": {"CUT_REG": "13", "CUT_PROV": "134", "CUT_COM": "13401", "REGION": "Metropolitana de Santiago", "PROVINCIA": "Maipo", "COMUNA": "San Bernardo", "variable": "Centros de Educaci\u00f3n B\u00e1sica y Media", "Nombres": "ESCUELA PARTICULAR TERESIANA DE SAN JOSE", "POINT_X": -70.68670952, "POINT_Y": -33.59061783}}, {"type": "Feature", "geometry": {"type": "Point", "coordinates": [-70.69466999999995, -33.59040000000001]}, "properties": {"CUT_REG": "13", "CUT_PROV": "134", "CUT_COM": "13401", "REGION": "Metropolitana de Santiago", "PROVINCIA": "Maipo", "COMUNA": "San Bernardo", "variable": "Centros de Educaci\u00f3n B\u00e1sica y Media", "Nombres": "ESCUELA ESPECIAL MISTRAL", "POINT_X": -70.69467, "POINT_Y": -33.5904}}, {"type": "Feature", "geometry": {"type": "Point", "coordinates": [-70.68735000000004, -33.59036600000004]}, "properties": {"CUT_REG": "13", "CUT_PROV": "134", "CUT_COM": "13401", "REGION": "Metropolitana de Santiago", "PROVINCIA": "Maipo", "COMUNA": "San Bernardo", "variable": "Centros de Educaci\u00f3n B\u00e1sica y Media", "Nombres": "TIEMPO DE CRECER", "POINT_X": -70.68735, "POINT_Y": -33.590366}}, {"type": "Feature", "geometry": {"type": "Point", "coordinates": [-70.70582816000001, -33.590363940000046]}, "properties": {"CUT_REG": "13", "CUT_PROV": "134", "CUT_COM": "13401", "REGION": "Metropolitana de Santiago", "PROVINCIA": "Maipo", "COMUNA": "San Bernardo", "variable": "Centros de Educaci\u00f3n B\u00e1sica y Media", "Nombres": "COLEGIO DE LA INMACULADA CONCEPCI\u00d3N", "POINT_X": -70.70582816, "POINT_Y": -33.59036394}}, {"type": "Feature", "geometry": {"type": "Point", "coordinates": [-70.7061822, -33.589631830000044]}, "properties": {"CUT_REG": "13", "CUT_PROV": "134", "CUT_COM": "13401", "REGION": "Metropolitana de Santiago", "PROVINCIA": "Maipo", "COMUNA": "San Bernardo", "variable": "Centros de Educaci\u00f3n B\u00e1sica y Media", "Nombres": "COLEGIO SAINT ARIELI", "POINT_X": -70.7061822, "POINT_Y": -33.58963183}}, {"type": "Feature", "geometry": {"type": "Point", "coordinates": [-70.70352673000002, -33.58902017999997]}, "properties": {"CUT_REG": "13", "CUT_PROV": "134", "CUT_COM": "13401", "REGION": "Metropolitana de Santiago", "PROVINCIA": "Maipo", "COMUNA": "San Bernardo", "variable": "Centros de Educaci\u00f3n B\u00e1sica y Media", "Nombres": "ESCUELA MANUEL MAGALLANES MOURE", "POINT_X": -70.70352673, "POINT_Y": -33.58902018}}, {"type": "Feature", "geometry": {"type": "Point", "coordinates": [-70.67813984000003, -33.58863573999996]}, "properties": {"CUT_REG": "13", "CUT_PROV": "134", "CUT_COM": "13401", "REGION": "Metropolitana de Santiago", "PROVINCIA": "Maipo", "COMUNA": "San Bernardo", "variable": "Centros de Educaci\u00f3n B\u00e1sica y Media", "Nombres": "ESCUELA STA. TERESA DE LOS MORROS", "POINT_X": -70.67813984, "POINT_Y": -33.58863574}}, {"type": "Feature", "geometry": {"type": "Point", "coordinates": [-70.67703418000004, -33.588415959999985]}, "properties": {"CUT_REG": "13", "CUT_PROV": "134", "CUT_COM": "13401", "REGION": "Metropolitana de Santiago", "PROVINCIA": "Maipo", "COMUNA": "San Bernardo", "variable": "Centros de Educaci\u00f3n B\u00e1sica y Media", "Nombres": "ESC. BAS. Y ESP. PART. KIMKELEN", "POINT_X": -70.67703418, "POINT_Y": -33.58841596}}, {"type": "Feature", "geometry": {"type": "Point", "coordinates": [-70.67393566999999, -33.588313650000046]}, "properties": {"CUT_REG": "13", "CUT_PROV": "134", "CUT_COM": "13401", "REGION": "Metropolitana de Santiago", "PROVINCIA": "Maipo", "COMUNA": "San Bernardo", "variable": "Centros de Educaci\u00f3n B\u00e1sica y Media", "Nombres": "COLEGIO PARTICULAR IGNACIO SERRANO", "POINT_X": -70.67393567, "POINT_Y": -33.58831365}}, {"type": "Feature", "geometry": {"type": "Point", "coordinates": [-70.70476000000001, -33.588271999999975]}, "properties": {"CUT_REG": "13", "CUT_PROV": "134", "CUT_COM": "13401", "REGION": "Metropolitana de Santiago", "PROVINCIA": "Maipo", "COMUNA": "San Bernardo", "variable": "Centros de Educaci\u00f3n B\u00e1sica y Media", "Nombres": "ESCUELA ESP. PART. SAGRADA FAMILIA DE SAN BER", "POINT_X": -70.70476, "POINT_Y": -33.588272}}, {"type": "Feature", "geometry": {"type": "Point", "coordinates": [-70.67363000000002, -33.58786800000003]}, "properties": {"CUT_REG": "13", "CUT_PROV": "134", "CUT_COM": "13401", "REGION": "Metropolitana de Santiago", "PROVINCIA": "Maipo", "COMUNA": "San Bernardo", "variable": "Centros de Educaci\u00f3n B\u00e1sica y Media", "Nombres": "ESCUELA ESPECIAL DANICALIN", "POINT_X": -70.67363, "POINT_Y": -33.587868}}, {"type": "Feature", "geometry": {"type": "Point", "coordinates": [-70.70023881000003, -33.58766571999999]}, "properties": {"CUT_REG": "13", "CUT_PROV": "134", "CUT_COM": "13401", "REGION": "Metropolitana de Santiago", "PROVINCIA": "Maipo", "COMUNA": "San Bernardo", "variable": "Centros de Educaci\u00f3n B\u00e1sica y Media", "Nombres": "LICEO IND. MIGUEL AYLWIN GAJARDO", "POINT_X": -70.70023881, "POINT_Y": -33.58766572}}, {"type": "Feature", "geometry": {"type": "Point", "coordinates": [-70.69874099999998, -33.586972999999965]}, "properties": {"CUT_REG": "13", "CUT_PROV": "134", "CUT_COM": "13401", "REGION": "Metropolitana de Santiago", "PROVINCIA": "Maipo", "COMUNA": "San Bernardo", "variable": "Centros de Educaci\u00f3n B\u00e1sica y Media", "Nombres": "ESCUELA   ESPECIAL  N\u00b0  211 `KIMKUMTUN`", "POINT_X": -70.698741, "POINT_Y": -33.586973}}, {"type": "Feature", "geometry": {"type": "Point", "coordinates": [-70.69973083, -33.58678788000001]}, "properties": {"CUT_REG": "13", "CUT_PROV": "134", "CUT_COM": "13401", "REGION": "Metropolitana de Santiago", "PROVINCIA": "Maipo", "COMUNA": "San Bernardo", "variable": "Centros de Educaci\u00f3n B\u00e1sica y Media", "Nombres": "LICEO POLIVALENTE SANTIAGO DE COMPOSTELA", "POINT_X": -70.69973083, "POINT_Y": -33.58678788}}, {"type": "Feature", "geometry": {"type": "Point", "coordinates": [-70.69605000000001, -33.585872999999985]}, "properties": {"CUT_REG": "13", "CUT_PROV": "134", "CUT_COM": "13401", "REGION": "Metropolitana de Santiago", "PROVINCIA": "Maipo", "COMUNA": "San Bernardo", "variable": "Centros de Educaci\u00f3n B\u00e1sica y Media", "Nombres": "ESCUELA ESPECIAL N\u00b0 190 - SAN BERNARDO", "POINT_X": -70.69605, "POINT_Y": -33.585873}}, {"type": "Feature", "geometry": {"type": "Point", "coordinates": [-70.77061999999995, -33.58576999999999]}, "properties": {"CUT_REG": "13", "CUT_PROV": "134", "CUT_COM": "13403", "REGION": "Metropolitana de Santiago", "PROVINCIA": "Maipo", "COMUNA": "Calera de Tango", "variable": "Centros de Educaci\u00f3n B\u00e1sica y Media", "Nombres": "ESCUELA ESPECIAL PARTICULAR KIMANTU", "POINT_X": -70.77062, "POINT_Y": -33.58577}}, {"type": "Feature", "geometry": {"type": "Point", "coordinates": [-70.70629142999996, -33.58522357999999]}, "properties": {"CUT_REG": "13", "CUT_PROV": "134", "CUT_COM": "13401", "REGION": "Metropolitana de Santiago", "PROVINCIA": "Maipo", "COMUNA": "San Bernardo", "variable": "Centros de Educaci\u00f3n B\u00e1sica y Media", "Nombres": "ESCUELA PARTICULAR BELGICA", "POINT_X": -70.70629143, "POINT_Y": -33.58522358}}, {"type": "Feature", "geometry": {"type": "Point", "coordinates": [-70.69615438000002, -33.58496363999998]}, "properties": {"CUT_REG": "13", "CUT_PROV": "134", "CUT_COM": "13401", "REGION": "Metropolitana de Santiago", "PROVINCIA": "Maipo", "COMUNA": "San Bernardo", "variable": "Centros de Educaci\u00f3n B\u00e1sica y Media", "Nombres": "COLEGIO DOMINGO EYZAGUIRRE", "POINT_X": -70.69615438, "POINT_Y": -33.58496364}}, {"type": "Feature", "geometry": {"type": "Point", "coordinates": [-70.70195999999997, -33.584774]}, "properties": {"CUT_REG": "13", "CUT_PROV": "134", "CUT_COM": "13401", "REGION": "Metropolitana de Santiago", "PROVINCIA": "Maipo", "COMUNA": "San Bernardo", "variable": "Centros de Educaci\u00f3n B\u00e1sica y Media", "Nombres": "ESCUELA PART. DE LENGUAJE APORE", "POINT_X": -70.70196, "POINT_Y": -33.584774}}, {"type": "Feature", "geometry": {"type": "Point", "coordinates": [-70.66789661000001, -33.58448463999996]}, "properties": {"CUT_REG": "13", "CUT_PROV": "134", "CUT_COM": "13401", "REGION": "Metropolitana de Santiago", "PROVINCIA": "Maipo", "COMUNA": "San Bernardo", "variable": "Centros de Educaci\u00f3n B\u00e1sica y Media", "Nombres": "LICEO VALLE DE LLUTA", "POINT_X": -70.66789661, "POINT_Y": -33.58448464}}, {"type": "Feature", "geometry": {"type": "Point", "coordinates": [-70.70943792, -33.58416714999998]}, "properties": {"CUT_REG": "13", "CUT_PROV": "134", "CUT_COM": "13401", "REGION": "Metropolitana de Santiago", "PROVINCIA": "Maipo", "COMUNA": "San Bernardo", "variable": "Centros de Educaci\u00f3n B\u00e1sica y Media", "Nombres": "LICEO POLIV. LUCILA GODOY ALCAYAGA", "POINT_X": -70.70943792, "POINT_Y": -33.58416715}}, {"type": "Feature", "geometry": {"type": "Point", "coordinates": [-70.68637882999997, -33.58403712999996]}, "properties": {"CUT_REG": "13", "CUT_PROV": "134", "CUT_COM": "13401", "REGION": "Metropolitana de Santiago", "PROVINCIA": "Maipo", "COMUNA": "San Bernardo", "variable": "Centros de Educaci\u00f3n B\u00e1sica y Media", "Nombres": "ESCUELA JAVIERA CARRERA VERDUGO", "POINT_X": -70.68637883, "POINT_Y": -33.58403713}}, {"type": "Feature", "geometry": {"type": "Point", "coordinates": [-70.69237978, -33.58365644]}, "properties": {"CUT_REG": "13", "CUT_PROV": "134", "CUT_COM": "13401", "REGION": "Metropolitana de Santiago", "PROVINCIA": "Maipo", "COMUNA": "San Bernardo", "variable": "Centros de Educaci\u00f3n B\u00e1sica y Media", "Nombres": "ESCUELA GENERAL RENE SCHNEIDER CHEREAU", "POINT_X": -70.69237978, "POINT_Y": -33.58365644}}, {"type": "Feature", "geometry": {"type": "Point", "coordinates": [-70.68152244999996, -33.58352310999998]}, "properties": {"CUT_REG": "13", "CUT_PROV": "134", "CUT_COM": "13401", "REGION": "Metropolitana de Santiago", "PROVINCIA": "Maipo", "COMUNA": "San Bernardo", "variable": "Centros de Educaci\u00f3n B\u00e1sica y Media", "Nombres": "ESCUELA JOS\u00c9 ABELARDO N\u00da\u00d1EZ N\u00b02", "POINT_X": -70.68152245, "POINT_Y": -33.58352311}}, {"type": "Feature", "geometry": {"type": "Point", "coordinates": [-70.68826000000001, -33.58133700000002]}, "properties": {"CUT_REG": "13", "CUT_PROV": "134", "CUT_COM": "13401", "REGION": "Metropolitana de Santiago", "PROVINCIA": "Maipo", "COMUNA": "San Bernardo", "variable": "Centros de Educaci\u00f3n B\u00e1sica y Media", "Nombres": "ESCUELA DE LENGUAJE MIS TRES ANGELITOS", "POINT_X": -70.68826, "POINT_Y": -33.581337}}, {"type": "Feature", "geometry": {"type": "Point", "coordinates": [-70.70463599999997, -33.58129000000004]}, "properties": {"CUT_REG": "13", "CUT_PROV": "134", "CUT_COM": "13401", "REGION": "Metropolitana de Santiago", "PROVINCIA": "Maipo", "COMUNA": "San Bernardo", "variable": "Centros de Educaci\u00f3n B\u00e1sica y Media", "Nombres": "CENTRO ESTI. DE HAB. COMUNICATIVAS AMERICA", "POINT_X": -70.704636, "POINT_Y": -33.58129}}, {"type": "Feature", "geometry": {"type": "Point", "coordinates": [-70.68601000000001, -33.58067299999997]}, "properties": {"CUT_REG": "13", "CUT_PROV": "134", "CUT_COM": "13401", "REGION": "Metropolitana de Santiago", "PROVINCIA": "Maipo", "COMUNA": "San Bernardo", "variable": "Centros de Educaci\u00f3n B\u00e1sica y Media", "Nombres": "ESCUELA ESPECIAL N\u00b0192 DE COLORES", "POINT_X": -70.68601, "POINT_Y": -33.580673}}, {"type": "Feature", "geometry": {"type": "Point", "coordinates": [-70.70120398000003, -33.58064076999997]}, "properties": {"CUT_REG": "13", "CUT_PROV": "134", "CUT_COM": "13401", "REGION": "Metropolitana de Santiago", "PROVINCIA": "Maipo", "COMUNA": "San Bernardo", "variable": "Centros de Educaci\u00f3n B\u00e1sica y Media", "Nombres": "ESCUELA BASICA ANTUPILLAN", "POINT_X": -70.70120398, "POINT_Y": -33.58064077}}, {"type": "Feature", "geometry": {"type": "Point", "coordinates": [-70.68901980999999, -33.58039894000003]}, "properties": {"CUT_REG": "13", "CUT_PROV": "134", "CUT_COM": "13401", "REGION": "Metropolitana de Santiago", "PROVINCIA": "Maipo", "COMUNA": "San Bernardo", "variable": "Centros de Educaci\u00f3n B\u00e1sica y Media", "Nombres": "CENTRO EDUCACIONAL BALDOMERO LILLO", "POINT_X": -70.68901981, "POINT_Y": -33.58039894}}, {"type": "Feature", "geometry": {"type": "Point", "coordinates": [-70.71256000000002, -33.57943299999996]}, "properties": {"CUT_REG": "13", "CUT_PROV": "134", "CUT_COM": "13401", "REGION": "Metropolitana de Santiago", "PROVINCIA": "Maipo", "COMUNA": "San Bernardo", "variable": "Centros de Educaci\u00f3n B\u00e1sica y Media", "Nombres": "ESCUELA DE PARV. CAPULLITOS DE SAN BERNARDO", "POINT_X": -70.71256, "POINT_Y": -33.579433}}, {"type": "Feature", "geometry": {"type": "Point", "coordinates": [-70.70835999999997, -33.577489999999955]}, "properties": {"CUT_REG": "13", "CUT_PROV": "134", "CUT_COM": "13401", "REGION": "Metropolitana de Santiago", "PROVINCIA": "Maipo", "COMUNA": "San Bernardo", "variable": "Centros de Educaci\u00f3n B\u00e1sica y Media", "Nombres": "ESCUELA ESPECIAL N\u00b0189 `SAN VICENTE`", "POINT_X": -70.70836, "POINT_Y": -33.57749}}, {"type": "Feature", "geometry": {"type": "Point", "coordinates": [-70.70382197000002, -33.576657109999964]}, "properties": {"CUT_REG": "13", "CUT_PROV": "134", "CUT_COM": "13401", "REGION": "Metropolitana de Santiago", "PROVINCIA": "Maipo", "COMUNA": "San Bernardo", "variable": "Centros de Educaci\u00f3n B\u00e1sica y Media", "Nombres": "ESCUELA REPUBLICA DE LOS EE.UU. DE AMERICA", "POINT_X": -70.70382197, "POINT_Y": -33.57665711}}, {"type": "Feature", "geometry": {"type": "Point", "coordinates": [-70.71131334, -33.57068458999998]}, "properties": {"CUT_REG": "13", "CUT_PROV": "134", "CUT_COM": "13401", "REGION": "Metropolitana de Santiago", "PROVINCIA": "Maipo", "COMUNA": "San Bernardo", "variable": "Centros de Educaci\u00f3n B\u00e1sica y Media", "Nombres": "COLEGIO QUILLAHUE SAN BERNARDO", "POINT_X": -70.71131334, "POINT_Y": -33.57068459}}, {"type": "Feature", "geometry": {"type": "Point", "coordinates": [-70.70758000000001, -33.57033999999997]}, "properties": {"CUT_REG": "13", "CUT_PROV": "134", "CUT_COM": "13401", "REGION": "Metropolitana de Santiago", "PROVINCIA": "Maipo", "COMUNA": "San Bernardo", "variable": "Centros de Educaci\u00f3n B\u00e1sica y Media", "Nombres": "COLEGIO LOS PINOS", "POINT_X": -70.70758, "POINT_Y": -33.57034}}, {"type": "Feature", "geometry": {"type": "Point", "coordinates": [-70.70074143999994, -33.56998735000002]}, "properties": {"CUT_REG": "13", "CUT_PROV": "134", "CUT_COM": "13401", "REGION": "Metropolitana de Santiago", "PROVINCIA": "Maipo", "COMUNA": "San Bernardo", "variable": "Centros de Educaci\u00f3n B\u00e1sica y Media", "Nombres": "ESC BASICA PART EMILIA GONZALEZ ESPINOZA", "POINT_X": -70.70074144, "POINT_Y": -33.56998735}}, {"type": "Feature", "geometry": {"type": "Point", "coordinates": [-70.70385000000003, -33.564150000000026]}, "properties": {"CUT_REG": "13", "CUT_PROV": "134", "CUT_COM": "13401", "REGION": "Metropolitana de Santiago", "PROVINCIA": "Maipo", "COMUNA": "San Bernardo", "variable": "Centros de Educaci\u00f3n B\u00e1sica y Media", "Nombres": "ESCUELA DE PARV. CARRUSEL DE AMIGOS", "POINT_X": -70.70385, "POINT_Y": -33.56415}}, {"type": "Feature", "geometry": {"type": "Point", "coordinates": [-70.70219, -33.563514999999974]}, "properties": {"CUT_REG": "13", "CUT_PROV": "134", "CUT_COM": "13401", "REGION": "Metropolitana de Santiago", "PROVINCIA": "Maipo", "COMUNA": "San Bernardo", "variable": "Centros de Educaci\u00f3n B\u00e1sica y Media", "Nombres": "ESC. PARV.JARDIN INFANTIL COLONIAL DE LOS HAL", "POINT_X": -70.70219, "POINT_Y": -33.563515}}, {"type": "Feature", "geometry": {"type": "Point", "coordinates": [-70.71366999999995, -33.560165]}, "properties": {"CUT_REG": "13", "CUT_PROV": "134", "CUT_COM": "13401", "REGION": "Metropolitana de Santiago", "PROVINCIA": "Maipo", "COMUNA": "San Bernardo", "variable": "Centros de Educaci\u00f3n B\u00e1sica y Media", "Nombres": "ESCUELA  ESPECIAL  N\u00b0196 AURINKO", "POINT_X": -70.71367, "POINT_Y": -33.560165}}, {"type": "Feature", "geometry": {"type": "Point", "coordinates": [-70.71257707000002, -33.56012449000002]}, "properties": {"CUT_REG": "13", "CUT_PROV": "134", "CUT_COM": "13401", "REGION": "Metropolitana de Santiago", "PROVINCIA": "Maipo", "COMUNA": "San Bernardo", "variable": "Centros de Educaci\u00f3n B\u00e1sica y Media", "Nombres": "COLEGIO POLIV. PDTE. JOSE MANUEL BALMACEDA", "POINT_X": -70.71257707, "POINT_Y": -33.56012449}}, {"type": "Feature", "geometry": {"type": "Point", "coordinates": [-70.73014805, -33.553550999999956]}, "properties": {"CUT_REG": "13", "CUT_PROV": "134", "CUT_COM": "13401", "REGION": "Metropolitana de Santiago", "PROVINCIA": "Maipo", "COMUNA": "San Bernardo", "variable": "Centros de Educaci\u00f3n B\u00e1sica y Media", "Nombres": "ESCUELA TERESA GARCIA HUIDOBRO", "POINT_X": -70.73014805, "POINT_Y": -33.553551}}]}