{"type":"FeatureCollection", "features": [
{"type":"Feature","geometry":{"type":"Point","coordinates":[-67.60351052317739,-54.93454797265379]},"properties":{"CUT_REG":"12","CUT_PROV":"122","CUT_COM":"12201","REGION":"Magallanes y de la Antártica Chilena","PROVINCIA":"Antártica Chilena","COMUNA":"Cabo de Hornos","COD_CUEN":"129","COD_SUBC":"1293","COD_SSUBC":"12930","NOM_SSUBC":"Islas Navarino y Gable","Nombre_del":"Puerto Williams","Tipo_de_vl":"Calle","Numeració":"220","Nombre_de":"O Higgins","POINT_X":-67.6035105232,"POINT_Y":-54.9345479727}},
{"type":"Feature","geometry":{"type":"Point","coordinates":[-70.36875064274344,-53.2951305933493]},"properties":{"CUT_REG":"12","CUT_PROV":"123","CUT_COM":"12301","REGION":"Magallanes y de la Antártica Chilena","PROVINCIA":"Tierra del Fuego","COMUNA":"Porvenir","COD_CUEN":"128","COD_SUBC":"1280","COD_SSUBC":"12809","NOM_SSUBC":"Costeras entre A. de la Puerta y Cabo Monmouth","Nombre_del":"Puerto Porvenir","Tipo_de_vl":"Calle","Numeració":"80","Nombre_de":"Bernardo Phillipi","POINT_X":-70.3687506427,"POINT_Y":-53.2951305933}},
{"type":"Feature","geometry":{"type":"Point","coordinates":[-70.91018301166396,-53.16250972183646]},"properties":{"CUT_REG":"12","CUT_PROV":"121","CUT_COM":"12101","REGION":"Magallanes y de la Antártica Chilena","PROVINCIA":"Magallanes","COMUNA":"Punta Arenas","COD_CUEN":"125","COD_SUBC":"1258","COD_SSUBC":"12586","NOM_SSUBC":"Costeras Entre Rio de los Ciervos (Incluido) y Rio Chabunco","Nombre_del":"Punta Arenas","Tipo_de_vl":"","Numeració":"824","Nombre_de":"Chiloé","POINT_X":-70.9101830117,"POINT_Y":-53.1625097218}},
{"type":"Feature","geometry":{"type":"Point","coordinates":[-72.4835189819658,-51.73077225572747]},"properties":{"CUT_REG":"12","CUT_PROV":"124","CUT_COM":"12401","REGION":"Magallanes y de la Antártica Chilena","PROVINCIA":"Última Esperanza","COMUNA":"Natales","COD_CUEN":"122","COD_SUBC":"1229","COD_SSUBC":"12292","NOM_SSUBC":"Costeras Entre Puerto Condor y Rio Natales (Incluido)","Nombre_del":"Puerto Natales","Tipo_de_vl":"Calle","Numeració":"1455","Nombre_de":"Simón Bolivar","POINT_X":-72.483518982,"POINT_Y":-51.7307722557}},
{"type":"Feature","geometry":{"type":"Point","coordinates":[-72.57933777621115,-47.255209372156735]},"properties":{"CUT_REG":"11","CUT_PROV":"113","CUT_COM":"11301","REGION":"Aysén del General Carlos Ibáñez del Campo","PROVINCIA":"Capitán Prat","COMUNA":"Cochrane","COD_CUEN":"115","COD_SUBC":"1153","COD_SSUBC":"11536","NOM_SSUBC":"Lago y Rio Cochrane","Nombre_del":"Cochrane","Tipo_de_vl":"Avenida","Numeració":"360","Nombre_de":"Bernardo O Higgins","POINT_X":-72.5793377762,"POINT_Y":-47.2552093722}},
{"type":"Feature","geometry":{"type":"Point","coordinates":[-71.72734231166487,-46.53965826791847]},"properties":{"CUT_REG":"11","CUT_PROV":"114","CUT_COM":"11401","REGION":"Aysén del General Carlos Ibáñez del Campo","PROVINCIA":"General Carrera","COMUNA":"Chile Chico","COD_CUEN":"115","COD_SUBC":"1152","COD_SSUBC":"11521","NOM_SSUBC":"Costeras entre Rio Jeinemeni y Rio San Jose","Nombre_del":"Chile Chico","Tipo_de_vl":"Avenida","Numeració":"705","Nombre_de":"Bernardo O Higgins","POINT_X":-71.7273423117,"POINT_Y":-46.5396582679}},
{"type":"Feature","geometry":{"type":"Point","coordinates":[-72.07014988822598,-45.56911935979451]},"properties":{"CUT_REG":"11","CUT_PROV":"111","CUT_COM":"11101","REGION":"Aysén del General Carlos Ibáñez del Campo","PROVINCIA":"Coihaique","COMUNA":"Coihaique","COD_CUEN":"113","COD_SUBC":"1131","COD_SSUBC":"11314","NOM_SSUBC":"Rio Pollux","Nombre_del":"Coyhaique","Tipo_de_vl":"","Numeració":"365","Nombre_de":"General Parra","POINT_X":-72.0701498882,"POINT_Y":-45.5691193598}},
{"type":"Feature","geometry":{"type":"Point","coordinates":[-72.6962590411708,-45.40677034186076]},"properties":{"CUT_REG":"11","CUT_PROV":"112","CUT_COM":"11201","REGION":"Aysén del General Carlos Ibáñez del Campo","PROVINCIA":"Aisén","COMUNA":"Aisén","COD_CUEN":"113","COD_SUBC":"1134","COD_SSUBC":"11342","NOM_SSUBC":"Rio Aisen entre Rio Riesco y desembocadura","Nombre_del":"Puerto Aysén","Tipo_de_vl":"","Numeració":"600","Nombre_de":"Teniente Merino","POINT_X":-72.6962590412,"POINT_Y":-45.4067703419}},
{"type":"Feature","geometry":{"type":"Point","coordinates":[-72.6819362351544,-44.72852137937165]},"properties":{"CUT_REG":"11","CUT_PROV":"112","CUT_COM":"11202","REGION":"Aysén del General Carlos Ibáñez del Campo","PROVINCIA":"Aisén","COMUNA":"Cisnes","COD_CUEN":"111","COD_SUBC":"1115","COD_SSUBC":"11150","NOM_SSUBC":"Costeras entre Rio Cisnes y Punta San Andres","Nombre_del":"Puerto Cisnes","Tipo_de_vl":"Avenida","Numeració":"507","Nombre_de":"Gabriela Mistral","POINT_X":-72.6819362352,"POINT_Y":-44.7285213794}},
{"type":"Feature","geometry":{"type":"Point","coordinates":[-71.80469706207234,-43.617910637882545]},"properties":{"CUT_REG":"10","CUT_PROV":"104","CUT_COM":"10404","REGION":"Los Lagos","PROVINCIA":"Palena","COMUNA":"Palena","COD_CUEN":"110","COD_SUBC":"1102","COD_SSUBC":"11020","NOM_SSUBC":"Rio Palena entre frontera y bajo Rio Salto o Tigre","Nombre_del":"Palena","Tipo_de_vl":"Calle","Numeració":"760","Nombre_de":"Hurtado De Méndoza","POINT_X":-71.8046970621,"POINT_Y":-43.6179106379}},
{"type":"Feature","geometry":{"type":"Point","coordinates":[-71.86999079109853,-43.18323133538047]},"properties":{"CUT_REG":"10","CUT_PROV":"104","CUT_COM":"10402","REGION":"Los Lagos","PROVINCIA":"Palena","COMUNA":"Futaleufú","COD_CUEN":"107","COD_SUBC":"1070","COD_SSUBC":"10702","NOM_SSUBC":"Rio Futaleufu entre frontera y Rio Azulado","Nombre_del":"Futaleufú","Tipo_de_vl":"","Numeració":"212","Nombre_de":"Gabriela Mistral","POINT_X":-71.8699907911,"POINT_Y":-43.1832313354}},
{"type":"Feature","geometry":{"type":"Point","coordinates":[-73.61664842147178,-43.11969595282093]},"properties":{"CUT_REG":"10","CUT_PROV":"102","CUT_COM":"10208","REGION":"Los Lagos","PROVINCIA":"Chiloé","COMUNA":"Quellón","COD_CUEN":"109","COD_SUBC":"1090","COD_SSUBC":"10902","NOM_SSUBC":"Costeras Vertientes este Entre Punta Ahoni y Punta Yatac","Nombre_del":"Quellón","Tipo_de_vl":"Calle","Numeració":"217","Nombre_de":"Ramón Freire","POINT_X":-73.6166484215,"POINT_Y":-43.1196959528}},
{"type":"Feature","geometry":{"type":"Point","coordinates":[-72.71043434840718,-42.91633729536808]},"properties":{"CUT_REG":"10","CUT_PROV":"104","CUT_COM":"10401","REGION":"Los Lagos","PROVINCIA":"Palena","COMUNA":"Chaitén","COD_CUEN":"106","COD_SUBC":"1068","COD_SSUBC":"10683","NOM_SSUBC":"Rio Chaiten","Nombre_del":"Chaitén","Tipo_de_vl":"Avenida","Numeració":"517","Nombre_de":"Diego Portales","POINT_X":-72.7104343484,"POINT_Y":-42.9163372954}},
{"type":"Feature","geometry":{"type":"Point","coordinates":[-73.47244380860195,-42.89029572280022]},"properties":{"CUT_REG":"10","CUT_PROV":"102","CUT_COM":"10207","REGION":"Los Lagos","PROVINCIA":"Chiloé","COMUNA":"Queilén","COD_CUEN":"109","COD_SUBC":"1090","COD_SSUBC":"10902","NOM_SSUBC":"Costeras Vertientes este Entre Punta Ahoni y Punta Yatac","Nombre_del":"Queilen","Tipo_de_vl":"Avenida","Numeració":"312","Nombre_de":"Pedro Aguirre Cerda","POINT_X":-73.4724438086,"POINT_Y":-42.8902957228}},
{"type":"Feature","geometry":{"type":"Point","coordinates":[-73.77100553384312,-42.624317991703236]},"properties":{"CUT_REG":"10","CUT_PROV":"102","CUT_COM":"10203","REGION":"Los Lagos","PROVINCIA":"Chiloé","COMUNA":"Chonchi","COD_CUEN":"109","COD_SUBC":"1090","COD_SSUBC":"10901","NOM_SSUBC":"Costeras Vertiente este Entre Estero San Juan y Punta Ahoni","Nombre_del":"Chonchi","Tipo_de_vl":"Calle","Numeració":"S/n","Nombre_de":"Lib Bernardo O Higgins","POINT_X":-73.7710055338,"POINT_Y":-42.6243179917}},
{"type":"Feature","geometry":{"type":"Point","coordinates":[-73.67723763940893,-42.59976499694305]},"properties":{"CUT_REG":"10","CUT_PROV":"102","CUT_COM":"10206","REGION":"Los Lagos","PROVINCIA":"Chiloé","COMUNA":"Puqueldón","COD_CUEN":"109","COD_SUBC":"1092","COD_SSUBC":"10921","NOM_SSUBC":"Isla Lemuy","Nombre_del":"Puqueldón","Tipo_de_vl":"Calle","Numeració":"S/n","Nombre_de":"Manuel Rodríguez","POINT_X":-73.6772376394,"POINT_Y":-42.5997649969}},
{"type":"Feature","geometry":{"type":"Point","coordinates":[-73.76543529320435,-42.481313466759616]},"properties":{"CUT_REG":"10","CUT_PROV":"102","CUT_COM":"10201","REGION":"Los Lagos","PROVINCIA":"Chiloé","COMUNA":"Castro","COD_CUEN":"109","COD_SUBC":"1090","COD_SSUBC":"10901","NOM_SSUBC":"Costeras Vertiente este Entre Estero San Juan y Punta Ahoni","Nombre_del":"Castro","Tipo_de_vl":"","Numeració":"308","Nombre_de":"O Higins","POINT_X":-73.7654352932,"POINT_Y":-42.4813134668}},
{"type":"Feature","geometry":{"type":"Point","coordinates":[-73.4955042296386,-42.47242768292812]},"properties":{"CUT_REG":"10","CUT_PROV":"102","CUT_COM":"10210","REGION":"Los Lagos","PROVINCIA":"Chiloé","COMUNA":"Quinchao","COD_CUEN":"109","COD_SUBC":"1092","COD_SSUBC":"10920","NOM_SSUBC":"Isla Quinchao","Nombre_del":"Achao","Tipo_de_vl":"Calle","Numeració":"5","Nombre_de":"Garcia Sierpes","POINT_X":-73.4955042296,"POINT_Y":-42.4724276829}},
{"type":"Feature","geometry":{"type":"Point","coordinates":[-73.60251466950388,-42.440135767322715]},"properties":{"CUT_REG":"10","CUT_PROV":"102","CUT_COM":"10204","REGION":"Los Lagos","PROVINCIA":"Chiloé","COMUNA":"Curaco de Vélez","COD_CUEN":"109","COD_SUBC":"1092","COD_SSUBC":"10920","NOM_SSUBC":"Isla Quinchao","Nombre_del":"Curaco de Vélez","Tipo_de_vl":"","Numeració":"6","Nombre_de":"Veintiuno De Mayo","POINT_X":-73.6025146695,"POINT_Y":-42.4401357673}},
{"type":"Feature","geometry":{"type":"Point","coordinates":[-73.6527571061132,-42.37884286018266]},"properties":{"CUT_REG":"10","CUT_PROV":"102","CUT_COM":"10205","REGION":"Los Lagos","PROVINCIA":"Chiloé","COMUNA":"Dalcahue","COD_CUEN":"109","COD_SUBC":"1090","COD_SSUBC":"10901","NOM_SSUBC":"Costeras Vertiente este Entre Estero San Juan y Punta Ahoni","Nombre_del":"Dalcahue","Tipo_de_vl":"Avenida","Numeració":"25","Nombre_de":"Mocopulli","POINT_X":-73.6527571061,"POINT_Y":-42.3788428602}},
{"type":"Feature","geometry":{"type":"Point","coordinates":[-72.46993794979832,-41.966931671878314]},"properties":{"CUT_REG":"10","CUT_PROV":"104","CUT_COM":"10403","REGION":"Los Lagos","PROVINCIA":"Palena","COMUNA":"Hualaihué","COD_CUEN":"106","COD_SUBC":"1061","COD_SSUBC":"10610","NOM_SSUBC":"Costeras Entre Punta Tentelhue y Rio Negro (Incluido)","Nombre_del":"Hualaihué","Tipo_de_vl":"Calle","Numeració":"s/n","Nombre_de":"Los Colonos","POINT_X":-72.4699379498,"POINT_Y":-41.9669316719}},
{"type":"Feature","geometry":{"type":"Point","coordinates":[-73.82833684544765,-41.868582508582946]},"properties":{"CUT_REG":"10","CUT_PROV":"102","CUT_COM":"10202","REGION":"Los Lagos","PROVINCIA":"Chiloé","COMUNA":"Ancud","COD_CUEN":"109","COD_SUBC":"1090","COD_SSUBC":"10903","NOM_SSUBC":"Costeras Vertientes Norte Entre Punta Quetrelquen y Rio Chepu","Nombre_del":"Ancud","Tipo_de_vl":"Calle","Numeració":"210","Nombre_de":"Eleuterio Ramírez","POINT_X":-73.8283368454,"POINT_Y":-41.8685825086}},
{"type":"Feature","geometry":{"type":"Point","coordinates":[-73.52526544431902,-41.829435811087876]},"properties":{"CUT_REG":"10","CUT_PROV":"102","CUT_COM":"10202","REGION":"Los Lagos","PROVINCIA":"Chiloé","COMUNA":"Ancud","COD_CUEN":"109","COD_SUBC":"1090","COD_SSUBC":"10900","NOM_SSUBC":"Costeras Vertiente este Entre Punta Quetrelquen y Estero San Juan (Incluido)","Nombre_del":"Chacao","Tipo_de_vl":"","Numeració":"145","Nombre_de":"Bellavista","POINT_X":-73.5252654443,"POINT_Y":-41.8294358111}},
{"type":"Feature","geometry":{"type":"Point","coordinates":[-73.1276278266107,-41.770774897679935]},"properties":{"CUT_REG":"10","CUT_PROV":"101","CUT_COM":"10102","REGION":"Los Lagos","PROVINCIA":"Llanquihue","COMUNA":"Calbuco","COD_CUEN":"104","COD_SUBC":"1042","COD_SSUBC":"10423","NOM_SSUBC":"Islas Puluqui y adyacentes","Nombre_del":"Calbuco","Tipo_de_vl":"","Numeració":"116","Nombre_de":"Ernesto Riquelme","POINT_X":-73.1276278266,"POINT_Y":-41.7707748977}},
{"type":"Feature","geometry":{"type":"Point","coordinates":[-73.59602669223733,-41.61749005913902]},"properties":{"CUT_REG":"10","CUT_PROV":"101","CUT_COM":"10108","REGION":"Los Lagos","PROVINCIA":"Llanquihue","COMUNA":"Maullín","COD_CUEN":"104","COD_SUBC":"1041","COD_SSUBC":"10417","NOM_SSUBC":"Rio Maullin entre Rio Del Cebadal y Desembocadura","Nombre_del":"Maullín","Tipo_de_vl":"","Numeració":"S/n","Nombre_de":"Almeyda","POINT_X":-73.5960266922,"POINT_Y":-41.6174900591}},
{"type":"Feature","geometry":{"type":"Point","coordinates":[-72.30767356334533,-41.4928911501121]},"properties":{"CUT_REG":"10","CUT_PROV":"101","CUT_COM":"10103","REGION":"Los Lagos","PROVINCIA":"Llanquihue","COMUNA":"Cochamó","COD_CUEN":"104","COD_SUBC":"1046","COD_SSUBC":"10460","NOM_SSUBC":"Costeras entre Rio Petrohue y Rio Cochamo","Nombre_del":"Cochamó","Tipo_de_vl":"Avenida","Numeració":"S/n","Nombre_de":"Cochamo","POINT_X":-72.3076735633,"POINT_Y":-41.4928911501}},
{"type":"Feature","geometry":{"type":"Point","coordinates":[-72.84176560349518,-41.47160525576035]},"properties":{"CUT_REG":"10","CUT_PROV":"101","CUT_COM":"10101","REGION":"Los Lagos","PROVINCIA":"Llanquihue","COMUNA":"Puerto Montt","COD_CUEN":"104","COD_SUBC":"1043","COD_SSUBC":"10432","NOM_SSUBC":"Rio Chamiza Entre Estero Pangal y Desembocadura","Nombre_del":"Carretera Austral","Tipo_de_vl":"Pasaje","Numeració":"S/n","Nombre_de":"Población Rio mar","POINT_X":-72.8417656035,"POINT_Y":-41.4716052558}},
{"type":"Feature","geometry":{"type":"Point","coordinates":[-72.93721671917825,-41.471553815795616]},"properties":{"CUT_REG":"10","CUT_PROV":"101","CUT_COM":"10101","REGION":"Los Lagos","PROVINCIA":"Llanquihue","COMUNA":"Puerto Montt","COD_CUEN":"104","COD_SUBC":"1042","COD_SSUBC":"10425","NOM_SSUBC":"Costeras entre Punta Ilque y Rio Chamiza","Nombre_del":"Puerto Montt","Tipo_de_vl":"Calle","Numeració":"S/n","Nombre_de":"Antonio Varas y San Felipe","POINT_X":-72.9372167192,"POINT_Y":-41.4715538158}},
{"type":"Feature","geometry":{"type":"Point","coordinates":[-73.46104238440867,-41.39430357610335]},"properties":{"CUT_REG":"10","CUT_PROV":"101","CUT_COM":"10106","REGION":"Los Lagos","PROVINCIA":"Llanquihue","COMUNA":"Los Muermos","COD_CUEN":"104","COD_SUBC":"1041","COD_SSUBC":"10413","NOM_SSUBC":"Rio Negro","Nombre_del":"Los Muermos","Tipo_de_vl":"Calle","Numeració":"301","Nombre_de":"José M Balmaceda","POINT_X":-73.4610423844,"POINT_Y":-41.3943035761}},
{"type":"Feature","geometry":{"type":"Point","coordinates":[-72.98487123230097,-41.31848838340529]},"properties":{"CUT_REG":"10","CUT_PROV":"101","CUT_COM":"10109","REGION":"Los Lagos","PROVINCIA":"Llanquihue","COMUNA":"Puerto Varas","COD_CUEN":"104","COD_SUBC":"1041","COD_SSUBC":"10410","NOM_SSUBC":"Lago Llanquihue y afluentes","Nombre_del":"Puerto Varas","Tipo_de_vl":"Calle","Numeració":"601","Nombre_de":"San Francisco","POINT_X":-72.9848712323,"POINT_Y":-41.3184883834}},
{"type":"Feature","geometry":{"type":"Point","coordinates":[-73.00738703753075,-41.25314834741168]},"properties":{"CUT_REG":"10","CUT_PROV":"101","CUT_COM":"10107","REGION":"Los Lagos","PROVINCIA":"Llanquihue","COMUNA":"Llanquihue","COD_CUEN":"104","COD_SUBC":"1041","COD_SSUBC":"10410","NOM_SSUBC":"Lago Llanquihue y afluentes","Nombre_del":"Llanquihue","Tipo_de_vl":"Avenida","Numeració":"1001","Nombre_de":"Baquedano","POINT_X":-73.0073870375,"POINT_Y":-41.2531483474}},
{"type":"Feature","geometry":{"type":"Point","coordinates":[-73.42105086834889,-41.15263350445271]},"properties":{"CUT_REG":"10","CUT_PROV":"101","CUT_COM":"10104","REGION":"Los Lagos","PROVINCIA":"Llanquihue","COMUNA":"Fresia","COD_CUEN":"103","COD_SUBC":"1035","COD_SSUBC":"10350","NOM_SSUBC":"Rio Toro bajo junta Rio Norte","Nombre_del":"Fresia","Tipo_de_vl":"","Numeració":"402","Nombre_de":"San Carlos","POINT_X":-73.4210508683,"POINT_Y":-41.1526335045}},
{"type":"Feature","geometry":{"type":"Point","coordinates":[-73.02627756748447,-41.139690419788934]},"properties":{"CUT_REG":"10","CUT_PROV":"101","CUT_COM":"10105","REGION":"Los Lagos","PROVINCIA":"Llanquihue","COMUNA":"Frutillar","COD_CUEN":"104","COD_SUBC":"1041","COD_SSUBC":"10410","NOM_SSUBC":"Lago Llanquihue y afluentes","Nombre_del":"Frutillar","Tipo_de_vl":"Avenida","Numeració":"1065","Nombre_de":"Philippi","POINT_X":-73.0262775675,"POINT_Y":-41.1396904198}},
{"type":"Feature","geometry":{"type":"Point","coordinates":[-72.63882854183342,-41.08107337765188]},"properties":{"CUT_REG":"10","CUT_PROV":"103","CUT_COM":"10302","REGION":"Los Lagos","PROVINCIA":"Osorno","COMUNA":"Puerto Octay","COD_CUEN":"104","COD_SUBC":"1041","COD_SSUBC":"10410","NOM_SSUBC":"Lago Llanquihue y afluentes","Nombre_del":"Las Cascadas","Tipo_de_vl":"","Numeració":"313","Nombre_de":"Casilla","POINT_X":-72.6388285418,"POINT_Y":-41.0810733777}},
{"type":"Feature","geometry":{"type":"Point","coordinates":[-72.88340035711619,-40.97435425842551]},"properties":{"CUT_REG":"10","CUT_PROV":"103","CUT_COM":"10302","REGION":"Los Lagos","PROVINCIA":"Osorno","COMUNA":"Puerto Octay","COD_CUEN":"104","COD_SUBC":"1041","COD_SSUBC":"10410","NOM_SSUBC":"Lago Llanquihue y afluentes","Nombre_del":"Puerto Octay","Tipo_de_vl":"","Numeració":"507","Nombre_de":"Pedro Montt","POINT_X":-72.8834003571,"POINT_Y":-40.9743542584}},
{"type":"Feature","geometry":{"type":"Point","coordinates":[-73.16138060846258,-40.95215231874155]},"properties":{"CUT_REG":"10","CUT_PROV":"103","CUT_COM":"10303","REGION":"Los Lagos","PROVINCIA":"Osorno","COMUNA":"Purranque","COD_CUEN":"103","COD_SUBC":"1035","COD_SSUBC":"10352","NOM_SSUBC":"Rio Lopez","Nombre_del":"Corte Alto","Tipo_de_vl":"","Numeració":"S/n","Nombre_de":"Vicuña Mackenna","POINT_X":-73.1613806085,"POINT_Y":-40.9521523187}},
{"type":"Feature","geometry":{"type":"Point","coordinates":[-73.15853151759464,-40.914335804066276]},"properties":{"CUT_REG":"10","CUT_PROV":"103","CUT_COM":"10303","REGION":"Los Lagos","PROVINCIA":"Osorno","COMUNA":"Purranque","COD_CUEN":"103","COD_SUBC":"1035","COD_SSUBC":"10355","NOM_SSUBC":"Rio Chifin","Nombre_del":"Purranque","Tipo_de_vl":"","Numeració":"325","Nombre_de":"Las Heras","POINT_X":-73.1585315176,"POINT_Y":-40.9143358041}},
{"type":"Feature","geometry":{"type":"Point","coordinates":[-73.33846491341276,-40.82177974129891]},"properties":{"CUT_REG":"10","CUT_PROV":"103","CUT_COM":"10305","REGION":"Los Lagos","PROVINCIA":"Osorno","COMUNA":"Río Negro","COD_CUEN":"103","COD_SUBC":"1035","COD_SSUBC":"10353","NOM_SSUBC":"Rio Negro Entre Rio Lopez y Bajo Estero Riachuelo","Nombre_del":"Riachuelo","Tipo_de_vl":"Calle","Numeració":"350","Nombre_de":"Pedro De Valdivia","POINT_X":-73.3384649134,"POINT_Y":-40.8217797413}},
{"type":"Feature","geometry":{"type":"Point","coordinates":[-73.21805827984045,-40.793886073438884]},"properties":{"CUT_REG":"10","CUT_PROV":"103","CUT_COM":"10305","REGION":"Los Lagos","PROVINCIA":"Osorno","COMUNA":"Río Negro","COD_CUEN":"103","COD_SUBC":"1035","COD_SSUBC":"10355","NOM_SSUBC":"Rio Chifin","Nombre_del":"Río Negro","Tipo_de_vl":"","Numeració":"S/n","Nombre_de":"Pedro Aguire Cerda","POINT_X":-73.2180582798,"POINT_Y":-40.7938860734}},
{"type":"Feature","geometry":{"type":"Point","coordinates":[-72.59613283431256,-40.683634664557694]},"properties":{"CUT_REG":"10","CUT_PROV":"103","CUT_COM":"10304","REGION":"Los Lagos","PROVINCIA":"Osorno","COMUNA":"Puyehue","COD_CUEN":"103","COD_SUBC":"1032","COD_SSUBC":"10323","NOM_SSUBC":"Lago Puyehue","Nombre_del":"Entre Lagos","Tipo_de_vl":"","Numeració":"S/n","Nombre_de":"Lord Cochrane","POINT_X":-72.5961328343,"POINT_Y":-40.6836346646}},
{"type":"Feature","geometry":{"type":"Point","coordinates":[-73.13444785586299,-40.57577558984079]},"properties":{"CUT_REG":"10","CUT_PROV":"103","CUT_COM":"10301","REGION":"Los Lagos","PROVINCIA":"Osorno","COMUNA":"Osorno","COD_CUEN":"103","COD_SUBC":"1036","COD_SSUBC":"10362","NOM_SSUBC":"Rio Damas Entre Estero Pichidamas y Rio Rahue","Nombre_del":"Osorno","Tipo_de_vl":"","Numeració":"790","Nombre_de":"Manuel Antonio Matta","POINT_X":-73.1344478559,"POINT_Y":-40.5757755898}},
{"type":"Feature","geometry":{"type":"Point","coordinates":[-73.40586349520242,-40.48800115389511]},"properties":{"CUT_REG":"10","CUT_PROV":"103","CUT_COM":"10306","REGION":"Los Lagos","PROVINCIA":"Osorno","COMUNA":"San Juan de la Costa","COD_CUEN":"103","COD_SUBC":"1036","COD_SSUBC":"10364","NOM_SSUBC":"Rio Rahue entre Estero Forrahue y bajo Rio Curaco","Nombre_del":"San Juan de la Costa","Tipo_de_vl":"","Numeració":"306","Nombre_de":"Casilla","POINT_X":-73.4058634952,"POINT_Y":-40.4880011539}},
{"type":"Feature","geometry":{"type":"Point","coordinates":[-72.78837857935804,-40.42056321831767]},"properties":{"CUT_REG":"14","CUT_PROV":"142","CUT_COM":"14204","REGION":"Los Ríos","PROVINCIA":"Ranco","COMUNA":"Río Bueno","COD_CUEN":"103","COD_SUBC":"1032","COD_SSUBC":"10327","NOM_SSUBC":"Rio Chirre entre Rio Quilihue y Rio Pilmaiquen","Nombre_del":"Crucero","Tipo_de_vl":"","Numeració":"S/n","Nombre_de":"Teniente Orella","POINT_X":-72.7883785794,"POINT_Y":-40.4205632183}},
{"type":"Feature","geometry":{"type":"Point","coordinates":[-73.01227612997312,-40.41342856005659]},"properties":{"CUT_REG":"10","CUT_PROV":"103","CUT_COM":"10307","REGION":"Los Lagos","PROVINCIA":"Osorno","COMUNA":"San Pablo","COD_CUEN":"103","COD_SUBC":"1032","COD_SSUBC":"10328","NOM_SSUBC":"Rio Pilmaiquen entre Rio Chirri y Rio Bueno","Nombre_del":"San Pablo","Tipo_de_vl":"Calle","Numeració":"516","Nombre_de":"Cruz","POINT_X":-73.01227613,"POINT_Y":-40.4134285601}},
{"type":"Feature","geometry":{"type":"Point","coordinates":[-72.95527145801175,-40.33419055124666]},"properties":{"CUT_REG":"14","CUT_PROV":"142","CUT_COM":"14204","REGION":"Los Ríos","PROVINCIA":"Ranco","COMUNA":"Río Bueno","COD_CUEN":"103","COD_SUBC":"1031","COD_SSUBC":"10311","NOM_SSUBC":"Rio Bueno Entre Rio Ralitran  y Rio Llollehue","Nombre_del":"Río Bueno","Tipo_de_vl":"Calle","Numeració":"1145","Nombre_de":"Independencia","POINT_X":-72.955271458,"POINT_Y":-40.3341905512}},
{"type":"Feature","geometry":{"type":"Point","coordinates":[-72.48132317715219,-40.3231408307335]},"properties":{"CUT_REG":"14","CUT_PROV":"142","CUT_COM":"14203","REGION":"Los Ríos","PROVINCIA":"Ranco","COMUNA":"Lago Ranco","COD_CUEN":"103","COD_SUBC":"1030","COD_SSUBC":"10307","NOM_SSUBC":"Lago Ranco","Nombre_del":"Lago Ranco","Tipo_de_vl":"","Numeració":"113","Nombre_de":"Antofagasta","POINT_X":-72.4813231772,"POINT_Y":-40.3231408307}},
{"type":"Feature","geometry":{"type":"Point","coordinates":[-73.08039583613251,-40.29445152773526]},"properties":{"CUT_REG":"14","CUT_PROV":"142","CUT_COM":"14201","REGION":"Los Ríos","PROVINCIA":"Ranco","COMUNA":"La Unión","COD_CUEN":"103","COD_SUBC":"1031","COD_SSUBC":"10313","NOM_SSUBC":"Rio Llollehue Entre Estero Cu¤o Cu¤o y Rio Bueno","Nombre_del":"La Unión","Tipo_de_vl":"","Numeració":"825","Nombre_de":"Esmeralda","POINT_X":-73.0803958361,"POINT_Y":-40.2944515277}},
{"type":"Feature","geometry":{"type":"Point","coordinates":[-72.89859824997967,-40.150218825857706]},"properties":{"CUT_REG":"14","CUT_PROV":"141","CUT_COM":"14107","REGION":"Los Ríos","PROVINCIA":"Valdivia","COMUNA":"Paillaco","COD_CUEN":"103","COD_SUBC":"1031","COD_SSUBC":"10312","NOM_SSUBC":"Rio Llollehue Hasta Estero Cu¤o Cu¤o","Nombre_del":"Pichi Ropulli","Tipo_de_vl":"","Numeració":"259","Nombre_de":"Independencia","POINT_X":-72.89859825,"POINT_Y":-40.1502188259}},
{"type":"Feature","geometry":{"type":"Point","coordinates":[-72.38985427787614,-40.13134485165817]},"properties":{"CUT_REG":"14","CUT_PROV":"142","CUT_COM":"14202","REGION":"Los Ríos","PROVINCIA":"Ranco","COMUNA":"Futrono","COD_CUEN":"103","COD_SUBC":"1030","COD_SSUBC":"10307","NOM_SSUBC":"Lago Ranco","Nombre_del":"Futrono","Tipo_de_vl":"Calle","Numeració":"5","Nombre_de":"Alessandri","POINT_X":-72.3898542779,"POINT_Y":-40.1313448517}},
{"type":"Feature","geometry":{"type":"Point","coordinates":[-72.87108760297369,-40.07450902723649]},"properties":{"CUT_REG":"14","CUT_PROV":"141","CUT_COM":"14107","REGION":"Los Ríos","PROVINCIA":"Valdivia","COMUNA":"Paillaco","COD_CUEN":"101","COD_SUBC":"1012","COD_SSUBC":"10120","NOM_SSUBC":"Estero Chapuco Hasta Estero Lipingue","Nombre_del":"Paillaco","Tipo_de_vl":"Calle","Numeració":"872","Nombre_de":"Acharán Arce","POINT_X":-72.871087603,"POINT_Y":-40.0745090272}},
{"type":"Feature","geometry":{"type":"Point","coordinates":[-72.83488623594357,-39.990113116719215]},"properties":{"CUT_REG":"14","CUT_PROV":"141","CUT_COM":"14107","REGION":"Los Ríos","PROVINCIA":"Valdivia","COMUNA":"Paillaco","COD_CUEN":"101","COD_SUBC":"1012","COD_SSUBC":"10120","NOM_SSUBC":"Estero Chapuco Hasta Estero Lipingue","Nombre_del":"Reumén","Tipo_de_vl":"Calle","Numeració":"349","Nombre_de":"Arauco","POINT_X":-72.8348862359,"POINT_Y":-39.9901131167}},
{"type":"Feature","geometry":{"type":"Point","coordinates":[-73.42891698909992,-39.888255545648434]},"properties":{"CUT_REG":"14","CUT_PROV":"141","CUT_COM":"14102","REGION":"Los Ríos","PROVINCIA":"Valdivia","COMUNA":"Corral","COD_CUEN":"102","COD_SUBC":"1020","COD_SSUBC":"10200","NOM_SSUBC":"Costeras entre Rio Valdivia y Rio Chaihuin","Nombre_del":"Corral","Tipo_de_vl":"Calle","Numeració":"125","Nombre_de":"Miraflores","POINT_X":-73.4289169891,"POINT_Y":-39.8882555456}},
{"type":"Feature","geometry":{"type":"Point","coordinates":[-72.81276134684552,-39.863465812464455]},"properties":{"CUT_REG":"14","CUT_PROV":"141","CUT_COM":"14104","REGION":"Los Ríos","PROVINCIA":"Valdivia","COMUNA":"Los Lagos","COD_CUEN":"101","COD_SUBC":"1012","COD_SSUBC":"10121","NOM_SSUBC":"Rio Callileufu Entre Arriba Estero Lipingue y Rio Calle Calle","Nombre_del":"Los Lagos","Tipo_de_vl":"","Numeració":"17","Nombre_de":"Quinchilca","POINT_X":-72.8127613468,"POINT_Y":-39.8634658125}},
{"type":"Feature","geometry":{"type":"Point","coordinates":[-72.0829161104606,-39.83626022370719]},"properties":{"CUT_REG":"14","CUT_PROV":"141","CUT_COM":"14108","REGION":"Los Ríos","PROVINCIA":"Valdivia","COMUNA":"Panguipulli","COD_CUEN":"101","COD_SUBC":"1010","COD_SSUBC":"10108","NOM_SSUBC":"Lago Panguipulli","Nombre_del":"Choshuenco","Tipo_de_vl":"Avenida","Numeració":"S/n","Nombre_de":"Padre Bernabé","POINT_X":-72.0829161105,"POINT_Y":-39.8362602237}},
{"type":"Feature","geometry":{"type":"Point","coordinates":[-73.2451074903248,-39.812231793712414]},"properties":{"CUT_REG":"14","CUT_PROV":"141","CUT_COM":"14101","REGION":"Los Ríos","PROVINCIA":"Valdivia","COMUNA":"Valdivia","COD_CUEN":"101","COD_SUBC":"1014","COD_SSUBC":"10144","NOM_SSUBC":"Rio Valdivia","Nombre_del":"Valdivia","Tipo_de_vl":"","Numeració":"307","Nombre_de":"Camilo Henríquez","POINT_X":-73.2451074903,"POINT_Y":-39.8122317937}},
{"type":"Feature","geometry":{"type":"Point","coordinates":[-72.95874198101734,-39.806905313074964]},"properties":{"CUT_REG":"14","CUT_PROV":"141","CUT_COM":"14104","REGION":"Los Ríos","PROVINCIA":"Valdivia","COMUNA":"Los Lagos","COD_CUEN":"101","COD_SUBC":"1012","COD_SSUBC":"10122","NOM_SSUBC":"Rio Calle Calle Entre Junta Rio San Pedro y Rio Quinchilca Bajo Rio Cuicuileufu","Nombre_del":"Antilhue","Tipo_de_vl":"Avenida","Numeració":"S/n","Nombre_de":"Bernardo O Higgins","POINT_X":-72.958741981,"POINT_Y":-39.8069053131}},
{"type":"Feature","geometry":{"type":"Point","coordinates":[-73.11731349798583,-39.79210429845144]},"properties":{"CUT_REG":"14","CUT_PROV":"141","CUT_COM":"14101","REGION":"Los Ríos","PROVINCIA":"Valdivia","COMUNA":"Valdivia","COD_CUEN":"101","COD_SUBC":"1012","COD_SSUBC":"10123","NOM_SSUBC":"Rio Calle Calle entre Rio Cuicuileufu y Rio Cruces","Nombre_del":"Huellelhue","Tipo_de_vl":"Calle","Numeració":"S/n","Nombre_de":"Huellelhue","POINT_X":-73.117313498,"POINT_Y":-39.7921042985}},
{"type":"Feature","geometry":{"type":"Point","coordinates":[-72.95286988263123,-39.666980325422735]},"properties":{"CUT_REG":"14","CUT_PROV":"141","CUT_COM":"14105","REGION":"Los Ríos","PROVINCIA":"Valdivia","COMUNA":"Máfil","COD_CUEN":"101","COD_SUBC":"1013","COD_SSUBC":"10137","NOM_SSUBC":"Rio I¤aque Entre Rio Pillecozcoz y Rio Mafil","Nombre_del":"Máfil","Tipo_de_vl":"Calle","Numeració":"260","Nombre_de":"Bernardo O Higgins","POINT_X":-72.9528698826,"POINT_Y":-39.6669803254}},
{"type":"Feature","geometry":{"type":"Point","coordinates":[-72.33139654844132,-39.64157348019915]},"properties":{"CUT_REG":"14","CUT_PROV":"141","CUT_COM":"14108","REGION":"Los Ríos","PROVINCIA":"Valdivia","COMUNA":"Panguipulli","COD_CUEN":"101","COD_SUBC":"1010","COD_SSUBC":"10108","NOM_SSUBC":"Lago Panguipulli","Nombre_del":"Panguipulli","Tipo_de_vl":"","Numeració":"764","Nombre_de":"Calle Bernardo O Higgins","POINT_X":-72.3313965484,"POINT_Y":-39.6415734802}},
{"type":"Feature","geometry":{"type":"Point","coordinates":[-72.5085492363086,-39.541207349904326]},"properties":{"CUT_REG":"14","CUT_PROV":"141","CUT_COM":"14103","REGION":"Los Ríos","PROVINCIA":"Valdivia","COMUNA":"Lanco","COD_CUEN":"101","COD_SUBC":"1013","COD_SSUBC":"10132","NOM_SSUBC":"Rio Leufucade bajo Rio Antilhue","Nombre_del":"Malalhue","Tipo_de_vl":"","Numeració":"37","Nombre_de":"Covadonga","POINT_X":-72.5085492363,"POINT_Y":-39.5412073499}},
{"type":"Feature","geometry":{"type":"Point","coordinates":[-72.96339774367861,-39.540941094223356]},"properties":{"CUT_REG":"14","CUT_PROV":"141","CUT_COM":"14106","REGION":"Los Ríos","PROVINCIA":"Valdivia","COMUNA":"Mariquina","COD_CUEN":"101","COD_SUBC":"1013","COD_SSUBC":"10134","NOM_SSUBC":"Rio Cruces Entre Rio Leufucade y Bajo Estero Queuchico","Nombre_del":"San José de la Mariquina","Tipo_de_vl":"","Numeració":"S/N","Nombre_de":"Carlos Acharan Arce","POINT_X":-72.9633977437,"POINT_Y":-39.5409410942}},
{"type":"Feature","geometry":{"type":"Point","coordinates":[-72.15841658098962,-39.48490306776465]},"properties":{"CUT_REG":"09","CUT_PROV":"091","CUT_COM":"09120","REGION":"La Araucanía","PROVINCIA":"Cautín","COMUNA":"Villarrica","COD_CUEN":"101","COD_SUBC":"1010","COD_SSUBC":"10106","NOM_SSUBC":"Desague Lago Calafquen desde Desembocadura Lago Co¤aripe","Nombre_del":"Lican Ray","Tipo_de_vl":"Calle","Numeració":"376","Nombre_de":"Gabriela Mistral","POINT_X":-72.158416581,"POINT_Y":-39.4849030678}},
{"type":"Feature","geometry":{"type":"Point","coordinates":[-72.77582360776839,-39.45176402490574]},"properties":{"CUT_REG":"14","CUT_PROV":"141","CUT_COM":"14103","REGION":"Los Ríos","PROVINCIA":"Valdivia","COMUNA":"Lanco","COD_CUEN":"101","COD_SUBC":"1013","COD_SSUBC":"10133","NOM_SSUBC":"Rio Leufucade entre Rio Antilhue y Rio Cruces","Nombre_del":"Lanco","Tipo_de_vl":"Calle","Numeració":"170","Nombre_de":"Dieciocho","POINT_X":-72.7758236078,"POINT_Y":-39.4517640249}},
{"type":"Feature","geometry":{"type":"Point","coordinates":[-73.21146245418954,-39.44426016464725]},"properties":{"CUT_REG":"14","CUT_PROV":"141","CUT_COM":"14106","REGION":"Los Ríos","PROVINCIA":"Valdivia","COMUNA":"Mariquina","COD_CUEN":"100","COD_SUBC":"1000","COD_SSUBC":"10000","NOM_SSUBC":"Rio Lingue","Nombre_del":"Mehuín","Tipo_de_vl":"Calle","Numeració":"S/n","Nombre_de":"Carlos Acharán","POINT_X":-73.2114624542,"POINT_Y":-39.4442601646}},
{"type":"Feature","geometry":{"type":"Point","coordinates":[-72.62938609844365,-39.371149718478065]},"properties":{"CUT_REG":"09","CUT_PROV":"091","CUT_COM":"09109","REGION":"La Araucanía","PROVINCIA":"Cautín","COMUNA":"Loncoche","COD_CUEN":"101","COD_SUBC":"1013","COD_SSUBC":"10130","NOM_SSUBC":"Rio Cruces (San Jose) Bajo Estero Niguen","Nombre_del":"Loncoche","Tipo_de_vl":"Calle","Numeració":"508","Nombre_de":"Arturo Pratt","POINT_X":-72.6293860984,"POINT_Y":-39.3711497185}},
{"type":"Feature","geometry":{"type":"Point","coordinates":[-71.58803824128347,-39.35896016955326]},"properties":{"CUT_REG":"09","CUT_PROV":"091","CUT_COM":"09104","REGION":"La Araucanía","PROVINCIA":"Cautín","COMUNA":"Curarrehue","COD_CUEN":"094","COD_SUBC":"0941","COD_SSUBC":"09412","NOM_SSUBC":"Rio Trancura","Nombre_del":"Curarrehue","Tipo_de_vl":"Avenida","Numeració":"487","Nombre_de":"Bdo O Higgins","POINT_X":-71.5880382413,"POINT_Y":-39.3589601696}},
{"type":"Feature","geometry":{"type":"Point","coordinates":[-72.2266582467556,-39.28085837037228]},"properties":{"CUT_REG":"09","CUT_PROV":"091","CUT_COM":"09120","REGION":"La Araucanía","PROVINCIA":"Cautín","COMUNA":"Villarrica","COD_CUEN":"094","COD_SUBC":"0942","COD_SSUBC":"09420","NOM_SSUBC":"Lago Villarrica","Nombre_del":"Villarrica","Tipo_de_vl":"Calle","Numeració":"630","Nombre_de":"Valentín Letelier","POINT_X":-72.2266582468,"POINT_Y":-39.2808583704}},
{"type":"Feature","geometry":{"type":"Point","coordinates":[-71.97367230746028,-39.276204498454575]},"properties":{"CUT_REG":"09","CUT_PROV":"091","CUT_COM":"09115","REGION":"La Araucanía","PROVINCIA":"Cautín","COMUNA":"Pucón","COD_CUEN":"094","COD_SUBC":"0942","COD_SSUBC":"09420","NOM_SSUBC":"Lago Villarrica","Nombre_del":"Pucón","Tipo_de_vl":"Avenida","Numeració":"461","Nombre_de":"Bernardo O Higins","POINT_X":-71.9736723075,"POINT_Y":-39.2762044985}},
{"type":"Feature","geometry":{"type":"Point","coordinates":[-72.67529094039105,-39.23620027987878]},"properties":{"CUT_REG":"09","CUT_PROV":"091","CUT_COM":"09107","REGION":"La Araucanía","PROVINCIA":"Cautín","COMUNA":"Gorbea","COD_CUEN":"094","COD_SUBC":"0943","COD_SSUBC":"09433","NOM_SSUBC":"Estero Quitratrue (Puyehue)","Nombre_del":"Lastarria","Tipo_de_vl":"Calle","Numeració":"351","Nombre_de":"Dieciocho De Septiembre","POINT_X":-72.6752909404,"POINT_Y":-39.2362002799}},
{"type":"Feature","geometry":{"type":"Point","coordinates":[-73.16434144781192,-39.17981029907823]},"properties":{"CUT_REG":"09","CUT_PROV":"091","CUT_COM":"09118","REGION":"La Araucanía","PROVINCIA":"Cautín","COMUNA":"Toltén","COD_CUEN":"094","COD_SUBC":"0943","COD_SSUBC":"09439","NOM_SSUBC":"Rio Tolten Entre Estero Neicuf y Desembocadura","Nombre_del":"Toltén","Tipo_de_vl":"","Numeració":"520","Nombre_de":"Bernardo O Higgins","POINT_X":-73.1643414478,"POINT_Y":-39.1798102991}},
{"type":"Feature","geometry":{"type":"Point","coordinates":[-72.66102957170284,-39.155540819725374]},"properties":{"CUT_REG":"09","CUT_PROV":"091","CUT_COM":"09107","REGION":"La Araucanía","PROVINCIA":"Cautín","COMUNA":"Gorbea","COD_CUEN":"094","COD_SUBC":"0943","COD_SSUBC":"09433","NOM_SSUBC":"Estero Quitratrue (Puyehue)","Nombre_del":"Quitratúe","Tipo_de_vl":"Calle","Numeració":"600","Nombre_de":"Jose Miguel Carrera","POINT_X":-72.6610295717,"POINT_Y":-39.1555408197}},
{"type":"Feature","geometry":{"type":"Point","coordinates":[-72.67499523314177,-39.103253586284]},"properties":{"CUT_REG":"09","CUT_PROV":"091","CUT_COM":"09107","REGION":"La Araucanía","PROVINCIA":"Cautín","COMUNA":"Gorbea","COD_CUEN":"094","COD_SUBC":"0943","COD_SSUBC":"09434","NOM_SSUBC":"Rio Donguil Entre Estero Quitratrue y Rio Tolten","Nombre_del":"Gorbea","Tipo_de_vl":"Calle","Numeració":"699","Nombre_de":"Ramón Freire","POINT_X":-72.6749952331,"POINT_Y":-39.1032535863}},
{"type":"Feature","geometry":{"type":"Point","coordinates":[-73.09089534926707,-38.99784635608437]},"properties":{"CUT_REG":"09","CUT_PROV":"091","CUT_COM":"09117","REGION":"La Araucanía","PROVINCIA":"Cautín","COMUNA":"Teodoro Schmidt","COD_CUEN":"094","COD_SUBC":"0943","COD_SSUBC":"09438","NOM_SSUBC":"Estero Neicuf","Nombre_del":"Teodoro Schimdt","Tipo_de_vl":"Avenida","Numeració":"300","Nombre_de":"Balmaceda","POINT_X":-73.0908953493,"POINT_Y":-38.9978463561}},
{"type":"Feature","geometry":{"type":"Point","coordinates":[-72.63887297596614,-38.98730737677148]},"properties":{"CUT_REG":"09","CUT_PROV":"091","CUT_COM":"09114","REGION":"La Araucanía","PROVINCIA":"Cautín","COMUNA":"Pitrufquén","COD_CUEN":"094","COD_SUBC":"0943","COD_SSUBC":"09430","NOM_SSUBC":"Rio Tolten entre Rio Allipen y Rio Donguil","Nombre_del":"Pitrufquen","Tipo_de_vl":"","Numeració":"841","Nombre_de":"Andrés Bello","POINT_X":-72.638872976,"POINT_Y":-38.9873073768}},
{"type":"Feature","geometry":{"type":"Point","coordinates":[-72.62475926331058,-38.951174712550035]},"properties":{"CUT_REG":"09","CUT_PROV":"091","CUT_COM":"09105","REGION":"La Araucanía","PROVINCIA":"Cautín","COMUNA":"Freire","COD_CUEN":"094","COD_SUBC":"0943","COD_SSUBC":"09430","NOM_SSUBC":"Rio Tolten entre Rio Allipen y Rio Donguil","Nombre_del":"Freire","Tipo_de_vl":"Avenida","Numeració":"172","Nombre_de":"Avenida Schleyer","POINT_X":-72.6247592633,"POINT_Y":-38.9511747126}},
{"type":"Feature","geometry":{"type":"Point","coordinates":[-72.03239371845916,-38.93374595282242]},"properties":{"CUT_REG":"09","CUT_PROV":"091","CUT_COM":"09103","REGION":"La Araucanía","PROVINCIA":"Cautín","COMUNA":"Cunco","COD_CUEN":"094","COD_SUBC":"0940","COD_SSUBC":"09403","NOM_SSUBC":"Rio Allipen Entre Rio Llaima y Bajo Estero Cunco","Nombre_del":"Cunco","Tipo_de_vl":"Calle","Numeració":"386","Nombre_de":"Balmaceda","POINT_X":-72.0323937185,"POINT_Y":-38.9337459528}},
{"type":"Feature","geometry":{"type":"Point","coordinates":[-71.69345997700594,-38.8548336244575]},"properties":{"CUT_REG":"09","CUT_PROV":"091","CUT_COM":"09110","REGION":"La Araucanía","PROVINCIA":"Cautín","COMUNA":"Melipeuco","COD_CUEN":"094","COD_SUBC":"0940","COD_SSUBC":"09402","NOM_SSUBC":"Rio Allipen entre Tres Juntas y bajo Rio Llaima","Nombre_del":"Melipeuco","Tipo_de_vl":"","Numeració":"400","Nombre_de":"Aurelio Letelier","POINT_X":-71.693459977,"POINT_Y":-38.8548336245}},
{"type":"Feature","geometry":{"type":"Point","coordinates":[-73.39702399675835,-38.79118170693912]},"properties":{"CUT_REG":"09","CUT_PROV":"091","CUT_COM":"09116","REGION":"La Araucanía","PROVINCIA":"Cautín","COMUNA":"Saavedra","COD_CUEN":"091","COD_SUBC":"0915","COD_SSUBC":"09153","NOM_SSUBC":"Rio Imperial entre Rio Las Damas y desembocadura","Nombre_del":"Puerto Saavedra","Tipo_de_vl":"Calle","Numeració":"252","Nombre_de":"Patricio Lynch","POINT_X":-73.3970239968,"POINT_Y":-38.7911817069}},
{"type":"Feature","geometry":{"type":"Point","coordinates":[-72.95215974515591,-38.74460765079078]},"properties":{"CUT_REG":"09","CUT_PROV":"091","CUT_COM":"09111","REGION":"La Araucanía","PROVINCIA":"Cautín","COMUNA":"Nueva Imperial","COD_CUEN":"091","COD_SUBC":"0911","COD_SSUBC":"09118","NOM_SSUBC":"Rio Chol Chol entre Rio Renaco y Rio Imperial","Nombre_del":"Nueva Imperial","Tipo_de_vl":"Calle","Numeració":"430","Nombre_de":"Vicuña Mackenna","POINT_X":-72.9521597452,"POINT_Y":-38.7446076508}},
{"type":"Feature","geometry":{"type":"Point","coordinates":[-72.60135583648217,-38.73632341739222]},"properties":{"CUT_REG":"09","CUT_PROV":"091","CUT_COM":"09101","REGION":"La Araucanía","PROVINCIA":"Cautín","COMUNA":"Temuco","COD_CUEN":"091","COD_SUBC":"0912","COD_SSUBC":"09129","NOM_SSUBC":"Rio Cautin Entre Estero Pumalal y Rio Quepe","Nombre_del":"Temuco","Tipo_de_vl":"","Numeració":"430","Nombre_de":"Prieto Norte","POINT_X":-72.6013558365,"POINT_Y":-38.7363234174}},
{"type":"Feature","geometry":{"type":"Point","coordinates":[-73.16805635272752,-38.711823447448666]},"properties":{"CUT_REG":"09","CUT_PROV":"091","CUT_COM":"09102","REGION":"La Araucanía","PROVINCIA":"Cautín","COMUNA":"Carahue","COD_CUEN":"091","COD_SUBC":"0915","COD_SSUBC":"09150","NOM_SSUBC":"Rio Imperial entre Junta Rios Cautin y Chol Chol y Rio Las Damas","Nombre_del":"Carahue","Tipo_de_vl":"Avenida","Numeració":"300","Nombre_de":"Ercilla","POINT_X":-73.1680563527,"POINT_Y":-38.7118234474}},
{"type":"Feature","geometry":{"type":"Point","coordinates":[-72.00300984490784,-38.68570108860508]},"properties":{"CUT_REG":"09","CUT_PROV":"091","CUT_COM":"09119","REGION":"La Araucanía","PROVINCIA":"Cautín","COMUNA":"Vilcún","COD_CUEN":"091","COD_SUBC":"0913","COD_SSUBC":"09130","NOM_SSUBC":"Rio Quepe bajo Rio Calbuco","Nombre_del":"Cherquenco","Tipo_de_vl":"Calle","Numeració":"26","Nombre_de":"Mendoza","POINT_X":-72.0030098449,"POINT_Y":-38.6857010886}},
{"type":"Feature","geometry":{"type":"Point","coordinates":[-72.22261484994019,-38.67042677421027]},"properties":{"CUT_REG":"09","CUT_PROV":"091","CUT_COM":"09119","REGION":"La Araucanía","PROVINCIA":"Cautín","COMUNA":"Vilcún","COD_CUEN":"091","COD_SUBC":"0913","COD_SSUBC":"09131","NOM_SSUBC":"Rio Quepe Entre Rio Calbuco y Bajo Estero Hunaco","Nombre_del":"Vilcún","Tipo_de_vl":"Calle","Numeració":"295","Nombre_de":"A Pratt","POINT_X":-72.2226148499,"POINT_Y":-38.6704267742}},
{"type":"Feature","geometry":{"type":"Point","coordinates":[-72.84531512505994,-38.603010761909445]},"properties":{"CUT_REG":"09","CUT_PROV":"091","CUT_COM":"09121","REGION":"La Araucanía","PROVINCIA":"Cautín","COMUNA":"Cholchol","COD_CUEN":"091","COD_SUBC":"0911","COD_SSUBC":"09116","NOM_SSUBC":"Rio Chol Chol entre Rio Quillen y Rio Renaco","Nombre_del":"Chol Chol","Tipo_de_vl":"","Numeració":"510","Nombre_de":"Balmaceda","POINT_X":-72.8453151251,"POINT_Y":-38.6030107619}},
{"type":"Feature","geometry":{"type":"Point","coordinates":[-72.43527656519254,-38.534516485396395]},"properties":{"CUT_REG":"09","CUT_PROV":"091","CUT_COM":"09108","REGION":"La Araucanía","PROVINCIA":"Cautín","COMUNA":"Lautaro","COD_CUEN":"091","COD_SUBC":"0912","COD_SSUBC":"09124","NOM_SSUBC":"Rio Cautin Entre Arriba Junta Estero Guacolda y Rio Muco","Nombre_del":"Lautaro","Tipo_de_vl":"Calle","Numeració":"245","Nombre_de":"Francisco Bilbao","POINT_X":-72.4352765652,"POINT_Y":-38.5345164854}},
{"type":"Feature","geometry":{"type":"Point","coordinates":[-71.3708955222861,-38.45453161166819]},"properties":{"CUT_REG":"09","CUT_PROV":"092","CUT_COM":"09205","REGION":"La Araucanía","PROVINCIA":"Malleco","COMUNA":"Lonquimay","COD_CUEN":"083","COD_SUBC":"0830","COD_SSUBC":"08304","NOM_SSUBC":"Rio Lonquimay","Nombre_del":"Lonquimay","Tipo_de_vl":"Calle","Numeració":"1195","Nombre_de":"O Higgins","POINT_X":-71.3708955223,"POINT_Y":-38.4545316117}},
{"type":"Feature","geometry":{"type":"Point","coordinates":[-71.89090369275524,-38.438497613759424]},"properties":{"CUT_REG":"09","CUT_PROV":"092","CUT_COM":"09203","REGION":"La Araucanía","PROVINCIA":"Malleco","COMUNA":"Curacautín","COD_CUEN":"091","COD_SUBC":"0912","COD_SSUBC":"09122","NOM_SSUBC":"Rio Cautin Entre Estero Collico y Bajo Junta Rio Blanco","Nombre_del":"Curacautín","Tipo_de_vl":"","Numeració":"555","Nombre_de":"Arturo Prat","POINT_X":-71.8909036928,"POINT_Y":-38.4384976138}},
{"type":"Feature","geometry":{"type":"Point","coordinates":[-72.37972025445261,-38.422127827216244]},"properties":{"CUT_REG":"09","CUT_PROV":"091","CUT_COM":"09113","REGION":"La Araucanía","PROVINCIA":"Cautín","COMUNA":"Perquenco","COD_CUEN":"091","COD_SUBC":"0911","COD_SSUBC":"09112","NOM_SSUBC":"Estero Perquenco","Nombre_del":"Perquenco","Tipo_de_vl":"Calle","Numeració":"541","Nombre_de":"Orella","POINT_X":-72.3797202545,"POINT_Y":-38.4221278272}},
{"type":"Feature","geometry":{"type":"Point","coordinates":[-72.78061687532647,-38.41232243537101]},"properties":{"CUT_REG":"09","CUT_PROV":"091","CUT_COM":"09106","REGION":"La Araucanía","PROVINCIA":"Cautín","COMUNA":"Galvarino","COD_CUEN":"091","COD_SUBC":"0911","COD_SSUBC":"09113","NOM_SSUBC":"Rio Quillen Entre Estero Perquenco y Rio Chol Chol","Nombre_del":"Galvarino (Eduardo Lemp Luthi)","Tipo_de_vl":"Calle","Numeració":"S/n","Nombre_de":"Independencia","POINT_X":-72.7806168753,"POINT_Y":-38.4123224354}},
{"type":"Feature","geometry":{"type":"Point","coordinates":[-73.49396686416972,-38.34260819456321]},"properties":{"CUT_REG":"08","CUT_PROV":"082","CUT_COM":"08207","REGION":"Biobío","PROVINCIA":"Arauco","COMUNA":"Tirúa","COD_CUEN":"089","COD_SUBC":"0893","COD_SSUBC":"08930","NOM_SSUBC":"Rio Tirua","Nombre_del":"Tirúa","Tipo_de_vl":"Calle","Numeració":"S/n","Nombre_de":"Guerrero","POINT_X":-73.4939668642,"POINT_Y":-38.3426081946}},
{"type":"Feature","geometry":{"type":"Point","coordinates":[-72.66636274113043,-38.25154871729262]},"properties":{"CUT_REG":"09","CUT_PROV":"092","CUT_COM":"09210","REGION":"La Araucanía","PROVINCIA":"Malleco","COMUNA":"Traiguén","COD_CUEN":"091","COD_SUBC":"0910","COD_SSUBC":"09105","NOM_SSUBC":"Rio Traiguen Entre Estero Quilapan y Rio Quino","Nombre_del":"Traiguén","Tipo_de_vl":"","Numeració":"330","Nombre_de":"Coronel Urrutia","POINT_X":-72.6663627411,"POINT_Y":-38.2515487173}},
{"type":"Feature","geometry":{"type":"Point","coordinates":[-72.331583830252,-38.2344603108471]},"properties":{"CUT_REG":"09","CUT_PROV":"092","CUT_COM":"09211","REGION":"La Araucanía","PROVINCIA":"Malleco","COMUNA":"Victoria","COD_CUEN":"091","COD_SUBC":"0910","COD_SSUBC":"09104","NOM_SSUBC":"Rio Traiguen Hasta Bajo Estero Quilapan","Nombre_del":"Victoria","Tipo_de_vl":"","Numeració":"475","Nombre_de":"Ramírez","POINT_X":-72.3315838303,"POINT_Y":-38.2344603108}},
{"type":"Feature","geometry":{"type":"Point","coordinates":[-72.99129048409785,-38.19507045636904]},"properties":{"CUT_REG":"09","CUT_PROV":"092","CUT_COM":"09207","REGION":"La Araucanía","PROVINCIA":"Malleco","COMUNA":"Lumaco","COD_CUEN":"091","COD_SUBC":"0910","COD_SSUBC":"09102","NOM_SSUBC":"Rio Lumaco entre Rio Puren y Rio Pichilumaco","Nombre_del":"Capitán Pastene","Tipo_de_vl":"Avenida","Numeració":"364","Nombre_de":"Cucchi Boasso","POINT_X":-72.9912904841,"POINT_Y":-38.1950704564}},
{"type":"Feature","geometry":{"type":"Point","coordinates":[-72.90456259325208,-38.16659220046783]},"properties":{"CUT_REG":"09","CUT_PROV":"092","CUT_COM":"09207","REGION":"La Araucanía","PROVINCIA":"Malleco","COMUNA":"Lumaco","COD_CUEN":"091","COD_SUBC":"0910","COD_SSUBC":"09103","NOM_SSUBC":"Rio Lumaco Entre Arriba Rio Pichilumaco y Rio Colpi","Nombre_del":"Lumaco","Tipo_de_vl":"","Numeració":"453","Nombre_de":"Balmaceda","POINT_X":-72.9045625933,"POINT_Y":-38.1665922005}},
{"type":"Feature","geometry":{"type":"Point","coordinates":[-72.37753538342318,-38.06357477650387]},"properties":{"CUT_REG":"09","CUT_PROV":"092","CUT_COM":"09204","REGION":"La Araucanía","PROVINCIA":"Malleco","COMUNA":"Ercilla","COD_CUEN":"083","COD_SUBC":"0835","COD_SSUBC":"08353","NOM_SSUBC":"Rio Huequen","Nombre_del":"Ercilla","Tipo_de_vl":"","Numeració":"400","Nombre_de":"Rengo","POINT_X":-72.3775353834,"POINT_Y":-38.0635747765}},
{"type":"Feature","geometry":{"type":"Point","coordinates":[-73.07411607068815,-38.03276029495488]},"properties":{"CUT_REG":"09","CUT_PROV":"092","CUT_COM":"09208","REGION":"La Araucanía","PROVINCIA":"Malleco","COMUNA":"Purén","COD_CUEN":"091","COD_SUBC":"0910","COD_SSUBC":"09101","NOM_SSUBC":"Rio Puren","Nombre_del":"Purén","Tipo_de_vl":"Calle","Numeració":"1099","Nombre_de":"Tromen","POINT_X":-73.0741160707,"POINT_Y":-38.032760295}},
{"type":"Feature","geometry":{"type":"Point","coordinates":[-73.22771096692217,-38.01609361089305]},"properties":{"CUT_REG":"08","CUT_PROV":"082","CUT_COM":"08204","REGION":"Biobío","PROVINCIA":"Arauco","COMUNA":"Contulmo","COD_CUEN":"088","COD_SUBC":"0882","COD_SSUBC":"08822","NOM_SSUBC":"Rio Peleco Entre Junta Rios Tucapel y Leiva y Desague Lago Lanalhue","Nombre_del":"Contulmo","Tipo_de_vl":"","Numeració":"552","Nombre_de":"Los Tilos","POINT_X":-73.2277109669,"POINT_Y":-38.0160936109}},
{"type":"Feature","geometry":{"type":"Point","coordinates":[-72.82980281156631,-37.982490939747976]},"properties":{"CUT_REG":"09","CUT_PROV":"092","CUT_COM":"09206","REGION":"La Araucanía","PROVINCIA":"Malleco","COMUNA":"Los Sauces","COD_CUEN":"083","COD_SUBC":"0835","COD_SSUBC":"08355","NOM_SSUBC":"Rio Rehue Entre Estero Llollue y Estero Romulhueco","Nombre_del":"Los Sauces","Tipo_de_vl":"Calle","Numeració":"292","Nombre_de":"Independencia","POINT_X":-72.8298028116,"POINT_Y":-37.9824909397}},
{"type":"Feature","geometry":{"type":"Point","coordinates":[-72.43743575064661,-37.957653131463644]},"properties":{"CUT_REG":"09","CUT_PROV":"092","CUT_COM":"09202","REGION":"La Araucanía","PROVINCIA":"Malleco","COMUNA":"Collipulli","COD_CUEN":"083","COD_SUBC":"0835","COD_SSUBC":"08351","NOM_SSUBC":"Rio Malleco Entre Rio Niblinto y Estero Cherquenco","Nombre_del":"Collipulli","Tipo_de_vl":"Calle","Numeració":"1261","Nombre_de":"Alcazar","POINT_X":-72.4374357506,"POINT_Y":-37.9576531315}},
{"type":"Feature","geometry":{"type":"Point","coordinates":[-73.39787392438032,-37.8009413098305]},"properties":{"CUT_REG":"08","CUT_PROV":"082","CUT_COM":"08203","REGION":"Biobío","PROVINCIA":"Arauco","COMUNA":"Cañete","COD_CUEN":"088","COD_SUBC":"0882","COD_SSUBC":"08820","NOM_SSUBC":"Rio Tucapel (Caramavida) hasta Rio Leiva","Nombre_del":"Cañete","Tipo_de_vl":"Calle","Numeració":"350","Nombre_de":"Condell","POINT_X":-73.3978739244,"POINT_Y":-37.8009413098}},
{"type":"Feature","geometry":{"type":"Point","coordinates":[-72.71077838248848,-37.80055917200831]},"properties":{"CUT_REG":"09","CUT_PROV":"092","CUT_COM":"09201","REGION":"La Araucanía","PROVINCIA":"Malleco","COMUNA":"Angol","COD_CUEN":"083","COD_SUBC":"0835","COD_SSUBC":"08357","NOM_SSUBC":"Rio Ricoiquen","Nombre_del":"Angol","Tipo_de_vl":"Calle","Numeració":"451","Nombre_de":"Pedro Aguirre Cerda","POINT_X":-72.7107783825,"POINT_Y":-37.800559172}},
{"type":"Feature","geometry":{"type":"Point","coordinates":[-72.24393845896768,-37.720531665737994]},"properties":{"CUT_REG":"08","CUT_PROV":"083","CUT_COM":"08305","REGION":"Biobío","PROVINCIA":"Biobío","COMUNA":"Mulchén","COD_CUEN":"083","COD_SUBC":"0833","COD_SSUBC":"08330","NOM_SSUBC":"Rio Mulchen hasta junta Rio Bureo","Nombre_del":"Mulchen","Tipo_de_vl":"Calle","Numeració":"390","Nombre_de":"Aníbal Pinto","POINT_X":-72.243938459,"POINT_Y":-37.7205316657}},
{"type":"Feature","geometry":{"type":"Point","coordinates":[-72.00002174008115,-37.68327822736955]},"properties":{"CUT_REG":"08","CUT_PROV":"083","CUT_COM":"08308","REGION":"Biobío","PROVINCIA":"Biobío","COMUNA":"Quilaco","COD_CUEN":"083","COD_SUBC":"0831","COD_SSUBC":"08318","NOM_SSUBC":"Rio Bio-Bio Entre Rio Lirquen y Bajo Estero Pile (Calbuco)","Nombre_del":"Quilaco","Tipo_de_vl":"","Numeració":"S/n","Nombre_de":"José Miguel Carrera","POINT_X":-72.0000217401,"POINT_Y":-37.6832782274}},
{"type":"Feature","geometry":{"type":"Point","coordinates":[-72.02097683072245,-37.6707521798632]},"properties":{"CUT_REG":"08","CUT_PROV":"083","CUT_COM":"08311","REGION":"Biobío","PROVINCIA":"Biobío","COMUNA":"Santa Bárbara","COD_CUEN":"083","COD_SUBC":"0831","COD_SSUBC":"08318","NOM_SSUBC":"Rio Bio-Bio Entre Rio Lirquen y Bajo Estero Pile (Calbuco)","Nombre_del":"Santa Bárbara","Tipo_de_vl":"","Numeració":"31","Nombre_de":"Manuel Rodríguez","POINT_X":-72.0209768307,"POINT_Y":-37.6707521799}},
{"type":"Feature","geometry":{"type":"Point","coordinates":[-72.58371878679986,-37.67046609867078]},"properties":{"CUT_REG":"09","CUT_PROV":"092","CUT_COM":"09209","REGION":"La Araucanía","PROVINCIA":"Malleco","COMUNA":"Renaico","COD_CUEN":"083","COD_SUBC":"0834","COD_SSUBC":"08344","NOM_SSUBC":"Rio Renaico Entre Rio Mininco y Rio Vergara (Rio Malleco)","Nombre_del":"Renaico","Tipo_de_vl":"Calle","Numeració":"100","Nombre_de":"Caupolicán","POINT_X":-72.5837187868,"POINT_Y":-37.6704660987}},
{"type":"Feature","geometry":{"type":"Point","coordinates":[-73.46103285584584,-37.627551708221276]},"properties":{"CUT_REG":"08","CUT_PROV":"082","CUT_COM":"08206","REGION":"Biobío","PROVINCIA":"Arauco","COMUNA":"Los Alamos","COD_CUEN":"088","COD_SUBC":"0881","COD_SSUBC":"08810","NOM_SSUBC":"Costeras Entre Rio Pangue (Incluido) y Rio Paicavi","Nombre_del":"Los Álamos","Tipo_de_vl":"","Numeració":"415","Nombre_de":"Luis Sáez Mora","POINT_X":-73.4610328558,"POINT_Y":-37.6275517082}},
{"type":"Feature","geometry":{"type":"Point","coordinates":[-73.65651750583876,-37.60977285790515]},"properties":{"CUT_REG":"08","CUT_PROV":"082","CUT_COM":"08201","REGION":"Biobío","PROVINCIA":"Arauco","COMUNA":"Lebu","COD_CUEN":"087","COD_SUBC":"0872","COD_SSUBC":"08720","NOM_SSUBC":"Rio Lebu Entre Junta Rios Curanilahue, Pilpilco y Desembocadura","Nombre_del":"Lebu","Tipo_de_vl":"","Numeració":"612","Nombre_de":"Ramón Freire","POINT_X":-73.6565175058,"POINT_Y":-37.6097728579}},
{"type":"Feature","geometry":{"type":"Point","coordinates":[-72.5290293445261,-37.586362586106375]},"properties":{"CUT_REG":"08","CUT_PROV":"083","CUT_COM":"08307","REGION":"Biobío","PROVINCIA":"Biobío","COMUNA":"Negrete","COD_CUEN":"083","COD_SUBC":"0833","COD_SSUBC":"08334","NOM_SSUBC":"Rio Bio-Bio Entre Rio Duqueco, Rio Mulchen y Rio Vergara","Nombre_del":"Negrete","Tipo_de_vl":"Avenida","Numeració":"173","Nombre_de":"Luis Cruz Martínez","POINT_X":-72.5290293445,"POINT_Y":-37.5863625861}},
{"type":"Feature","geometry":{"type":"Point","coordinates":[-72.67041872756079,-37.50184391495109]},"properties":{"CUT_REG":"08","CUT_PROV":"083","CUT_COM":"08306","REGION":"Biobío","PROVINCIA":"Biobío","COMUNA":"Nacimiento","COD_CUEN":"083","COD_SUBC":"0835","COD_SSUBC":"08359","NOM_SSUBC":"Rio Vergara entre Rio Renaico y Rio Bio-Bio","Nombre_del":"Nacimiento","Tipo_de_vl":"Calle","Numeració":"337","Nombre_de":"San Martín","POINT_X":-72.6704187276,"POINT_Y":-37.501843915}},
{"type":"Feature","geometry":{"type":"Point","coordinates":[-73.34287666668612,-37.477943629869564]},"properties":{"CUT_REG":"08","CUT_PROV":"082","CUT_COM":"08205","REGION":"Biobío","PROVINCIA":"Arauco","COMUNA":"Curanilahue","COD_CUEN":"087","COD_SUBC":"0870","COD_SSUBC":"08700","NOM_SSUBC":"Rio Descabezado hasta junta Rio Curanilahue","Nombre_del":"Curanilahue","Tipo_de_vl":"Calle","Numeració":"704","Nombre_de":"Caupolican","POINT_X":-73.3428766667,"POINT_Y":-37.4779436299}},
{"type":"Feature","geometry":{"type":"Point","coordinates":[-71.98108462754733,-37.475759688913485]},"properties":{"CUT_REG":"08","CUT_PROV":"083","CUT_COM":"08309","REGION":"Biobío","PROVINCIA":"Biobío","COMUNA":"Quilleco","COD_CUEN":"083","COD_SUBC":"0832","COD_SSUBC":"08322","NOM_SSUBC":"Rio Duqueco Entre Estero Ca¤icura y Bajo Rio Quilleco","Nombre_del":"Quilleco","Tipo_de_vl":"Calle","Numeració":"S/n","Nombre_de":"Bascur Esq Caupolicán","POINT_X":-71.9810846275,"POINT_Y":-37.4757596889}},
{"type":"Feature","geometry":{"type":"Point","coordinates":[-72.35136813306579,-37.47337889663976]},"properties":{"CUT_REG":"08","CUT_PROV":"083","CUT_COM":"08301","REGION":"Biobío","PROVINCIA":"Biobío","COMUNA":"Los Angeles","COD_CUEN":"083","COD_SUBC":"0836","COD_SSUBC":"08366","NOM_SSUBC":"Rio Guaqui entre Rio Raninco y Rio Bio-Bio","Nombre_del":"Los Ángeles","Tipo_de_vl":"Avenida","Numeració":"410","Nombre_de":"Ricardo Vicuña","POINT_X":-72.3513681331,"POINT_Y":-37.4733788966}},
{"type":"Feature","geometry":{"type":"Point","coordinates":[-71.67440399170883,-37.32961507454627]},"properties":{"CUT_REG":"08","CUT_PROV":"083","CUT_COM":"08302","REGION":"Biobío","PROVINCIA":"Biobío","COMUNA":"Antuco","COD_CUEN":"083","COD_SUBC":"0837","COD_SSUBC":"08375","NOM_SSUBC":"Rio Laja Entre Estero Polcura y Rio Rucue","Nombre_del":"Antuco","Tipo_de_vl":"Calle","Numeració":"15","Nombre_de":"Sargento Aldea","POINT_X":-71.6744039917,"POINT_Y":-37.3296150745}},
{"type":"Feature","geometry":{"type":"Point","coordinates":[-72.71337946752243,-37.28411073826519]},"properties":{"CUT_REG":"08","CUT_PROV":"083","CUT_COM":"08304","REGION":"Biobío","PROVINCIA":"Biobío","COMUNA":"Laja","COD_CUEN":"083","COD_SUBC":"0836","COD_SSUBC":"08367","NOM_SSUBC":"Rio Bio-Bio entre Rio Guaqui y Rio Laja","Nombre_del":"Laja","Tipo_de_vl":"Calle","Numeració":"10","Nombre_de":"Balmaceda","POINT_X":-72.7133794675,"POINT_Y":-37.2841107383}},
{"type":"Feature","geometry":{"type":"Point","coordinates":[-72.72201865799894,-37.26486818300577]},"properties":{"CUT_REG":"08","CUT_PROV":"083","CUT_COM":"08310","REGION":"Biobío","PROVINCIA":"Biobío","COMUNA":"San Rosendo","COD_CUEN":"083","COD_SUBC":"0838","COD_SSUBC":"08386","NOM_SSUBC":"Rio Laja entre Rio Claro y Rio Bio-Bio","Nombre_del":"San Rosendo","Tipo_de_vl":"Calle","Numeració":"362","Nombre_de":"Pedro Montt","POINT_X":-72.722018658,"POINT_Y":-37.264868183}},
{"type":"Feature","geometry":{"type":"Point","coordinates":[-73.31840246477802,-37.24620082255875]},"properties":{"CUT_REG":"08","CUT_PROV":"082","CUT_COM":"08202","REGION":"Biobío","PROVINCIA":"Arauco","COMUNA":"Arauco","COD_CUEN":"085","COD_SUBC":"0853","COD_SSUBC":"08530","NOM_SSUBC":"Rio Carampangue Entre Arriba Rio Colorado y Desembocadura","Nombre_del":"Arauco","Tipo_de_vl":"Calle","Numeració":"310","Nombre_de":"Caupolicán","POINT_X":-73.3184024648,"POINT_Y":-37.2462008226}},
{"type":"Feature","geometry":{"type":"Point","coordinates":[-71.94290133392201,-37.23939688534466]},"properties":{"CUT_REG":"08","CUT_PROV":"083","CUT_COM":"08312","REGION":"Biobío","PROVINCIA":"Biobío","COMUNA":"Tucapel","COD_CUEN":"081","COD_SUBC":"0812","COD_SSUBC":"08122","NOM_SSUBC":"Rio Huepil","Nombre_del":"Huépil","Tipo_de_vl":"Calle","Numeració":"568","Nombre_de":"Independencia","POINT_X":-71.9429013339,"POINT_Y":-37.2393968853}},
{"type":"Feature","geometry":{"type":"Point","coordinates":[-72.9362994986351,-37.17454276392398]},"properties":{"CUT_REG":"08","CUT_PROV":"081","CUT_COM":"08109","REGION":"Biobío","PROVINCIA":"Concepción","COMUNA":"Santa Juana","COD_CUEN":"083","COD_SUBC":"0839","COD_SSUBC":"08391","NOM_SSUBC":"Rio Bio-Bio Entre Rio Gomero y Estero Quilacoya","Nombre_del":"Santa Juana","Tipo_de_vl":"","Numeració":"74","Nombre_de":"Irarrázabal","POINT_X":-72.9362994986,"POINT_Y":-37.1745427639}},
{"type":"Feature","geometry":{"type":"Point","coordinates":[-72.0184102303192,-37.1202499891163]},"properties":{"CUT_REG":"16","CUT_PROV":"161","CUT_COM":"16109","REGION":"Ñuble","PROVINCIA":"Diguillín","COMUNA":"Yungay","COD_CUEN":"081","COD_SUBC":"0812","COD_SSUBC":"08123","NOM_SSUBC":"Rio Itata Entre Rio Huepil y Bajo Estero Chillancito","Nombre_del":"Yungay","Tipo_de_vl":"Calle","Numeració":"318","Nombre_de":"Esmeralda","POINT_X":-72.0184102303,"POINT_Y":-37.1202499891}},
{"type":"Feature","geometry":{"type":"Point","coordinates":[-72.56141239774755,-37.09773256342577]},"properties":{"CUT_REG":"08","CUT_PROV":"083","CUT_COM":"08313","REGION":"Biobío","PROVINCIA":"Biobío","COMUNA":"Yumbel","COD_CUEN":"083","COD_SUBC":"0838","COD_SSUBC":"08385","NOM_SSUBC":"Rio Claro Entre Arriba Estero Coihueco y Rio Laja","Nombre_del":"Yumbel","Tipo_de_vl":"Calle","Numeració":"875","Nombre_de":"Bernardo O Higgins","POINT_X":-72.5614123977,"POINT_Y":-37.0977325634}},
{"type":"Feature","geometry":{"type":"Point","coordinates":[-72.40251293787307,-37.03404229867232]},"properties":{"CUT_REG":"08","CUT_PROV":"083","CUT_COM":"08303","REGION":"Biobío","PROVINCIA":"Biobío","COMUNA":"Cabrero","COD_CUEN":"083","COD_SUBC":"0838","COD_SSUBC":"08384","NOM_SSUBC":"Rio Claro Hasta Estero Coihueco","Nombre_del":"Cabrero","Tipo_de_vl":"","Numeració":"169","Nombre_de":"Zañartu","POINT_X":-72.4025129379,"POINT_Y":-37.0340422987}},
{"type":"Feature","geometry":{"type":"Point","coordinates":[-73.15586522238095,-37.01440561722245]},"properties":{"CUT_REG":"08","CUT_PROV":"081","CUT_COM":"08102","REGION":"Biobío","PROVINCIA":"Concepción","COMUNA":"Coronel","COD_CUEN":"084","COD_SUBC":"0841","COD_SSUBC":"08410","NOM_SSUBC":"Costeras entre Rio Bio-Bio y Rio Manco","Nombre_del":"Coronel","Tipo_de_vl":"Calle","Numeració":"740","Nombre_de":"Manuel Montt","POINT_X":-73.1558652224,"POINT_Y":-37.0144056172}},
{"type":"Feature","geometry":{"type":"Point","coordinates":[-72.93909959602318,-36.97610914781824]},"properties":{"CUT_REG":"08","CUT_PROV":"081","CUT_COM":"08105","REGION":"Biobío","PROVINCIA":"Concepción","COMUNA":"Hualqui","COD_CUEN":"083","COD_SUBC":"0839","COD_SSUBC":"08393","NOM_SSUBC":"Rio Bio-Bio Entre Estero Quilacoya y Bajo Estero Hualqui","Nombre_del":"Hualqui","Tipo_de_vl":"","Numeració":"451","Nombre_de":"La Concepción","POINT_X":-72.939099596,"POINT_Y":-36.9761091478}},
{"type":"Feature","geometry":{"type":"Point","coordinates":[-72.10257044056766,-36.975105541980966]},"properties":{"CUT_REG":"16","CUT_PROV":"161","CUT_COM":"16105","REGION":"Ñuble","PROVINCIA":"Diguillín","COMUNA":"Pemuco","COD_CUEN":"081","COD_SUBC":"0813","COD_SSUBC":"08132","NOM_SSUBC":"Rio Dinguillin Entre Estero Danguileo y Rio Itata","Nombre_del":"Pemuco","Tipo_de_vl":"Calle","Numeració":"333","Nombre_de":"Padre Jorge Herrera Sepúlveda","POINT_X":-72.1025704406,"POINT_Y":-36.975105542}},
{"type":"Feature","geometry":{"type":"Point","coordinates":[-73.02922765577422,-36.91211701556037]},"properties":{"CUT_REG":"08","CUT_PROV":"081","CUT_COM":"08103","REGION":"Biobío","PROVINCIA":"Concepción","COMUNA":"Chiguayante","COD_CUEN":"083","COD_SUBC":"0839","COD_SSUBC":"08394","NOM_SSUBC":"Rio Bio-Bio Entre Estero Hualqui y Desembocadura","Nombre_del":"Chiguayante","Tipo_de_vl":"","Numeració":"714","Nombre_de":"Pedro Angulo Novoa","POINT_X":-73.0292276558,"POINT_Y":-36.9121170156}},
{"type":"Feature","geometry":{"type":"Point","coordinates":[-72.02561833013179,-36.89950387304895]},"properties":{"CUT_REG":"16","CUT_PROV":"161","CUT_COM":"16104","REGION":"Ñuble","PROVINCIA":"Diguillín","COMUNA":"El Carmen","COD_CUEN":"081","COD_SUBC":"0813","COD_SSUBC":"08131","NOM_SSUBC":"Rio Diguillin entre Rio Renegado y bajo junta E. Danquileo","Nombre_del":"El Carmen","Tipo_de_vl":"Calle","Numeració":"550","Nombre_de":"Manuel Rodríguez","POINT_X":-72.0256183301,"POINT_Y":-36.899503873}},
{"type":"Feature","geometry":{"type":"Point","coordinates":[-73.10432481779549,-36.84315022749574]},"properties":{"CUT_REG":"08","CUT_PROV":"081","CUT_COM":"08108","REGION":"Biobío","PROVINCIA":"Concepción","COMUNA":"San Pedro de la Paz","COD_CUEN":"083","COD_SUBC":"0839","COD_SSUBC":"08394","NOM_SSUBC":"Rio Bio-Bio Entre Estero Hualqui y Desembocadura","Nombre_del":"San Pedro de La Paz","Tipo_de_vl":"Calle","Numeració":"S/n","Nombre_de":"Los Mañíos","POINT_X":-73.1043248178,"POINT_Y":-36.8431502275}},
{"type":"Feature","geometry":{"type":"Point","coordinates":[-73.04221157718922,-36.82808724384681]},"properties":{"CUT_REG":"08","CUT_PROV":"081","CUT_COM":"08101","REGION":"Biobío","PROVINCIA":"Concepción","COMUNA":"Concepción","COD_CUEN":"083","COD_SUBC":"0839","COD_SSUBC":"08394","NOM_SSUBC":"Rio Bio-Bio Entre Estero Hualqui y Desembocadura","Nombre_del":"Concepción","Tipo_de_vl":"Calle","Numeració":"136","Nombre_de":"Orompello","POINT_X":-73.0422115772,"POINT_Y":-36.8280872438}},
{"type":"Feature","geometry":{"type":"Point","coordinates":[-72.66199652657536,-36.82631962333934]},"properties":{"CUT_REG":"08","CUT_PROV":"081","CUT_COM":"08104","REGION":"Biobío","PROVINCIA":"Concepción","COMUNA":"Florida","COD_CUEN":"082","COD_SUBC":"0822","COD_SSUBC":"08220","NOM_SSUBC":"Rio Andalien","Nombre_del":"Florida","Tipo_de_vl":"Calle","Numeració":"602","Nombre_de":"Ortiz De Rozas","POINT_X":-72.6619965266,"POINT_Y":-36.8263196233}},
{"type":"Feature","geometry":{"type":"Point","coordinates":[-72.03277011658382,-36.798459063660665]},"properties":{"CUT_REG":"16","CUT_PROV":"161","CUT_COM":"16108","REGION":"Ñuble","PROVINCIA":"Diguillín","COMUNA":"San Ignacio","COD_CUEN":"081","COD_SUBC":"0813","COD_SSUBC":"08134","NOM_SSUBC":"Rio Larqui","Nombre_del":"San Ignacio","Tipo_de_vl":"Calle","Numeració":"509","Nombre_de":"Alcalde Remberto Váldes","POINT_X":-72.0327701166,"POINT_Y":-36.7984590637}},
{"type":"Feature","geometry":{"type":"Point","coordinates":[-73.1023064415903,-36.78335837375495]},"properties":{"CUT_REG":"08","CUT_PROV":"081","CUT_COM":"08112","REGION":"Biobío","PROVINCIA":"Concepción","COMUNA":"Hualpén","COD_CUEN":"083","COD_SUBC":"0839","COD_SSUBC":"08394","NOM_SSUBC":"Rio Bio-Bio Entre Estero Hualqui y Desembocadura","Nombre_del":"Hualpén","Tipo_de_vl":"Avenida","Numeració":"2828","Nombre_de":"Alemania","POINT_X":-73.1023064416,"POINT_Y":-36.7833583738}},
{"type":"Feature","geometry":{"type":"Point","coordinates":[-72.47527943609097,-36.74441794676935]},"properties":{"CUT_REG":"16","CUT_PROV":"161","CUT_COM":"16107","REGION":"Ñuble","PROVINCIA":"Diguillín","COMUNA":"Quillón","COD_CUEN":"081","COD_SUBC":"0813","COD_SSUBC":"08135","NOM_SSUBC":"Rio Itata entre Estero Coyanco y Rio ¥uble","Nombre_del":"Quillón","Tipo_de_vl":"Avenida","Numeració":"344","Nombre_de":"Cayumanquei","POINT_X":-72.4752794361,"POINT_Y":-36.7444179468}},
{"type":"Feature","geometry":{"type":"Point","coordinates":[-72.29893464485534,-36.74420114841702]},"properties":{"CUT_REG":"16","CUT_PROV":"161","CUT_COM":"16102","REGION":"Ñuble","PROVINCIA":"Diguillín","COMUNA":"Bulnes","COD_CUEN":"081","COD_SUBC":"0813","COD_SSUBC":"08134","NOM_SSUBC":"Rio Larqui","Nombre_del":"Bulnes","Tipo_de_vl":"Calle","Numeració":"225","Nombre_de":"Manuel Bulnes","POINT_X":-72.2989346449,"POINT_Y":-36.7442011484}},
{"type":"Feature","geometry":{"type":"Point","coordinates":[-72.99882458448977,-36.738975512627064]},"properties":{"CUT_REG":"08","CUT_PROV":"081","CUT_COM":"08107","REGION":"Biobío","PROVINCIA":"Concepción","COMUNA":"Penco","COD_CUEN":"082","COD_SUBC":"0822","COD_SSUBC":"08220","NOM_SSUBC":"Rio Andalien","Nombre_del":"Penco","Tipo_de_vl":"","Numeració":"202","Nombre_de":"Freire","POINT_X":-72.9988245845,"POINT_Y":-36.7389755126}},
{"type":"Feature","geometry":{"type":"Point","coordinates":[-73.10939601758758,-36.716743810000146]},"properties":{"CUT_REG":"08","CUT_PROV":"081","CUT_COM":"08110","REGION":"Biobío","PROVINCIA":"Concepción","COMUNA":"Talcahuano","COD_CUEN":"082","COD_SUBC":"0823","COD_SSUBC":"08230","NOM_SSUBC":"Costeras entre Rio Andalien y Rio Bio-Bio","Nombre_del":"Talcahuano","Tipo_de_vl":"","Numeració":"156","Nombre_de":"Calle David Fuentes","POINT_X":-73.1093960176,"POINT_Y":-36.71674381}},
{"type":"Feature","geometry":{"type":"Point","coordinates":[-71.89411805474327,-36.70653270983669]},"properties":{"CUT_REG":"16","CUT_PROV":"161","CUT_COM":"16106","REGION":"Ñuble","PROVINCIA":"Diguillín","COMUNA":"Pinto","COD_CUEN":"081","COD_SUBC":"0811","COD_SSUBC":"08117","NOM_SSUBC":"Rio Chillan Entre Estero Peladillas y Rio ¥uble","Nombre_del":"Pinto","Tipo_de_vl":"","Numeració":"S/n","Nombre_de":"Ernesto Riquelme","POINT_X":-71.8941180547,"POINT_Y":-36.7065327098}},
{"type":"Feature","geometry":{"type":"Point","coordinates":[-71.83109144533215,-36.62780280906222]},"properties":{"CUT_REG":"16","CUT_PROV":"163","CUT_COM":"16302","REGION":"Ñuble","PROVINCIA":"Punilla","COMUNA":"Coihueco","COD_CUEN":"081","COD_SUBC":"0811","COD_SSUBC":"08113","NOM_SSUBC":"Rio Cato entre arriba Rio Niblinta y bajo junta E.Coihueco","Nombre_del":"Coihueco","Tipo_de_vl":"Calle","Numeració":"1432","Nombre_de":"Luis Hermosilla","POINT_X":-71.8310914453,"POINT_Y":-36.6278028091}},
{"type":"Feature","geometry":{"type":"Point","coordinates":[-72.95794083424852,-36.619322621175556]},"properties":{"CUT_REG":"08","CUT_PROV":"081","CUT_COM":"08111","REGION":"Biobío","PROVINCIA":"Concepción","COMUNA":"Tomé","COD_CUEN":"082","COD_SUBC":"0821","COD_SSUBC":"08210","NOM_SSUBC":"Costeras entre Rio Pingueral y Rio Andalien","Nombre_del":"Tomé","Tipo_de_vl":"","Numeració":"1095","Nombre_de":"Ignacio Serrano","POINT_X":-72.9579408342,"POINT_Y":-36.6193226212}},
{"type":"Feature","geometry":{"type":"Point","coordinates":[-72.1051487653672,-36.60850535336944]},"properties":{"CUT_REG":"16","CUT_PROV":"161","CUT_COM":"16101","REGION":"Ñuble","PROVINCIA":"Diguillín","COMUNA":"Chillán","COD_CUEN":"081","COD_SUBC":"0811","COD_SSUBC":"08117","NOM_SSUBC":"Rio Chillan Entre Estero Peladillas y Rio ¥uble","Nombre_del":"Chillán","Tipo_de_vl":"","Numeració":"490","Nombre_de":"El Roble","POINT_X":-72.1051487654,"POINT_Y":-36.6085053534}},
{"type":"Feature","geometry":{"type":"Point","coordinates":[-72.534649685614,-36.60601389476388]},"properties":{"CUT_REG":"16","CUT_PROV":"162","CUT_COM":"16206","REGION":"Ñuble","PROVINCIA":"Itata","COMUNA":"Ranquil","COD_CUEN":"081","COD_SUBC":"0814","COD_SSUBC":"08140","NOM_SSUBC":"Rio Itata Entre Rio ¥uble Bajo Estero Chudal","Nombre_del":"Ñipas","Tipo_de_vl":"Calle","Numeració":"540","Nombre_de":"Barros Luco","POINT_X":-72.5346496856,"POINT_Y":-36.6060138948}},
{"type":"Feature","geometry":{"type":"Point","coordinates":[-72.42635973805568,-36.52737606334396]},"properties":{"CUT_REG":"16","CUT_PROV":"162","CUT_COM":"16205","REGION":"Ñuble","PROVINCIA":"Itata","COMUNA":"Portezuelo","COD_CUEN":"081","COD_SUBC":"0814","COD_SSUBC":"08143","NOM_SSUBC":"Rio Lonquen Entre Arriba Estero Itrinque y Bajo Estero Corontas","Nombre_del":"Portezuelo","Tipo_de_vl":"Calle","Numeració":"361","Nombre_de":"Pedro De Valdivia","POINT_X":-72.4263597381,"POINT_Y":-36.5273760633}},
{"type":"Feature","geometry":{"type":"Point","coordinates":[-72.21322514778802,-36.50370251799582]},"properties":{"CUT_REG":"16","CUT_PROV":"163","CUT_COM":"16305","REGION":"Ñuble","PROVINCIA":"Punilla","COMUNA":"San Nicolás","COD_CUEN":"081","COD_SUBC":"0811","COD_SSUBC":"08118","NOM_SSUBC":"Rio Changaral","Nombre_del":"San Nicolás","Tipo_de_vl":"Calle","Numeració":"95","Nombre_de":"Balmaceda","POINT_X":-72.2132251478,"POINT_Y":-36.503702518}},
{"type":"Feature","geometry":{"type":"Point","coordinates":[-72.70507652319915,-36.4894186414134]},"properties":{"CUT_REG":"16","CUT_PROV":"162","CUT_COM":"16203","REGION":"Ñuble","PROVINCIA":"Itata","COMUNA":"Coelemu","COD_CUEN":"081","COD_SUBC":"0814","COD_SSUBC":"08141","NOM_SSUBC":"Rio Itata Entre Estero Chudal y Rio Lonquen","Nombre_del":"Coelemu","Tipo_de_vl":"","Numeració":"450","Nombre_de":"Manuel Antonio Matta","POINT_X":-72.7050765232,"POINT_Y":-36.4894186414}},
{"type":"Feature","geometry":{"type":"Point","coordinates":[-72.67103692126219,-36.430084122868195]},"properties":{"CUT_REG":"16","CUT_PROV":"162","CUT_COM":"16207","REGION":"Ñuble","PROVINCIA":"Itata","COMUNA":"Treguaco","COD_CUEN":"081","COD_SUBC":"0814","COD_SSUBC":"08144","NOM_SSUBC":"Rio Lonquen Entre Estero Corontas y Rio Itata","Nombre_del":"Trehuaco","Tipo_de_vl":"","Numeració":"S/n","Nombre_de":"Juan Mackenna","POINT_X":-72.6710369213,"POINT_Y":-36.4300841229}},
{"type":"Feature","geometry":{"type":"Point","coordinates":[-71.95776627761592,-36.42410582212024]},"properties":{"CUT_REG":"16","CUT_PROV":"163","CUT_COM":"16301","REGION":"Ñuble","PROVINCIA":"Punilla","COMUNA":"San Carlos","COD_CUEN":"081","COD_SUBC":"0811","COD_SSUBC":"08118","NOM_SSUBC":"Rio Changaral","Nombre_del":"San Carlos","Tipo_de_vl":"","Numeració":"450","Nombre_de":"Vicuña Mackenna","POINT_X":-71.9577662776,"POINT_Y":-36.4241058221}},
{"type":"Feature","geometry":{"type":"Point","coordinates":[-72.3980970322265,-36.39296200775682]},"properties":{"CUT_REG":"16","CUT_PROV":"162","CUT_COM":"16204","REGION":"Ñuble","PROVINCIA":"Itata","COMUNA":"Ninhue","COD_CUEN":"081","COD_SUBC":"0814","COD_SSUBC":"08142","NOM_SSUBC":"Rio Lonquen Hasta Estero Itrinque","Nombre_del":"Ninhue","Tipo_de_vl":"","Numeració":"333","Nombre_de":"Héroes De La Concepción","POINT_X":-72.3980970322,"POINT_Y":-36.3929620078}},
{"type":"Feature","geometry":{"type":"Point","coordinates":[-72.54108503442004,-36.283586860124075]},"properties":{"CUT_REG":"16","CUT_PROV":"162","CUT_COM":"16201","REGION":"Ñuble","PROVINCIA":"Itata","COMUNA":"Quirihue","COD_CUEN":"080","COD_SUBC":"0800","COD_SSUBC":"08000","NOM_SSUBC":"Costeras Entre Limite Region y Rio Taucu (Incluido)","Nombre_del":"Quirihue","Tipo_de_vl":"Calle","Numeració":"580","Nombre_de":"Independencia","POINT_X":-72.5410850344,"POINT_Y":-36.2835868601}},
{"type":"Feature","geometry":{"type":"Point","coordinates":[-71.81660908460123,-36.28202119815849]},"properties":{"CUT_REG":"16","CUT_PROV":"163","CUT_COM":"16303","REGION":"Ñuble","PROVINCIA":"Punilla","COMUNA":"Ñiquén","COD_CUEN":"073","COD_SUBC":"0733","COD_SSUBC":"07332","NOM_SSUBC":"Rio Perquilauquen entre Rio Cato y Rio Niquen","Nombre_del":"Ñiquén","Tipo_de_vl":"Calle","Numeració":"143","Nombre_de":"Ernesto Zúñiga","POINT_X":-71.8166090846,"POINT_Y":-36.2820211982}},
{"type":"Feature","geometry":{"type":"Point","coordinates":[-71.82491026161989,-36.140014593078504]},"properties":{"CUT_REG":"07","CUT_PROV":"074","CUT_COM":"07404","REGION":"Maule","PROVINCIA":"Linares","COMUNA":"Parral","COD_CUEN":"073","COD_SUBC":"0734","COD_SSUBC":"07345","NOM_SSUBC":"Estero Torreon","Nombre_del":"Parral","Tipo_de_vl":"Calle","Numeració":"345","Nombre_de":"Igualdad","POINT_X":-71.8249102616,"POINT_Y":-36.1400145931}},
{"type":"Feature","geometry":{"type":"Point","coordinates":[-72.78749665460785,-36.130466619692]},"properties":{"CUT_REG":"16","CUT_PROV":"162","CUT_COM":"16202","REGION":"Ñuble","PROVINCIA":"Itata","COMUNA":"Cobquecura","COD_CUEN":"080","COD_SUBC":"0800","COD_SSUBC":"08000","NOM_SSUBC":"Costeras Entre Limite Region y Rio Taucu (Incluido)","Nombre_del":"Cobquecura","Tipo_de_vl":"","Numeració":"43","Nombre_de":"Independencia","POINT_X":-72.7874966546,"POINT_Y":-36.1304666197}},
{"type":"Feature","geometry":{"type":"Point","coordinates":[-71.7609800410307,-36.05211704693372]},"properties":{"CUT_REG":"07","CUT_PROV":"074","CUT_COM":"07405","REGION":"Maule","PROVINCIA":"Linares","COMUNA":"Retiro","COD_CUEN":"073","COD_SUBC":"0734","COD_SSUBC":"07346","NOM_SSUBC":"Rio Perquilauquen Entre Estero Torreon y Rio Longavi","Nombre_del":"Retiro","Tipo_de_vl":"Avenida","Numeració":"460","Nombre_de":"Errázuriz","POINT_X":-71.760980041,"POINT_Y":-36.0521170469}},
{"type":"Feature","geometry":{"type":"Point","coordinates":[-72.32154018358246,-35.96777467862019]},"properties":{"CUT_REG":"07","CUT_PROV":"072","CUT_COM":"07201","REGION":"Maule","PROVINCIA":"Cauquenes","COMUNA":"Cauquenes","COD_CUEN":"073","COD_SUBC":"0733","COD_SSUBC":"07336","NOM_SSUBC":"Rio Cauquenes hasta junta Rio Tutuven","Nombre_del":"Cauquenes","Tipo_de_vl":"Calle","Numeració":"885","Nombre_de":"Victoria","POINT_X":-72.3215401836,"POINT_Y":-35.9677746786}},
{"type":"Feature","geometry":{"type":"Point","coordinates":[-71.68543631888349,-35.966500447735555]},"properties":{"CUT_REG":"07","CUT_PROV":"074","CUT_COM":"07403","REGION":"Maule","PROVINCIA":"Linares","COMUNA":"Longaví","COD_CUEN":"073","COD_SUBC":"0735","COD_SSUBC":"07351","NOM_SSUBC":"Rio Longavi Entre Rio Bullileo y Rio Loncomilla (excepto Rio Liguay)","Nombre_del":"Longaví","Tipo_de_vl":"Calle","Numeració":"184","Nombre_de":"Uno Sur","POINT_X":-71.6854363189,"POINT_Y":-35.9665004477}},
{"type":"Feature","geometry":{"type":"Point","coordinates":[-71.60104914277488,-35.84797519429928]},"properties":{"CUT_REG":"07","CUT_PROV":"074","CUT_COM":"07401","REGION":"Maule","PROVINCIA":"Linares","COMUNA":"Linares","COD_CUEN":"073","COD_SUBC":"0735","COD_SSUBC":"07357","NOM_SSUBC":"Rio Loncomilla entre Rio Longavi y Rio Putagan","Nombre_del":"Linares","Tipo_de_vl":"Calle","Numeració":"199","Nombre_de":"Valentín Letelier Y Freire","POINT_X":-71.6010491428,"POINT_Y":-35.8479751943}},
{"type":"Feature","geometry":{"type":"Point","coordinates":[-72.57331008988908,-35.81166491753645]},"properties":{"CUT_REG":"07","CUT_PROV":"072","CUT_COM":"07203","REGION":"Maule","PROVINCIA":"Cauquenes","COMUNA":"Pelluhue","COD_CUEN":"074","COD_SUBC":"0744","COD_SSUBC":"07440","NOM_SSUBC":"Costeras Entre Rio Curanilahue y Limite Region (Estero Pullay)","Nombre_del":"Pelluhue","Tipo_de_vl":"","Numeració":"160","Nombre_de":"Miguel Grau","POINT_X":-72.5733100899,"POINT_Y":-35.8116649175}},
{"type":"Feature","geometry":{"type":"Point","coordinates":[-71.58404942971035,-35.748297276346236]},"properties":{"CUT_REG":"07","CUT_PROV":"074","CUT_COM":"07408","REGION":"Maule","PROVINCIA":"Linares","COMUNA":"Yerbas Buenas","COD_CUEN":"073","COD_SUBC":"0735","COD_SSUBC":"07358","NOM_SSUBC":"Rio Putagan","Nombre_del":"Yerbas Buenas","Tipo_de_vl":"Avenida","Numeració":"66","Nombre_de":"Centenario","POINT_X":-71.5840494297,"POINT_Y":-35.7482972763}},
{"type":"Feature","geometry":{"type":"Point","coordinates":[-72.5343358265423,-35.73701958660647]},"properties":{"CUT_REG":"07","CUT_PROV":"072","CUT_COM":"07202","REGION":"Maule","PROVINCIA":"Cauquenes","COMUNA":"Chanco","COD_CUEN":"074","COD_SUBC":"0742","COD_SSUBC":"07420","NOM_SSUBC":"Costeras entre Rio Reloca y Rio Curanilahue","Nombre_del":"Chanco","Tipo_de_vl":"Calle","Numeració":"53","Nombre_de":"Teniente Merino","POINT_X":-72.5343358265,"POINT_Y":-35.7370195866}},
{"type":"Feature","geometry":{"type":"Point","coordinates":[-71.40372224211642,-35.69697467091318]},"properties":{"CUT_REG":"07","CUT_PROV":"074","CUT_COM":"07402","REGION":"Maule","PROVINCIA":"Linares","COMUNA":"Colbún","COD_CUEN":"073","COD_SUBC":"0735","COD_SSUBC":"07358","NOM_SSUBC":"Rio Putagan","Nombre_del":"Colbún","Tipo_de_vl":"Calle","Numeració":"184","Nombre_de":"Adolfo Novoa","POINT_X":-71.4037222421,"POINT_Y":-35.6969746709}},
{"type":"Feature","geometry":{"type":"Point","coordinates":[-71.74012857618067,-35.68111324588119]},"properties":{"CUT_REG":"07","CUT_PROV":"074","CUT_COM":"07407","REGION":"Maule","PROVINCIA":"Linares","COMUNA":"Villa Alegre","COD_CUEN":"073","COD_SUBC":"0735","COD_SSUBC":"07359","NOM_SSUBC":"Rio Loncomilla entre Rio Putagan y Rio Maule","Nombre_del":"Villa Alegre","Tipo_de_vl":"Avenida","Numeració":"939","Nombre_de":"Abate Molina","POINT_X":-71.7401285762,"POINT_Y":-35.6811132459}},
{"type":"Feature","geometry":{"type":"Point","coordinates":[-71.73203356680318,-35.59593975144729]},"properties":{"CUT_REG":"07","CUT_PROV":"074","CUT_COM":"07406","REGION":"Maule","PROVINCIA":"Linares","COMUNA":"San Javier","COD_CUEN":"073","COD_SUBC":"0735","COD_SSUBC":"07359","NOM_SSUBC":"Rio Loncomilla entre Rio Putagan y Rio Maule","Nombre_del":"San Javier","Tipo_de_vl":"Calle","Numeració":"2465","Nombre_de":"Loncomilla","POINT_X":-71.7320335668,"POINT_Y":-35.5959397514}},
{"type":"Feature","geometry":{"type":"Point","coordinates":[-72.27341903819935,-35.58788501596664]},"properties":{"CUT_REG":"07","CUT_PROV":"071","CUT_COM":"07104","REGION":"Maule","PROVINCIA":"Talca","COMUNA":"Empedrado","COD_CUEN":"074","COD_SUBC":"0741","COD_SSUBC":"07410","NOM_SSUBC":"Costeras entre Rio Reloca y Estero Empedrado","Nombre_del":"Empedrado","Tipo_de_vl":"","Numeració":"274","Nombre_de":"Bernardo O Higgins","POINT_X":-72.2734190382,"POINT_Y":-35.587885016}},
{"type":"Feature","geometry":{"type":"Point","coordinates":[-71.47948352317533,-35.536511973695056]},"properties":{"CUT_REG":"07","CUT_PROV":"071","CUT_COM":"07109","REGION":"Maule","PROVINCIA":"Talca","COMUNA":"San Clemente","COD_CUEN":"073","COD_SUBC":"0737","COD_SSUBC":"07376","NOM_SSUBC":"Rio Lircay Entre Estero Picazo y Rio Claro","Nombre_del":"San Clemente","Tipo_de_vl":"Avenida","Numeració":"1125","Nombre_de":"Huamachuco","POINT_X":-71.4794835232,"POINT_Y":-35.5365119737}},
{"type":"Feature","geometry":{"type":"Point","coordinates":[-71.68861075110769,-35.51891584563758]},"properties":{"CUT_REG":"07","CUT_PROV":"071","CUT_COM":"07105","REGION":"Maule","PROVINCIA":"Talca","COMUNA":"Maule","COD_CUEN":"073","COD_SUBC":"0737","COD_SSUBC":"07379","NOM_SSUBC":"Rio Claro Entre Estero Piduco y Rio Maule","Nombre_del":"Maule","Tipo_de_vl":"Calle","Numeració":"S/n","Nombre_de":"Serrano","POINT_X":-71.6886107511,"POINT_Y":-35.5189158456}},
{"type":"Feature","geometry":{"type":"Point","coordinates":[-71.65989014980683,-35.42893088218251]},"properties":{"CUT_REG":"07","CUT_PROV":"071","CUT_COM":"07101","REGION":"Maule","PROVINCIA":"Talca","COMUNA":"Talca","COD_CUEN":"073","COD_SUBC":"0737","COD_SSUBC":"07378","NOM_SSUBC":"Estero Piduco","Nombre_del":"Talca","Tipo_de_vl":"Avenida","Numeració":"1160","Nombre_de":"Dos Sur","POINT_X":-71.6598901498,"POINT_Y":-35.4289308822}},
{"type":"Feature","geometry":{"type":"Point","coordinates":[-71.80688245121203,-35.39064970730857]},"properties":{"CUT_REG":"07","CUT_PROV":"071","CUT_COM":"07107","REGION":"Maule","PROVINCIA":"Talca","COMUNA":"Pencahue","COD_CUEN":"073","COD_SUBC":"0738","COD_SSUBC":"07381","NOM_SSUBC":"Estero Los Puercos Entre Bajo Rio Tutucura y Rio Maule","Nombre_del":"Pencahue","Tipo_de_vl":"","Numeració":"1095","Nombre_de":"Hernando Bravo De Villalba","POINT_X":-71.8068824512,"POINT_Y":-35.3906497073}},
{"type":"Feature","geometry":{"type":"Point","coordinates":[-71.4462806543988,-35.38448050270176]},"properties":{"CUT_REG":"07","CUT_PROV":"071","CUT_COM":"07106","REGION":"Maule","PROVINCIA":"Talca","COMUNA":"Pelarco","COD_CUEN":"073","COD_SUBC":"0737","COD_SSUBC":"07373","NOM_SSUBC":"Estero El Pangue","Nombre_del":"Pelarco","Tipo_de_vl":"","Numeració":"S/n","Nombre_de":"Calle San Pedro","POINT_X":-71.4462806544,"POINT_Y":-35.3844805027}},
{"type":"Feature","geometry":{"type":"Point","coordinates":[-72.4081125427333,-35.333036143029304]},"properties":{"CUT_REG":"07","CUT_PROV":"071","CUT_COM":"07102","REGION":"Maule","PROVINCIA":"Talca","COMUNA":"Constitución","COD_CUEN":"073","COD_SUBC":"0738","COD_SSUBC":"07384","NOM_SSUBC":"Rio Maule Entre Estero Las Vegas y Desembocadura","Nombre_del":"Constitución","Tipo_de_vl":"","Numeració":"380","Nombre_de":"Vial Esq O Higgins","POINT_X":-72.4081125427,"POINT_Y":-35.333036143}},
{"type":"Feature","geometry":{"type":"Point","coordinates":[-71.51409531302625,-35.30542862174727]},"properties":{"CUT_REG":"07","CUT_PROV":"071","CUT_COM":"07110","REGION":"Maule","PROVINCIA":"Talca","COMUNA":"San Rafael","COD_CUEN":"073","COD_SUBC":"0737","COD_SSUBC":"07372","NOM_SSUBC":"Rio Claro Entre Estero Carreton y Estero El Pangue","Nombre_del":"San Rafael","Tipo_de_vl":"","Numeració":"450","Nombre_de":"Calle Ignacio Bascuñan","POINT_X":-71.514095313,"POINT_Y":-35.3054286217}},
{"type":"Feature","geometry":{"type":"Point","coordinates":[-71.25745244635232,-35.28165809463668]},"properties":{"CUT_REG":"07","CUT_PROV":"071","CUT_COM":"07108","REGION":"Maule","PROVINCIA":"Talca","COMUNA":"Río Claro","COD_CUEN":"073","COD_SUBC":"0737","COD_SSUBC":"07373","NOM_SSUBC":"Estero El Pangue","Nombre_del":"Cumpeo","Tipo_de_vl":"","Numeració":"S/n","Nombre_de":"Casimiro Sepúlveda","POINT_X":-71.2574524464,"POINT_Y":-35.2816580946}},
{"type":"Feature","geometry":{"type":"Point","coordinates":[-71.28144375378722,-35.112886163454206]},"properties":{"CUT_REG":"07","CUT_PROV":"073","CUT_COM":"07304","REGION":"Maule","PROVINCIA":"Curicó","COMUNA":"Molina","COD_CUEN":"071","COD_SUBC":"0711","COD_SSUBC":"07117","NOM_SSUBC":"Rio Lontue Entre Junta Rios Colorado y Palos y Estero Guaiquillo","Nombre_del":"Molina","Tipo_de_vl":"","Numeració":"1757","Nombre_de":"Independencia","POINT_X":-71.2814437538,"POINT_Y":-35.1128861635}},
{"type":"Feature","geometry":{"type":"Point","coordinates":[-72.0168212884088,-35.09381836371115]},"properties":{"CUT_REG":"07","CUT_PROV":"071","CUT_COM":"07103","REGION":"Maule","PROVINCIA":"Talca","COMUNA":"Curepto","COD_CUEN":"071","COD_SUBC":"0712","COD_SSUBC":"07124","NOM_SSUBC":"Estero Curepto","Nombre_del":"Curepto","Tipo_de_vl":"","Numeració":"1","Nombre_de":"Rvdo José Cappel","POINT_X":-72.0168212884,"POINT_Y":-35.0938183637}},
{"type":"Feature","geometry":{"type":"Point","coordinates":[-71.37931450357884,-35.00055888211669]},"properties":{"CUT_REG":"07","CUT_PROV":"073","CUT_COM":"07307","REGION":"Maule","PROVINCIA":"Curicó","COMUNA":"Sagrada Familia","COD_CUEN":"071","COD_SUBC":"0711","COD_SSUBC":"07119","NOM_SSUBC":"Rio Lontue Entre Estero Guaiquillo y Rio Teno","Nombre_del":"Sagrada Familia","Tipo_de_vl":"Avenida","Numeració":"15","Nombre_de":"Esmeralda","POINT_X":-71.3793145036,"POINT_Y":-35.0005588821}},
{"type":"Feature","geometry":{"type":"Point","coordinates":[-71.98384107275311,-34.98565832041628]},"properties":{"CUT_REG":"07","CUT_PROV":"073","CUT_COM":"07303","REGION":"Maule","PROVINCIA":"Curicó","COMUNA":"Licantén","COD_CUEN":"071","COD_SUBC":"0712","COD_SSUBC":"07123","NOM_SSUBC":"Rio Mataquito Entre Estero La Pellana y Estero Curepto","Nombre_del":"Licantén","Tipo_de_vl":"","Numeració":"162","Nombre_de":"Alejandro Rojas","POINT_X":-71.9838410728,"POINT_Y":-34.9856583204}},
{"type":"Feature","geometry":{"type":"Point","coordinates":[-71.2370677019616,-34.98368761501847]},"properties":{"CUT_REG":"07","CUT_PROV":"073","CUT_COM":"07301","REGION":"Maule","PROVINCIA":"Curicó","COMUNA":"Curicó","COD_CUEN":"071","COD_SUBC":"0711","COD_SSUBC":"07118","NOM_SSUBC":"Estero Guaiquillo","Nombre_del":"Curicó","Tipo_de_vl":"","Numeració":"S/n","Nombre_de":"Arturo Prat Y Membrillar","POINT_X":-71.237067702,"POINT_Y":-34.983687615}},
{"type":"Feature","geometry":{"type":"Point","coordinates":[-71.7853211507834,-34.973389198308126]},"properties":{"CUT_REG":"07","CUT_PROV":"073","CUT_COM":"07302","REGION":"Maule","PROVINCIA":"Curicó","COMUNA":"Hualañé","COD_CUEN":"071","COD_SUBC":"0712","COD_SSUBC":"07123","NOM_SSUBC":"Rio Mataquito Entre Estero La Pellana y Estero Curepto","Nombre_del":"Hualañe","Tipo_de_vl":"Avenida","Numeració":"S/n","Nombre_de":"Once De Septiembre","POINT_X":-71.7853211508,"POINT_Y":-34.9733891983}},
{"type":"Feature","geometry":{"type":"Point","coordinates":[-71.12535913808384,-34.96229244424787]},"properties":{"CUT_REG":"07","CUT_PROV":"073","CUT_COM":"07306","REGION":"Maule","PROVINCIA":"Curicó","COMUNA":"Romeral","COD_CUEN":"071","COD_SUBC":"0711","COD_SSUBC":"07118","NOM_SSUBC":"Estero Guaiquillo","Nombre_del":"Romeral","Tipo_de_vl":"","Numeració":"60","Nombre_de":"Oscar Bonilla","POINT_X":-71.1253591381,"POINT_Y":-34.9622924442}},
{"type":"Feature","geometry":{"type":"Point","coordinates":[-71.3186182803988,-34.92733830698583]},"properties":{"CUT_REG":"07","CUT_PROV":"073","CUT_COM":"07305","REGION":"Maule","PROVINCIA":"Curicó","COMUNA":"Rauco","COD_CUEN":"071","COD_SUBC":"0710","COD_SSUBC":"07105","NOM_SSUBC":"Estero Tilicura","Nombre_del":"Rauco","Tipo_de_vl":"Avenida","Numeració":"S/n","Nombre_de":"Avenida Sta María","POINT_X":-71.3186182804,"POINT_Y":-34.927338307}},
{"type":"Feature","geometry":{"type":"Point","coordinates":[-71.99256602446809,-34.884879264683875]},"properties":{"CUT_REG":"07","CUT_PROV":"073","CUT_COM":"07309","REGION":"Maule","PROVINCIA":"Curicó","COMUNA":"Vichuquén","COD_CUEN":"070","COD_SUBC":"0700","COD_SSUBC":"07000","NOM_SSUBC":"Lago Vichuquen","Nombre_del":"Llico","Tipo_de_vl":"Pasaje","Numeració":"295","Nombre_de":"San Antonio","POINT_X":-71.9925660245,"POINT_Y":-34.8848792647}},
{"type":"Feature","geometry":{"type":"Point","coordinates":[-71.16151333344393,-34.870611654388966]},"properties":{"CUT_REG":"07","CUT_PROV":"073","CUT_COM":"07308","REGION":"Maule","PROVINCIA":"Curicó","COMUNA":"Teno","COD_CUEN":"071","COD_SUBC":"0710","COD_SSUBC":"07105","NOM_SSUBC":"Estero Tilicura","Nombre_del":"Teno","Tipo_de_vl":"Avenida","Numeració":"108","Nombre_de":"Comalle","POINT_X":-71.1615133334,"POINT_Y":-34.8706116544}},
{"type":"Feature","geometry":{"type":"Point","coordinates":[-71.27245577292152,-34.728509024230334]},"properties":{"CUT_REG":"06","CUT_PROV":"063","CUT_COM":"06302","REGION":"Libertador General Bernardo O'Higgins","PROVINCIA":"Colchagua","COMUNA":"Chépica","COD_CUEN":"060","COD_SUBC":"0603","COD_SSUBC":"06037","NOM_SSUBC":"Estero Calleuque (de las Toscas) Entre Estero del Zapal y Rio Tinguiririca","Nombre_del":"Chépica","Tipo_de_vl":"Calle","Numeració":"S/n","Nombre_de":"Dieciocho De Septiembre","POINT_X":-71.2724557729,"POINT_Y":-34.7285090242}},
{"type":"Feature","geometry":{"type":"Point","coordinates":[-71.64928203077633,-34.72821297687037]},"properties":{"CUT_REG":"06","CUT_PROV":"063","CUT_COM":"06304","REGION":"Libertador General Bernardo O'Higgins","PROVINCIA":"Colchagua","COMUNA":"Lolol","COD_CUEN":"061","COD_SUBC":"0613","COD_SSUBC":"06131","NOM_SSUBC":"Estero Lolol","Nombre_del":"Lolol","Tipo_de_vl":"Calle","Numeració":"135","Nombre_de":"Los Alerces","POINT_X":-71.6492820308,"POINT_Y":-34.7282129769}},
{"type":"Feature","geometry":{"type":"Point","coordinates":[-71.04174016565287,-34.708136487113755]},"properties":{"CUT_REG":"06","CUT_PROV":"063","CUT_COM":"06303","REGION":"Libertador General Bernardo O'Higgins","PROVINCIA":"Colchagua","COMUNA":"Chimbarongo","COD_CUEN":"060","COD_SUBC":"0603","COD_SSUBC":"06033","NOM_SSUBC":"Estero Chimbarongo Entre Estero Pichihuinco y Embalse Convento Viejo","Nombre_del":"Chimbarongo","Tipo_de_vl":"Calle","Numeració":"13","Nombre_de":"Carmen Larraín","POINT_X":-71.0417401657,"POINT_Y":-34.7081364871}},
{"type":"Feature","geometry":{"type":"Point","coordinates":[-71.20546523826332,-34.65109535359426]},"properties":{"CUT_REG":"06","CUT_PROV":"063","CUT_COM":"06305","REGION":"Libertador General Bernardo O'Higgins","PROVINCIA":"Colchagua","COMUNA":"Nancagua","COD_CUEN":"060","COD_SUBC":"0603","COD_SSUBC":"06031","NOM_SSUBC":"Rio Tinguiririca Entre Lo Moscoso y Estero Chimbarongo","Nombre_del":"Nancagua","Tipo_de_vl":"Avenida","Numeració":"5","Nombre_de":"Armando Jaramillo","POINT_X":-71.2054652383,"POINT_Y":-34.6510953536}},
{"type":"Feature","geometry":{"type":"Point","coordinates":[-71.89953265846646,-34.65032341514616]},"properties":{"CUT_REG":"06","CUT_PROV":"062","CUT_COM":"06206","REGION":"Libertador General Bernardo O'Higgins","PROVINCIA":"Cardenal Caro","COMUNA":"Paredones","COD_CUEN":"061","COD_SUBC":"0614","COD_SSUBC":"06140","NOM_SSUBC":"Costeras Entre Estero Nilahue y Limite Region (Lago Llico)","Nombre_del":"Paredones","Tipo_de_vl":"Avenida","Numeració":"82","Nombre_de":"Doctor Moore","POINT_X":-71.8995326585,"POINT_Y":-34.6503234151}},
{"type":"Feature","geometry":{"type":"Point","coordinates":[-71.36724597268838,-34.639090963457924]},"properties":{"CUT_REG":"06","CUT_PROV":"063","CUT_COM":"06310","REGION":"Libertador General Bernardo O'Higgins","PROVINCIA":"Colchagua","COMUNA":"Santa Cruz","COD_CUEN":"060","COD_SUBC":"0603","COD_SSUBC":"06037","NOM_SSUBC":"Estero Calleuque (de las Toscas) Entre Estero del Zapal y Rio Tinguiririca","Nombre_del":"Santa Cruz","Tipo_de_vl":"","Numeració":"141","Nombre_de":"Díaz Besoaín","POINT_X":-71.3672459727,"POINT_Y":-34.6390909635}},
{"type":"Feature","geometry":{"type":"Point","coordinates":[-71.11873893511572,-34.63725068592446]},"properties":{"CUT_REG":"06","CUT_PROV":"063","CUT_COM":"06308","REGION":"Libertador General Bernardo O'Higgins","PROVINCIA":"Colchagua","COMUNA":"Placilla","COD_CUEN":"060","COD_SUBC":"0603","COD_SSUBC":"06030","NOM_SSUBC":"Rio Tinguiririca entre Rio Claro y Lo Moscoso","Nombre_del":"Placilla","Tipo_de_vl":"Calle","Numeració":"697","Nombre_de":"Miraflores","POINT_X":-71.1187389351,"POINT_Y":-34.6372506859}},
{"type":"Feature","geometry":{"type":"Point","coordinates":[-71.65374875985228,-34.604310372471986]},"properties":{"CUT_REG":"06","CUT_PROV":"063","CUT_COM":"06309","REGION":"Libertador General Bernardo O'Higgins","PROVINCIA":"Colchagua","COMUNA":"Pumanque","COD_CUEN":"061","COD_SUBC":"0613","COD_SSUBC":"06132","NOM_SSUBC":"Estero Nilahue Entre Estero Lolol y Desembocadura","Nombre_del":"Pumanque","Tipo_de_vl":"Avenida","Numeració":"710","Nombre_de":"Rosario","POINT_X":-71.6537487599,"POINT_Y":-34.6043103725}},
{"type":"Feature","geometry":{"type":"Point","coordinates":[-70.98769163573218,-34.58362493445911]},"properties":{"CUT_REG":"06","CUT_PROV":"063","CUT_COM":"06301","REGION":"Libertador General Bernardo O'Higgins","PROVINCIA":"Colchagua","COMUNA":"San Fernando","COD_CUEN":"060","COD_SUBC":"0601","COD_SSUBC":"06016","NOM_SSUBC":"Estero Zamorano hasta Estero Rigolemu","Nombre_del":"San Fernando","Tipo_de_vl":"","Numeració":"615","Nombre_de":"Argomedo","POINT_X":-70.9876916357,"POINT_Y":-34.5836249345}},
{"type":"Feature","geometry":{"type":"Point","coordinates":[-71.47886421783471,-34.47978348112204]},"properties":{"CUT_REG":"06","CUT_PROV":"063","CUT_COM":"06307","REGION":"Libertador General Bernardo O'Higgins","PROVINCIA":"Colchagua","COMUNA":"Peralillo","COD_CUEN":"060","COD_SUBC":"0605","COD_SSUBC":"06051","NOM_SSUBC":"Estero Cadenas Entre Estero Chequen y Embalse Rapel","Nombre_del":"Peralillo","Tipo_de_vl":"Avenida","Numeració":"311","Nombre_de":"Errázuriz","POINT_X":-71.4788642178,"POINT_Y":-34.4797834811}},
{"type":"Feature","geometry":{"type":"Point","coordinates":[-70.94570970676821,-34.44443750729529]},"properties":{"CUT_REG":"06","CUT_PROV":"061","CUT_COM":"06109","REGION":"Libertador General Bernardo O'Higgins","PROVINCIA":"Cachapoal","COMUNA":"Malloa","COD_CUEN":"060","COD_SUBC":"0601","COD_SSUBC":"06017","NOM_SSUBC":"Estero Rigolemu","Nombre_del":"Malloa","Tipo_de_vl":"Avenida","Numeració":"65","Nombre_de":"La Gloria","POINT_X":-70.9457097068,"POINT_Y":-34.4444375073}},
{"type":"Feature","geometry":{"type":"Point","coordinates":[-71.07618538601395,-34.43972158428879]},"properties":{"CUT_REG":"06","CUT_PROV":"061","CUT_COM":"06117","REGION":"Libertador General Bernardo O'Higgins","PROVINCIA":"Cachapoal","COMUNA":"San Vicente","COD_CUEN":"060","COD_SUBC":"0601","COD_SSUBC":"06018","NOM_SSUBC":"Estero Zamorano Entre Estero Rigolemu y Rio Cachapoal","Nombre_del":"San Vicente Tagua Tagua","Tipo_de_vl":"Calle","Numeració":"370","Nombre_de":"Tagua Tagua","POINT_X":-71.076185386,"POINT_Y":-34.4397215843}},
{"type":"Feature","geometry":{"type":"Point","coordinates":[-70.8627715717485,-34.408858847212684]},"properties":{"CUT_REG":"06","CUT_PROV":"061","CUT_COM":"06115","REGION":"Libertador General Bernardo O'Higgins","PROVINCIA":"Cachapoal","COMUNA":"Rengo","COD_CUEN":"060","COD_SUBC":"0601","COD_SSUBC":"06015","NOM_SSUBC":"Rio Claro Entre Estero Tipaume y Rio Cachapoal","Nombre_del":"Rengo","Tipo_de_vl":"Calle","Numeració":"102","Nombre_de":"Errázuriz","POINT_X":-70.8627715717,"POINT_Y":-34.4088588472}},
{"type":"Feature","geometry":{"type":"Point","coordinates":[-71.61757076622288,-34.399605591005106]},"properties":{"CUT_REG":"06","CUT_PROV":"062","CUT_COM":"06204","REGION":"Libertador General Bernardo O'Higgins","PROVINCIA":"Cardenal Caro","COMUNA":"Marchihue","COD_CUEN":"060","COD_SUBC":"0605","COD_SSUBC":"06050","NOM_SSUBC":"Estero Cadenas hasta bajo Estero Chequen","Nombre_del":"Marchigüe","Tipo_de_vl":"Calle","Numeració":"430","Nombre_de":"Carlos Ortiz","POINT_X":-71.6175707662,"POINT_Y":-34.399605591}},
{"type":"Feature","geometry":{"type":"Point","coordinates":[-71.17000610308206,-34.39213141408764]},"properties":{"CUT_REG":"06","CUT_PROV":"061","CUT_COM":"06112","REGION":"Libertador General Bernardo O'Higgins","PROVINCIA":"Cachapoal","COMUNA":"Peumo","COD_CUEN":"060","COD_SUBC":"0601","COD_SSUBC":"06019","NOM_SSUBC":"Estero Cachapoal entre Estero Claro y Central  Rapel","Nombre_del":"Peumo","Tipo_de_vl":"Calle","Numeració":"364","Nombre_de":"Walter Martínez","POINT_X":-71.1700061031,"POINT_Y":-34.3921314141}},
{"type":"Feature","geometry":{"type":"Point","coordinates":[-72.00048513042157,-34.38729553753369]},"properties":{"CUT_REG":"06","CUT_PROV":"062","CUT_COM":"06201","REGION":"Libertador General Bernardo O'Higgins","PROVINCIA":"Cardenal Caro","COMUNA":"Pichilemu","COD_CUEN":"061","COD_SUBC":"0612","COD_SSUBC":"06120","NOM_SSUBC":"Costeras Entre Estero Topocalma y Estero Nilahue","Nombre_del":"Pichilemu","Tipo_de_vl":"","Numeració":"124","Nombre_de":"San Antonio","POINT_X":-72.0004851304,"POINT_Y":-34.3872955375}},
{"type":"Feature","geometry":{"type":"Point","coordinates":[-71.28232268342482,-34.357064475674505]},"properties":{"CUT_REG":"06","CUT_PROV":"061","CUT_COM":"06113","REGION":"Libertador General Bernardo O'Higgins","PROVINCIA":"Cachapoal","COMUNA":"Pichidegua","COD_CUEN":"060","COD_SUBC":"0601","COD_SSUBC":"06019","NOM_SSUBC":"Estero Cachapoal entre Estero Claro y Central  Rapel","Nombre_del":"Pichidegua","Tipo_de_vl":"","Numeració":"17","Nombre_de":"Covadonga","POINT_X":-71.2823226834,"POINT_Y":-34.3570644757}},
{"type":"Feature","geometry":{"type":"Point","coordinates":[-70.9691978313775,-34.35380404071516]},"properties":{"CUT_REG":"06","CUT_PROV":"061","CUT_COM":"06114","REGION":"Libertador General Bernardo O'Higgins","PROVINCIA":"Cachapoal","COMUNA":"Quinta de Tilcoco","COD_CUEN":"060","COD_SUBC":"0601","COD_SSUBC":"06015","NOM_SSUBC":"Rio Claro Entre Estero Tipaume y Rio Cachapoal","Nombre_del":"Quinta Tilcoco","Tipo_de_vl":"Avenida","Numeració":"583","Nombre_de":"German Castro","POINT_X":-70.9691978314,"POINT_Y":-34.3538040407}},
{"type":"Feature","geometry":{"type":"Point","coordinates":[-71.07939777316854,-34.29213632404334]},"properties":{"CUT_REG":"06","CUT_PROV":"061","CUT_COM":"06104","REGION":"Libertador General Bernardo O'Higgins","PROVINCIA":"Cachapoal","COMUNA":"Coltauco","COD_CUEN":"060","COD_SUBC":"0601","COD_SSUBC":"06012","NOM_SSUBC":"Rio Cachapoal Entre Estero Las Cadenas y Rio Claro (de Rengo)","Nombre_del":"Coltauco","Tipo_de_vl":"Avenida","Numeració":"282","Nombre_de":"Bernardo O Higgins","POINT_X":-71.0793977732,"POINT_Y":-34.292136324}},
{"type":"Feature","geometry":{"type":"Point","coordinates":[-71.3089784456298,-34.29117282785259]},"properties":{"CUT_REG":"06","CUT_PROV":"061","CUT_COM":"06107","REGION":"Libertador General Bernardo O'Higgins","PROVINCIA":"Cachapoal","COMUNA":"Las Cabras","COD_CUEN":"060","COD_SUBC":"0601","COD_SSUBC":"06019","NOM_SSUBC":"Estero Cachapoal entre Estero Claro y Central  Rapel","Nombre_del":"Las Cabras","Tipo_de_vl":"Avenida","Numeració":"835","Nombre_de":"San Martín","POINT_X":-71.3089784456,"POINT_Y":-34.2911728279}},
{"type":"Feature","geometry":{"type":"Point","coordinates":[-70.81778595761531,-34.28435469111056]},"properties":{"CUT_REG":"06","CUT_PROV":"061","CUT_COM":"06116","REGION":"Libertador General Bernardo O'Higgins","PROVINCIA":"Cachapoal","COMUNA":"Requínoa","COD_CUEN":"060","COD_SUBC":"0601","COD_SSUBC":"06014","NOM_SSUBC":"Estero Tipaume","Nombre_del":"Requínoa","Tipo_de_vl":"Calle","Numeració":"185","Nombre_de":"Guillermo Shell Norte","POINT_X":-70.8177859576,"POINT_Y":-34.2843546911}},
{"type":"Feature","geometry":{"type":"Point","coordinates":[-70.9503968998369,-34.269046402013856]},"properties":{"CUT_REG":"06","CUT_PROV":"061","CUT_COM":"06103","REGION":"Libertador General Bernardo O'Higgins","PROVINCIA":"Cachapoal","COMUNA":"Coinco","COD_CUEN":"060","COD_SUBC":"0601","COD_SSUBC":"06012","NOM_SSUBC":"Rio Cachapoal Entre Estero Las Cadenas y Rio Claro (de Rengo)","Nombre_del":"Coínco","Tipo_de_vl":"Avenida","Numeració":"77","Nombre_de":"Bernardo O Higgins","POINT_X":-70.9503968998,"POINT_Y":-34.269046402}},
{"type":"Feature","geometry":{"type":"Point","coordinates":[-70.96445165149478,-34.22856398174728]},"properties":{"CUT_REG":"06","CUT_PROV":"061","CUT_COM":"06105","REGION":"Libertador General Bernardo O'Higgins","PROVINCIA":"Cachapoal","COMUNA":"Doñihue","COD_CUEN":"060","COD_SUBC":"0601","COD_SSUBC":"06012","NOM_SSUBC":"Rio Cachapoal Entre Estero Las Cadenas y Rio Claro (de Rengo)","Nombre_del":"Doñihue","Tipo_de_vl":"Avenida","Numeració":"S/n","Nombre_de":"Estación","POINT_X":-70.9644516515,"POINT_Y":-34.2285639817}},
{"type":"Feature","geometry":{"type":"Point","coordinates":[-70.81460930670056,-34.21092009775957]},"properties":{"CUT_REG":"06","CUT_PROV":"061","CUT_COM":"06111","REGION":"Libertador General Bernardo O'Higgins","PROVINCIA":"Cachapoal","COMUNA":"Olivar","COD_CUEN":"060","COD_SUBC":"0601","COD_SSUBC":"06010","NOM_SSUBC":"Rio Cachapoal entre Rio Claro y Estero Las Cadenas","Nombre_del":"Olivar","Tipo_de_vl":"","Numeració":"197","Nombre_de":"Rafael Estrada","POINT_X":-70.8146093067,"POINT_Y":-34.2109200978}},
{"type":"Feature","geometry":{"type":"Point","coordinates":[-71.65659796432357,-34.20678388590948]},"properties":{"CUT_REG":"06","CUT_PROV":"062","CUT_COM":"06202","REGION":"Libertador General Bernardo O'Higgins","PROVINCIA":"Cardenal Caro","COMUNA":"La Estrella","COD_CUEN":"060","COD_SUBC":"0605","COD_SSUBC":"06052","NOM_SSUBC":"Estero San Miguel","Nombre_del":"La Estrella","Tipo_de_vl":"Avenida","Numeració":"878","Nombre_de":"Manuel Rodríguez","POINT_X":-71.6565979643,"POINT_Y":-34.2067838859}},
{"type":"Feature","geometry":{"type":"Point","coordinates":[-70.65019164842673,-34.18003742135203]},"properties":{"CUT_REG":"06","CUT_PROV":"061","CUT_COM":"06108","REGION":"Libertador General Bernardo O'Higgins","PROVINCIA":"Cachapoal","COMUNA":"Machalí","COD_CUEN":"060","COD_SUBC":"0601","COD_SSUBC":"06011","NOM_SSUBC":"Estero Las Cadenas","Nombre_del":"Machalí","Tipo_de_vl":"","Numeració":"449","Nombre_de":"Miranda","POINT_X":-70.6501916484,"POINT_Y":-34.1800374214}},
{"type":"Feature","geometry":{"type":"Point","coordinates":[-70.74684157329398,-34.169506391990865]},"properties":{"CUT_REG":"06","CUT_PROV":"061","CUT_COM":"06101","REGION":"Libertador General Bernardo O'Higgins","PROVINCIA":"Cachapoal","COMUNA":"Rancagua","COD_CUEN":"060","COD_SUBC":"0601","COD_SSUBC":"06010","NOM_SSUBC":"Rio Cachapoal entre Rio Claro y Estero Las Cadenas","Nombre_del":"Rancagua","Tipo_de_vl":"Calle","Numeració":"860","Nombre_de":"Brasil","POINT_X":-70.7468415733,"POINT_Y":-34.169506392}},
{"type":"Feature","geometry":{"type":"Point","coordinates":[-71.72742572873759,-34.11961404005531]},