{"type": "FeatureCollection", "features": [{"type": "Feature", "geometry": {"type": "Point", "coordinates": [-70.119911, -21.11352]}, "properties": {"CUT_REG": "01", "CUT_PROV": "011", "CUT_COM": "01101", "REGION": "Tarapac\u00e1", "PROVINCIA": "Iquique", "COMUNA": "Iquique", "variable": "Centros de Educaci\u00f3n Parvularia", "Nombres": "ESCUELA CALETA SAN MARCOS", "POINT_X": -70.119911, "POINT_Y": -21.11352}}, {"type": "Feature", "geometry": {"type": "Point", "coordinates": [-70.18738999999998, -20.70202999999998]}, "properties": {"CUT_REG": "01", "CUT_PROV": "011", "CUT_COM": "01101", "REGION": "Tarapac\u00e1", "PROVINCIA": "Iquique", "COMUNA": "Iquique", "variable": "Centros de Educaci\u00f3n Parvularia", "Nombres": "MAR DE COLORES", "POINT_X": -70.18739, "POINT_Y": -20.70203}}, {"type": "Feature", "geometry": {"type": "Point", "coordinates": [-70.18760699999999, -20.701790000000017]}, "properties": {"CUT_REG": "01", "CUT_PROV": "011", "CUT_COM": "01101", "REGION": "Tarapac\u00e1", "PROVINCIA": "Iquique", "COMUNA": "Iquique", "variable": "Centros de Educaci\u00f3n Parvularia", "Nombres": "ESCUELA CALETA CHANAVAYITA", "POINT_X": -70.187607, "POINT_Y": -20.70179}}, {"type": "Feature", "geometry": {"type": "Point", "coordinates": [-70.16266199999998, -20.424445999999982]}, "properties": {"CUT_REG": "01", "CUT_PROV": "011", "CUT_COM": "01101", "REGION": "Tarapac\u00e1", "PROVINCIA": "Iquique", "COMUNA": "Iquique", "variable": "Centros de Educaci\u00f3n Parvularia", "Nombres": "LOS VERDECITOS CECI", "POINT_X": -70.162662, "POINT_Y": -20.424446}}, {"type": "Feature", "geometry": {"type": "Point", "coordinates": [-70.10329000000004, -20.30613700000002]}, "properties": {"CUT_REG": "01", "CUT_PROV": "011", "CUT_COM": "01107", "REGION": "Tarapac\u00e1", "PROVINCIA": "Iquique", "COMUNA": "Alto Hospicio", "variable": "Centros de Educaci\u00f3n Parvularia", "Nombres": "ESC ESP DE LENG RAMONA HENRIQUEZ ORTEGA", "POINT_X": -70.10329, "POINT_Y": -20.306137}}, {"type": "Feature", "geometry": {"type": "Point", "coordinates": [-70.103861824, -20.294644444000006]}, "properties": {"CUT_REG": "01", "CUT_PROV": "011", "CUT_COM": "01107", "REGION": "Tarapac\u00e1", "PROVINCIA": "Iquique", "COMUNA": "Alto Hospicio", "variable": "Centros de Educaci\u00f3n Parvularia", "Nombres": "AVENTURAS DE APRENDER", "POINT_X": -70.103861824, "POINT_Y": -20.294644444}}, {"type": "Feature", "geometry": {"type": "Point", "coordinates": [-70.09943899999999, -20.294262999999972]}, "properties": {"CUT_REG": "01", "CUT_PROV": "011", "CUT_COM": "01107", "REGION": "Tarapac\u00e1", "PROVINCIA": "Iquique", "COMUNA": "Alto Hospicio", "variable": "Centros de Educaci\u00f3n Parvularia", "Nombres": "NUEVO SOL", "POINT_X": -70.099439, "POINT_Y": -20.294263}}, {"type": "Feature", "geometry": {"type": "Point", "coordinates": [-70.10316499999999, -20.293398999999987]}, "properties": {"CUT_REG": "01", "CUT_PROV": "011", "CUT_COM": "01107", "REGION": "Tarapac\u00e1", "PROVINCIA": "Iquique", "COMUNA": "Alto Hospicio", "variable": "Centros de Educaci\u00f3n Parvularia", "Nombres": "MANANTIAL DE ARMON\u00cdA", "POINT_X": -70.103165, "POINT_Y": -20.293399}}, {"type": "Feature", "geometry": {"type": "Point", "coordinates": [-70.09471100000005, -20.293350000000018]}, "properties": {"CUT_REG": "01", "CUT_PROV": "011", "CUT_COM": "01107", "REGION": "Tarapac\u00e1", "PROVINCIA": "Iquique", "COMUNA": "Alto Hospicio", "variable": "Centros de Educaci\u00f3n Parvularia", "Nombres": "COLEGIO NIRVANA", "POINT_X": -70.094711, "POINT_Y": -20.29335}}, {"type": "Feature", "geometry": {"type": "Point", "coordinates": [-70.10360699999998, -20.293341999999974]}, "properties": {"CUT_REG": "01", "CUT_PROV": "011", "CUT_COM": "01107", "REGION": "Tarapac\u00e1", "PROVINCIA": "Iquique", "COMUNA": "Alto Hospicio", "variable": "Centros de Educaci\u00f3n Parvularia", "Nombres": "ESCUELA ESPECIAL LENGUAJE AMAUTA", "POINT_X": -70.103607, "POINT_Y": -20.293342}}, {"type": "Feature", "geometry": {"type": "Point", "coordinates": [-70.10188399999996, -20.29192399999998]}, "properties": {"CUT_REG": "01", "CUT_PROV": "011", "CUT_COM": "01107", "REGION": "Tarapac\u00e1", "PROVINCIA": "Iquique", "COMUNA": "Alto Hospicio", "variable": "Centros de Educaci\u00f3n Parvularia", "Nombres": "ESCUELA DE LENGUAJE YATI\u00d1A", "POINT_X": -70.101884, "POINT_Y": -20.291924}}, {"type": "Feature", "geometry": {"type": "Point", "coordinates": [-70.10318, -20.29134900000001]}, "properties": {"CUT_REG": "01", "CUT_PROV": "011", "CUT_COM": "01107", "REGION": "Tarapac\u00e1", "PROVINCIA": "Iquique", "COMUNA": "Alto Hospicio", "variable": "Centros de Educaci\u00f3n Parvularia", "Nombres": "COLEGIO RUPANIC SCHOOL", "POINT_X": -70.10318, "POINT_Y": -20.291349}}, {"type": "Feature", "geometry": {"type": "Point", "coordinates": [-70.12743400000002, -20.289740000000016]}, "properties": {"CUT_REG": "01", "CUT_PROV": "011", "CUT_COM": "01101", "REGION": "Tarapac\u00e1", "PROVINCIA": "Iquique", "COMUNA": "Iquique", "variable": "Centros de Educaci\u00f3n Parvularia", "Nombres": "COLEGIO BAJO MOLLE", "POINT_X": -70.127434, "POINT_Y": -20.28974}}, {"type": "Feature", "geometry": {"type": "Point", "coordinates": [-70.12212399999997, -20.28972999999999]}, "properties": {"CUT_REG": "01", "CUT_PROV": "011", "CUT_COM": "01101", "REGION": "Tarapac\u00e1", "PROVINCIA": "Iquique", "COMUNA": "Iquique", "variable": "Centros de Educaci\u00f3n Parvularia", "Nombres": "IQRA ARABIAN BRITISH SCHOOL", "POINT_X": -70.122124, "POINT_Y": -20.28973}}, {"type": "Feature", "geometry": {"type": "Point", "coordinates": [-70.12159000000003, -20.28917100000001]}, "properties": {"CUT_REG": "01", "CUT_PROV": "011", "CUT_COM": "01101", "REGION": "Tarapac\u00e1", "PROVINCIA": "Iquique", "COMUNA": "Iquique", "variable": "Centros de Educaci\u00f3n Parvularia", "Nombres": "ESC ESP TRAST DE LA COMUN ARUSI\u00d1A LAS TARKAS", "POINT_X": -70.12159, "POINT_Y": -20.289171}}, {"type": "Feature", "geometry": {"type": "Point", "coordinates": [-70.10426299999997, -20.288160000000026]}, "properties": {"CUT_REG": "01", "CUT_PROV": "011", "CUT_COM": "01107", "REGION": "Tarapac\u00e1", "PROVINCIA": "Iquique", "COMUNA": "Alto Hospicio", "variable": "Centros de Educaci\u00f3n Parvularia", "Nombres": "COLEGIO ALTURAS", "POINT_X": -70.104263, "POINT_Y": -20.28816}}, {"type": "Feature", "geometry": {"type": "Point", "coordinates": [-70.10509000000002, -20.288054999999957]}, "properties": {"CUT_REG": "01", "CUT_PROV": "011", "CUT_COM": "01107", "REGION": "Tarapac\u00e1", "PROVINCIA": "Iquique", "COMUNA": "Alto Hospicio", "variable": "Centros de Educaci\u00f3n Parvularia", "Nombres": "ESC ESPECIAL DE LENGUAJE PUCARA", "POINT_X": -70.10509, "POINT_Y": -20.288055}}, {"type": "Feature", "geometry": {"type": "Point", "coordinates": [-70.10474599999998, -20.28803100000001]}, "properties": {"CUT_REG": "01", "CUT_PROV": "011", "CUT_COM": "01107", "REGION": "Tarapac\u00e1", "PROVINCIA": "Iquique", "COMUNA": "Alto Hospicio", "variable": "Centros de Educaci\u00f3n Parvularia", "Nombres": "LA PAMPITA", "POINT_X": -70.104746, "POINT_Y": -20.288031}}, {"type": "Feature", "geometry": {"type": "Point", "coordinates": [-70.10335776699995, -20.286039021999954]}, "properties": {"CUT_REG": "01", "CUT_PROV": "011", "CUT_COM": "01107", "REGION": "Tarapac\u00e1", "PROVINCIA": "Iquique", "COMUNA": "Alto Hospicio", "variable": "Centros de Educaci\u00f3n Parvularia", "Nombres": "ARCOIRIS DEL DESIERTO", "POINT_X": -70.103357767, "POINT_Y": -20.286039022}}, {"type": "Feature", "geometry": {"type": "Point", "coordinates": [-70.12538900000001, -20.285749000000024]}, "properties": {"CUT_REG": "01", "CUT_PROV": "011", "CUT_COM": "01101", "REGION": "Tarapac\u00e1", "PROVINCIA": "Iquique", "COMUNA": "Iquique", "variable": "Centros de Educaci\u00f3n Parvularia", "Nombres": "COLEGIO MAHATMA GANDHI", "POINT_X": -70.125389, "POINT_Y": -20.285749}}, {"type": "Feature", "geometry": {"type": "Point", "coordinates": [-70.096006243, -20.284088024]}, "properties": {"CUT_REG": "01", "CUT_PROV": "011", "CUT_COM": "01107", "REGION": "Tarapac\u00e1", "PROVINCIA": "Iquique", "COMUNA": "Alto Hospicio", "variable": "Centros de Educaci\u00f3n Parvularia", "Nombres": "LUCERITO DORADO", "POINT_X": -70.096006243, "POINT_Y": -20.284088024}}, {"type": "Feature", "geometry": {"type": "Point", "coordinates": [-70.09638999999996, -20.28245900000004]}, "properties": {"CUT_REG": "01", "CUT_PROV": "011", "CUT_COM": "01107", "REGION": "Tarapac\u00e1", "PROVINCIA": "Iquique", "COMUNA": "Alto Hospicio", "variable": "Centros de Educaci\u00f3n Parvularia", "Nombres": "LICEO ACADEMIA SINAI", "POINT_X": -70.09639, "POINT_Y": -20.282459}}, {"type": "Feature", "geometry": {"type": "Point", "coordinates": [-70.08577000000002, -20.28241900000001]}, "properties": {"CUT_REG": "01", "CUT_PROV": "011", "CUT_COM": "01107", "REGION": "Tarapac\u00e1", "PROVINCIA": "Iquique", "COMUNA": "Alto Hospicio", "variable": "Centros de Educaci\u00f3n Parvularia", "Nombres": "COLEGIO MARISTA HERMANO FERNANDO", "POINT_X": -70.08577, "POINT_Y": -20.282419}}, {"type": "Feature", "geometry": {"type": "Point", "coordinates": [-70.08485601899997, -20.281895440000035]}, "properties": {"CUT_REG": "01", "CUT_PROV": "011", "CUT_COM": "01107", "REGION": "Tarapac\u00e1", "PROVINCIA": "Iquique", "COMUNA": "Alto Hospicio", "variable": "Centros de Educaci\u00f3n Parvularia", "Nombres": "ROCIO DE AMOR", "POINT_X": -70.084856019, "POINT_Y": -20.28189544}}, {"type": "Feature", "geometry": {"type": "Point", "coordinates": [-70.09637, -20.28161400000002]}, "properties": {"CUT_REG": "01", "CUT_PROV": "011", "CUT_COM": "01107", "REGION": "Tarapac\u00e1", "PROVINCIA": "Iquique", "COMUNA": "Alto Hospicio", "variable": "Centros de Educaci\u00f3n Parvularia", "Nombres": "ESC ESP DE LENGUAJE MI RAYITO DE SOLAZ", "POINT_X": -70.09637, "POINT_Y": -20.281614}}, {"type": "Feature", "geometry": {"type": "Point", "coordinates": [-70.08174399999997, -20.279682000000037]}, "properties": {"CUT_REG": "01", "CUT_PROV": "011", "CUT_COM": "01107", "REGION": "Tarapac\u00e1", "PROVINCIA": "Iquique", "COMUNA": "Alto Hospicio", "variable": "Centros de Educaci\u00f3n Parvularia", "Nombres": "ESTRELLITAS DEL DESIERTO", "POINT_X": -70.081744, "POINT_Y": -20.279682}}, {"type": "Feature", "geometry": {"type": "Point", "coordinates": [-70.08047499999995, -20.279219140000023]}, "properties": {"CUT_REG": "01", "CUT_PROV": "011", "CUT_COM": "01107", "REGION": "Tarapac\u00e1", "PROVINCIA": "Iquique", "COMUNA": "Alto Hospicio", "variable": "Centros de Educaci\u00f3n Parvularia", "Nombres": "SUMA INTI", "POINT_X": -70.080475, "POINT_Y": -20.27921914}}, {"type": "Feature", "geometry": {"type": "Point", "coordinates": [-70.089851, -20.278879000000032]}, "properties": {"CUT_REG": "01", "CUT_PROV": "011", "CUT_COM": "01107", "REGION": "Tarapac\u00e1", "PROVINCIA": "Iquique", "COMUNA": "Alto Hospicio", "variable": "Centros de Educaci\u00f3n Parvularia", "Nombres": "ESCUELA AUDIMED LOS AROMOS", "POINT_X": -70.089851, "POINT_Y": -20.278879}}, {"type": "Feature", "geometry": {"type": "Point", "coordinates": [-70.08669999999996, -20.278650000000006]}, "properties": {"CUT_REG": "01", "CUT_PROV": "011", "CUT_COM": "01107", "REGION": "Tarapac\u00e1", "PROVINCIA": "Iquique", "COMUNA": "Alto Hospicio", "variable": "Centros de Educaci\u00f3n Parvularia", "Nombres": "ESCUELA ESPECIAL DE LENGUAJE FLOR DEL VALLE", "POINT_X": -70.0867, "POINT_Y": -20.27865}}, {"type": "Feature", "geometry": {"type": "Point", "coordinates": [-70.09876999999997, -20.278418999999985]}, "properties": {"CUT_REG": "01", "CUT_PROV": "011", "CUT_COM": "01107", "REGION": "Tarapac\u00e1", "PROVINCIA": "Iquique", "COMUNA": "Alto Hospicio", "variable": "Centros de Educaci\u00f3n Parvularia", "Nombres": "COLEGIO MACAYA", "POINT_X": -70.09877, "POINT_Y": -20.278419}}, {"type": "Feature", "geometry": {"type": "Point", "coordinates": [-70.12648999999999, -20.275965999999976]}, "properties": {"CUT_REG": "01", "CUT_PROV": "011", "CUT_COM": "01101", "REGION": "Tarapac\u00e1", "PROVINCIA": "Iquique", "COMUNA": "Iquique", "variable": "Centros de Educaci\u00f3n Parvularia", "Nombres": "COLEGIO LIRIMA", "POINT_X": -70.12649, "POINT_Y": -20.275966}}, {"type": "Feature", "geometry": {"type": "Point", "coordinates": [-70.10746399999998, -20.275230999999998]}, "properties": {"CUT_REG": "01", "CUT_PROV": "011", "CUT_COM": "01107", "REGION": "Tarapac\u00e1", "PROVINCIA": "Iquique", "COMUNA": "Alto Hospicio", "variable": "Centros de Educaci\u00f3n Parvularia", "Nombres": "QURI MAYIRI", "POINT_X": -70.107464, "POINT_Y": -20.275231}}, {"type": "Feature", "geometry": {"type": "Point", "coordinates": [-70.09610699999999, -20.274959999999957]}, "properties": {"CUT_REG": "01", "CUT_PROV": "011", "CUT_COM": "01107", "REGION": "Tarapac\u00e1", "PROVINCIA": "Iquique", "COMUNA": "Alto Hospicio", "variable": "Centros de Educaci\u00f3n Parvularia", "Nombres": "LICEO ACADEMIA NACIONAL", "POINT_X": -70.096107, "POINT_Y": -20.27496}}, {"type": "Feature", "geometry": {"type": "Point", "coordinates": [-70.09683200000003, -20.27479899999996]}, "properties": {"CUT_REG": "01", "CUT_PROV": "011", "CUT_COM": "01107", "REGION": "Tarapac\u00e1", "PROVINCIA": "Iquique", "COMUNA": "Alto Hospicio", "variable": "Centros de Educaci\u00f3n Parvularia", "Nombres": "LICEO SUPERIOR DIEGO PORTALES", "POINT_X": -70.096832, "POINT_Y": -20.274799}}, {"type": "Feature", "geometry": {"type": "Point", "coordinates": [-70.10882699999996, -20.274284999999978]}, "properties": {"CUT_REG": "01", "CUT_PROV": "011", "CUT_COM": "01107", "REGION": "Tarapac\u00e1", "PROVINCIA": "Iquique", "COMUNA": "Alto Hospicio", "variable": "Centros de Educaci\u00f3n Parvularia", "Nombres": "ESCUELA ESPECIAL COANIL", "POINT_X": -70.108827, "POINT_Y": -20.274285}}, {"type": "Feature", "geometry": {"type": "Point", "coordinates": [-70.12581000000003, -20.27408800000002]}, "properties": {"CUT_REG": "01", "CUT_PROV": "011", "CUT_COM": "01101", "REGION": "Tarapac\u00e1", "PROVINCIA": "Iquique", "COMUNA": "Iquique", "variable": "Centros de Educaci\u00f3n Parvularia", "Nombres": "ESCUELITA ESPECIAL DE LENGUAJE MAMI\u00d1A", "POINT_X": -70.12581, "POINT_Y": -20.274088}}, {"type": "Feature", "geometry": {"type": "Point", "coordinates": [-70.10649999999998, -20.274087000000023]}, "properties": {"CUT_REG": "01", "CUT_PROV": "011", "CUT_COM": "01107", "REGION": "Tarapac\u00e1", "PROVINCIA": "Iquique", "COMUNA": "Alto Hospicio", "variable": "Centros de Educaci\u00f3n Parvularia", "Nombres": "ESCUELA ESPECIAL DE LENGUAJE VILENKA", "POINT_X": -70.1065, "POINT_Y": -20.274087}}, {"type": "Feature", "geometry": {"type": "Point", "coordinates": [-70.09132400000001, -20.273404999999997]}, "properties": {"CUT_REG": "01", "CUT_PROV": "011", "CUT_COM": "01107", "REGION": "Tarapac\u00e1", "PROVINCIA": "Iquique", "COMUNA": "Alto Hospicio", "variable": "Centros de Educaci\u00f3n Parvularia", "Nombres": "ESC.ESP. DE LENGUAJE SANTA LUCIA", "POINT_X": -70.091324, "POINT_Y": -20.273405}}, {"type": "Feature", "geometry": {"type": "Point", "coordinates": [-70.10604899999996, -20.27305999999996]}, "properties": {"CUT_REG": "01", "CUT_PROV": "011", "CUT_COM": "01107", "REGION": "Tarapac\u00e1", "PROVINCIA": "Iquique", "COMUNA": "Alto Hospicio", "variable": "Centros de Educaci\u00f3n Parvularia", "Nombres": "LICEO PABLO NERUDA", "POINT_X": -70.106049, "POINT_Y": -20.27306}}, {"type": "Feature", "geometry": {"type": "Point", "coordinates": [-70.10451856399999, -20.272975518999985]}, "properties": {"CUT_REG": "01", "CUT_PROV": "011", "CUT_COM": "01107", "REGION": "Tarapac\u00e1", "PROVINCIA": "Iquique", "COMUNA": "Alto Hospicio", "variable": "Centros de Educaci\u00f3n Parvularia", "Nombres": "PURUM NAIRA", "POINT_X": -70.104518564, "POINT_Y": -20.272975519}}, {"type": "Feature", "geometry": {"type": "Point", "coordinates": [-70.10026600000003, -20.27169599999999]}, "properties": {"CUT_REG": "01", "CUT_PROV": "011", "CUT_COM": "01107", "REGION": "Tarapac\u00e1", "PROVINCIA": "Iquique", "COMUNA": "Alto Hospicio", "variable": "Centros de Educaci\u00f3n Parvularia", "Nombres": "JARDIN INFANTIL PAPALOTE", "POINT_X": -70.100266, "POINT_Y": -20.271696}}, {"type": "Feature", "geometry": {"type": "Point", "coordinates": [-70.09429000000003, -20.27165199999999]}, "properties": {"CUT_REG": "01", "CUT_PROV": "011", "CUT_COM": "01107", "REGION": "Tarapac\u00e1", "PROVINCIA": "Iquique", "COMUNA": "Alto Hospicio", "variable": "Centros de Educaci\u00f3n Parvularia", "Nombres": "ESC ESP DE LENGUAJE OASIS DEL SABER", "POINT_X": -70.09429, "POINT_Y": -20.271652}}, {"type": "Feature", "geometry": {"type": "Point", "coordinates": [-70.10155999999998, -20.271535999999983]}, "properties": {"CUT_REG": "01", "CUT_PROV": "011", "CUT_COM": "01107", "REGION": "Tarapac\u00e1", "PROVINCIA": "Iquique", "COMUNA": "Alto Hospicio", "variable": "Centros de Educaci\u00f3n Parvularia", "Nombres": "ESC. ESP. DE LENGUAJE MILLARAY", "POINT_X": -70.10156, "POINT_Y": -20.271536}}, {"type": "Feature", "geometry": {"type": "Point", "coordinates": [-70.09449316099995, -20.27134014100003]}, "properties": {"CUT_REG": "01", "CUT_PROV": "011", "CUT_COM": "01107", "REGION": "Tarapac\u00e1", "PROVINCIA": "Iquique", "COMUNA": "Alto Hospicio", "variable": "Centros de Educaci\u00f3n Parvularia", "Nombres": "OASIS DEL SABER", "POINT_X": -70.094493161, "POINT_Y": -20.271340141}}, {"type": "Feature", "geometry": {"type": "Point", "coordinates": [-70.12339, -20.27109000000003]}, "properties": {"CUT_REG": "01", "CUT_PROV": "011", "CUT_COM": "01101", "REGION": "Tarapac\u00e1", "PROVINCIA": "Iquique", "COMUNA": "Iquique", "variable": "Centros de Educaci\u00f3n Parvularia", "Nombres": "ESCUELA DE LENGUAJE NUEVO INTI", "POINT_X": -70.12339, "POINT_Y": -20.27109}}, {"type": "Feature", "geometry": {"type": "Point", "coordinates": [-70.10329899999998, -20.270981999999975]}, "properties": {"CUT_REG": "01", "CUT_PROV": "011", "CUT_COM": "01107", "REGION": "Tarapac\u00e1", "PROVINCIA": "Iquique", "COMUNA": "Alto Hospicio", "variable": "Centros de Educaci\u00f3n Parvularia", "Nombres": "PAN DE AZUCAR", "POINT_X": -70.103299, "POINT_Y": -20.270982}}, {"type": "Feature", "geometry": {"type": "Point", "coordinates": [-70.105605, -20.270063999999962]}, "properties": {"CUT_REG": "01", "CUT_PROV": "011", "CUT_COM": "01107", "REGION": "Tarapac\u00e1", "PROVINCIA": "Iquique", "COMUNA": "Alto Hospicio", "variable": "Centros de Educaci\u00f3n Parvularia", "Nombres": "CHIAPAS SUR", "POINT_X": -70.105605, "POINT_Y": -20.270064}}, {"type": "Feature", "geometry": {"type": "Point", "coordinates": [-70.10308800000001, -20.268748999999957]}, "properties": {"CUT_REG": "01", "CUT_PROV": "011", "CUT_COM": "01107", "REGION": "Tarapac\u00e1", "PROVINCIA": "Iquique", "COMUNA": "Alto Hospicio", "variable": "Centros de Educaci\u00f3n Parvularia", "Nombres": "COLEGIO SAN ANTONIO DE MATILLA", "POINT_X": -70.103088, "POINT_Y": -20.268749}}, {"type": "Feature", "geometry": {"type": "Point", "coordinates": [-70.10702999999995, -20.268689999999964]}, "properties": {"CUT_REG": "01", "CUT_PROV": "011", "CUT_COM": "01107", "REGION": "Tarapac\u00e1", "PROVINCIA": "Iquique", "COMUNA": "Alto Hospicio", "variable": "Centros de Educaci\u00f3n Parvularia", "Nombres": "ESC.TRANS.DE LA COMUN. IKI ARU", "POINT_X": -70.10703, "POINT_Y": -20.26869}}, {"type": "Feature", "geometry": {"type": "Point", "coordinates": [-70.10389699999999, -20.26843999999997]}, "properties": {"CUT_REG": "01", "CUT_PROV": "011", "CUT_COM": "01107", "REGION": "Tarapac\u00e1", "PROVINCIA": "Iquique", "COMUNA": "Alto Hospicio", "variable": "Centros de Educaci\u00f3n Parvularia", "Nombres": "COLEGIO METODISTA WILLIAM TAYLOR", "POINT_X": -70.103897, "POINT_Y": -20.26844}}, {"type": "Feature", "geometry": {"type": "Point", "coordinates": [-70.10243575599996, -20.268241234999955]}, "properties": {"CUT_REG": "01", "CUT_PROV": "011", "CUT_COM": "01107", "REGION": "Tarapac\u00e1", "PROVINCIA": "Iquique", "COMUNA": "Alto Hospicio", "variable": "Centros de Educaci\u00f3n Parvularia", "Nombres": "CAMINO AL SOL", "POINT_X": -70.102435756, "POINT_Y": -20.268241235}}, {"type": "Feature", "geometry": {"type": "Point", "coordinates": [-70.12227999999999, -20.26734699999995]}, "properties": {"CUT_REG": "01", "CUT_PROV": "011", "CUT_COM": "01101", "REGION": "Tarapac\u00e1", "PROVINCIA": "Iquique", "COMUNA": "Iquique", "variable": "Centros de Educaci\u00f3n Parvularia", "Nombres": "JARDIN INFANTIL ANAKENA", "POINT_X": -70.12228, "POINT_Y": -20.267347}}, {"type": "Feature", "geometry": {"type": "Point", "coordinates": [-70.12406200000001, -20.267138999999972]}, "properties": {"CUT_REG": "01", "CUT_PROV": "011", "CUT_COM": "01101", "REGION": "Tarapac\u00e1", "PROVINCIA": "Iquique", "COMUNA": "Iquique", "variable": "Centros de Educaci\u00f3n Parvularia", "Nombres": "COLEGIO ANTAMARA", "POINT_X": -70.124062, "POINT_Y": -20.267139}}, {"type": "Feature", "geometry": {"type": "Point", "coordinates": [-70.12427079599996, -20.266267387999974]}, "properties": {"CUT_REG": "01", "CUT_PROV": "011", "CUT_COM": "01101", "REGION": "Tarapac\u00e1", "PROVINCIA": "Iquique", "COMUNA": "Iquique", "variable": "Centros de Educaci\u00f3n Parvularia", "Nombres": "ALTOS DEL MAR", "POINT_X": -70.124270796, "POINT_Y": -20.266267388}}, {"type": "Feature", "geometry": {"type": "Point", "coordinates": [-70.10146331999997, -20.26616668999999]}, "properties": {"CUT_REG": "01", "CUT_PROV": "011", "CUT_COM": "01107", "REGION": "Tarapac\u00e1", "PROVINCIA": "Iquique", "COMUNA": "Alto Hospicio", "variable": "Centros de Educaci\u00f3n Parvularia", "Nombres": "JARDIN INFANTIL AMANECER", "POINT_X": -70.10146332, "POINT_Y": -20.26616669}}, {"type": "Feature", "geometry": {"type": "Point", "coordinates": [-70.10890069900002, -20.26596008500004]}, "properties": {"CUT_REG": "01", "CUT_PROV": "011", "CUT_COM": "01107", "REGION": "Tarapac\u00e1", "PROVINCIA": "Iquique", "COMUNA": "Alto Hospicio", "variable": "Centros de Educaci\u00f3n Parvularia", "Nombres": "SANTA CATALINA", "POINT_X": -70.108900699, "POINT_Y": -20.265960085}}, {"type": "Feature", "geometry": {"type": "Point", "coordinates": [-70.10041999999999, -20.265410000000003]}, "properties": {"CUT_REG": "01", "CUT_PROV": "011", "CUT_COM": "01107", "REGION": "Tarapac\u00e1", "PROVINCIA": "Iquique", "COMUNA": "Alto Hospicio", "variable": "Centros de Educaci\u00f3n Parvularia", "Nombres": "ARUMANTI", "POINT_X": -70.10042, "POINT_Y": -20.26541}}, {"type": "Feature", "geometry": {"type": "Point", "coordinates": [-70.101189, -20.265406000000027]}, "properties": {"CUT_REG": "01", "CUT_PROV": "011", "CUT_COM": "01107", "REGION": "Tarapac\u00e1", "PROVINCIA": "Iquique", "COMUNA": "Alto Hospicio", "variable": "Centros de Educaci\u00f3n Parvularia", "Nombres": "BRUMITA", "POINT_X": -70.101189, "POINT_Y": -20.265406}}, {"type": "Feature", "geometry": {"type": "Point", "coordinates": [-70.10547211400001, -20.265032327000014]}, "properties": {"CUT_REG": "01", "CUT_PROV": "011", "CUT_COM": "01107", "REGION": "Tarapac\u00e1", "PROVINCIA": "Iquique", "COMUNA": "Alto Hospicio", "variable": "Centros de Educaci\u00f3n Parvularia", "Nombres": "INTINA WAWAPA", "POINT_X": -70.105472114, "POINT_Y": -20.265032327}}, {"type": "Feature", "geometry": {"type": "Point", "coordinates": [-70.12565999999998, -20.264699999999962]}, "properties": {"CUT_REG": "01", "CUT_PROV": "011", "CUT_COM": "01101", "REGION": "Tarapac\u00e1", "PROVINCIA": "Iquique", "COMUNA": "Iquique", "variable": "Centros de Educaci\u00f3n Parvularia", "Nombres": "JARDIN INFANTIL HISPANO BRITANICO S. A.", "POINT_X": -70.12566, "POINT_Y": -20.2647}}, {"type": "Feature", "geometry": {"type": "Point", "coordinates": [-70.09902200000005, -20.264319999999962]}, "properties": {"CUT_REG": "01", "CUT_PROV": "011", "CUT_COM": "01107", "REGION": "Tarapac\u00e1", "PROVINCIA": "Iquique", "COMUNA": "Alto Hospicio", "variable": "Centros de Educaci\u00f3n Parvularia", "Nombres": "COLEGIO SANTO DOMINGO SAVIO", "POINT_X": -70.099022, "POINT_Y": -20.26432}}, {"type": "Feature", "geometry": {"type": "Point", "coordinates": [-70.09691599999996, -20.26281900000003]}, "properties": {"CUT_REG": "01", "CUT_PROV": "011", "CUT_COM": "01107", "REGION": "Tarapac\u00e1", "PROVINCIA": "Iquique", "COMUNA": "Alto Hospicio", "variable": "Centros de Educaci\u00f3n Parvularia", "Nombres": "COLEGIO SAN LORENZO DE TARAPACA", "POINT_X": -70.096916, "POINT_Y": -20.262819}}, {"type": "Feature", "geometry": {"type": "Point", "coordinates": [-70.09803999999997, -20.262765999999992]}, "properties": {"CUT_REG": "01", "CUT_PROV": "011", "CUT_COM": "01107", "REGION": "Tarapac\u00e1", "PROVINCIA": "Iquique", "COMUNA": "Alto Hospicio", "variable": "Centros de Educaci\u00f3n Parvularia", "Nombres": "ESC.ESP. DE TRASTORNO DE LA COMUN ISLUGA", "POINT_X": -70.09804, "POINT_Y": -20.262766}}, {"type": "Feature", "geometry": {"type": "Point", "coordinates": [-70.09731300000004, -20.26262099999999]}, "properties": {"CUT_REG": "01", "CUT_PROV": "011", "CUT_COM": "01107", "REGION": "Tarapac\u00e1", "PROVINCIA": "Iquique", "COMUNA": "Alto Hospicio", "variable": "Centros de Educaci\u00f3n Parvularia", "Nombres": "COLEGIO MARAN-ATHA", "POINT_X": -70.097313, "POINT_Y": -20.262621}}, {"type": "Feature", "geometry": {"type": "Point", "coordinates": [-70.10009000000002, -20.262327]}, "properties": {"CUT_REG": "01", "CUT_PROV": "011", "CUT_COM": "01107", "REGION": "Tarapac\u00e1", "PROVINCIA": "Iquique", "COMUNA": "Alto Hospicio", "variable": "Centros de Educaci\u00f3n Parvularia", "Nombres": "ESC ESP DE LENGUAJE COLINA CAMPESTRE", "POINT_X": -70.10009, "POINT_Y": -20.262327}}, {"type": "Feature", "geometry": {"type": "Point", "coordinates": [-70.12539899999996, -20.261962999999987]}, "properties": {"CUT_REG": "01", "CUT_PROV": "011", "CUT_COM": "01101", "REGION": "Tarapac\u00e1", "PROVINCIA": "Iquique", "COMUNA": "Iquique", "variable": "Centros de Educaci\u00f3n Parvularia", "Nombres": "PASITOS DEL SUR", "POINT_X": -70.125399, "POINT_Y": -20.261963}}, {"type": "Feature", "geometry": {"type": "Point", "coordinates": [-70.09942599999998, -20.261889999999987]}, "properties": {"CUT_REG": "01", "CUT_PROV": "011", "CUT_COM": "01107", "REGION": "Tarapac\u00e1", "PROVINCIA": "Iquique", "COMUNA": "Alto Hospicio", "variable": "Centros de Educaci\u00f3n Parvularia", "Nombres": "COLEGIO MONTE CARMELO", "POINT_X": -70.099426, "POINT_Y": -20.26189}}, {"type": "Feature", "geometry": {"type": "Point", "coordinates": [-70.12344999999999, -20.2618]}, "properties": {"CUT_REG": "01", "CUT_PROV": "011", "CUT_COM": "01101", "REGION": "Tarapac\u00e1", "PROVINCIA": "Iquique", "COMUNA": "Iquique", "variable": "Centros de Educaci\u00f3n Parvularia", "Nombres": "ESC. ESP. TRANST. COM. SANTA LAURA", "POINT_X": -70.12345, "POINT_Y": -20.2618}}, {"type": "Feature", "geometry": {"type": "Point", "coordinates": [-70.10276800000001, -20.261729999999986]}, "properties": {"CUT_REG": "01", "CUT_PROV": "011", "CUT_COM": "01107", "REGION": "Tarapac\u00e1", "PROVINCIA": "Iquique", "COMUNA": "Alto Hospicio", "variable": "Centros de Educaci\u00f3n Parvularia", "Nombres": "COLEGIO JESUS DE NAZARETH", "POINT_X": -70.102768, "POINT_Y": -20.26173}}, {"type": "Feature", "geometry": {"type": "Point", "coordinates": [-70.09941900000003, -20.261310999999957]}, "properties": {"CUT_REG": "01", "CUT_PROV": "011", "CUT_COM": "01107", "REGION": "Tarapac\u00e1", "PROVINCIA": "Iquique", "COMUNA": "Alto Hospicio", "variable": "Centros de Educaci\u00f3n Parvularia", "Nombres": "LICEO COLEGIO METODISTA ROBERT JOHNSON", "POINT_X": -70.099419, "POINT_Y": -20.261311}}, {"type": "Feature", "geometry": {"type": "Point", "coordinates": [-70.10415600000002, -20.259050000000016]}, "properties": {"CUT_REG": "01", "CUT_PROV": "011", "CUT_COM": "01107", "REGION": "Tarapac\u00e1", "PROVINCIA": "Iquique", "COMUNA": "Alto Hospicio", "variable": "Centros de Educaci\u00f3n Parvularia", "Nombres": "ACADEMIA HOSPICIO", "POINT_X": -70.104156, "POINT_Y": -20.25905}}, {"type": "Feature", "geometry": {"type": "Point", "coordinates": [-70.10700999999999, -20.255580999999964]}, "properties": {"CUT_REG": "01", "CUT_PROV": "011", "CUT_COM": "01107", "REGION": "Tarapac\u00e1", "PROVINCIA": "Iquique", "COMUNA": "Alto Hospicio", "variable": "Centros de Educaci\u00f3n Parvularia", "Nombres": "LICEO LOS CONDORES", "POINT_X": -70.10701, "POINT_Y": -20.255581}}, {"type": "Feature", "geometry": {"type": "Point", "coordinates": [-70.13246999999998, -20.25517199999996]}, "properties": {"CUT_REG": "01", "CUT_PROV": "011", "CUT_COM": "01101", "REGION": "Tarapac\u00e1", "PROVINCIA": "Iquique", "COMUNA": "Iquique", "variable": "Centros de Educaci\u00f3n Parvularia", "Nombres": "EAGLES COLLEGE", "POINT_X": -70.13247, "POINT_Y": -20.255172}}, {"type": "Feature", "geometry": {"type": "Point", "coordinates": [-70.105927, -20.25456999999998]}, "properties": {"CUT_REG": "01", "CUT_PROV": "011", "CUT_COM": "01107", "REGION": "Tarapac\u00e1", "PROVINCIA": "Iquique", "COMUNA": "Alto Hospicio", "variable": "Centros de Educaci\u00f3n Parvularia", "Nombres": "ESC. BASICA Y PARV. KRONOS SCHOOL", "POINT_X": -70.105927, "POINT_Y": -20.25457}}, {"type": "Feature", "geometry": {"type": "Point", "coordinates": [-70.13123999999999, -20.253519999999966]}, "properties": {"CUT_REG": "01", "CUT_PROV": "011", "CUT_COM": "01101", "REGION": "Tarapac\u00e1", "PROVINCIA": "Iquique", "COMUNA": "Iquique", "variable": "Centros de Educaci\u00f3n Parvularia", "Nombres": "JARDIN INFANTIL GIRASOLES", "POINT_X": -70.13124, "POINT_Y": -20.25352}}, {"type": "Feature", "geometry": {"type": "Point", "coordinates": [-70.12510699999996, -20.25299099999998]}, "properties": {"CUT_REG": "01", "CUT_PROV": "011", "CUT_COM": "01101", "REGION": "Tarapac\u00e1", "PROVINCIA": "Iquique", "COMUNA": "Iquique", "variable": "Centros de Educaci\u00f3n Parvularia", "Nombres": "JARDIN INFANTIL SAMCA ARUMANTI DE IQUIQUE", "POINT_X": -70.125107, "POINT_Y": -20.252991}}, {"type": "Feature", "geometry": {"type": "Point", "coordinates": [-70.12618, -20.252873999999984]}, "properties": {"CUT_REG": "01", "CUT_PROV": "011", "CUT_COM": "01101", "REGION": "Tarapac\u00e1", "PROVINCIA": "Iquique", "COMUNA": "Iquique", "variable": "Centros de Educaci\u00f3n Parvularia", "Nombres": "JARDIN INFANTIL PINTITAS", "POINT_X": -70.12618, "POINT_Y": -20.252874}}, {"type": "Feature", "geometry": {"type": "Point", "coordinates": [-70.13148500000001, -20.252443000000028]}, "properties": {"CUT_REG": "01", "CUT_PROV": "011", "CUT_COM": "01101", "REGION": "Tarapac\u00e1", "PROVINCIA": "Iquique", "COMUNA": "Iquique", "variable": "Centros de Educaci\u00f3n Parvularia", "Nombres": "ESC. ESPECIAL DE TRASTORNOS AUDIMED IQUIQUE", "POINT_X": -70.131485, "POINT_Y": -20.252443}}, {"type": "Feature", "geometry": {"type": "Point", "coordinates": [-70.13157999999996, -20.25204499999996]}, "properties": {"CUT_REG": "01", "CUT_PROV": "011", "CUT_COM": "01101", "REGION": "Tarapac\u00e1", "PROVINCIA": "Iquique", "COMUNA": "Iquique", "variable": "Centros de Educaci\u00f3n Parvularia", "Nombres": "J. I. MI RINCON", "POINT_X": -70.13158, "POINT_Y": -20.252045}}, {"type": "Feature", "geometry": {"type": "Point", "coordinates": [-70.12558699999997, -20.25196999999997]}, "properties": {"CUT_REG": "01", "CUT_PROV": "011", "CUT_COM": "01101", "REGION": "Tarapac\u00e1", "PROVINCIA": "Iquique", "COMUNA": "Iquique", "variable": "Centros de Educaci\u00f3n Parvularia", "Nombres": "ESCUELA CHIPANA", "POINT_X": -70.125587, "POINT_Y": -20.25197}}, {"type": "Feature", "geometry": {"type": "Point", "coordinates": [-70.13500976999998, -20.25182723999997]}, "properties": {"CUT_REG": "01", "CUT_PROV": "011", "CUT_COM": "01101", "REGION": "Tarapac\u00e1", "PROVINCIA": "Iquique", "COMUNA": "Iquique", "variable": "Centros de Educaci\u00f3n Parvularia", "Nombres": "J. I. LITTLE SUN", "POINT_X": -70.13500977, "POINT_Y": -20.25182724}}, {"type": "Feature", "geometry": {"type": "Point", "coordinates": [-70.13392999999999, -20.251759000000007]}, "properties": {"CUT_REG": "01", "CUT_PROV": "011", "CUT_COM": "01101", "REGION": "Tarapac\u00e1", "PROVINCIA": "Iquique", "COMUNA": "Iquique", "variable": "Centros de Educaci\u00f3n Parvularia", "Nombres": "JARDIN INFANTIL LOS TATITAS", "POINT_X": -70.13393, "POINT_Y": -20.251759}}, {"type": "Feature", "geometry": {"type": "Point", "coordinates": [-70.13537000000002, -20.251206999999987]}, "properties": {"CUT_REG": "01", "CUT_PROV": "011", "CUT_COM": "01101", "REGION": "Tarapac\u00e1", "PROVINCIA": "Iquique", "COMUNA": "Iquique", "variable": "Centros de Educaci\u00f3n Parvularia", "Nombres": "ESC. ESP. DE LENGUAJE MONSERRAT", "POINT_X": -70.13537, "POINT_Y": -20.251207}}, {"type": "Feature", "geometry": {"type": "Point", "coordinates": [-70.13038634999997, -20.250307079999956]}, "properties": {"CUT_REG": "01", "CUT_PROV": "011", "CUT_COM": "01101", "REGION": "Tarapac\u00e1", "PROVINCIA": "Iquique", "COMUNA": "Iquique", "variable": "Centros de Educaci\u00f3n Parvularia", "Nombres": "JARDIN INFANTIL NOCTILUCAS", "POINT_X": -70.13038635, "POINT_Y": -20.25030708}}, {"type": "Feature", "geometry": {"type": "Point", "coordinates": [-70.13018799999999, -20.249901000000023]}, "properties": {"CUT_REG": "01", "CUT_PROV": "011", "CUT_COM": "01101", "REGION": "Tarapac\u00e1", "PROVINCIA": "Iquique", "COMUNA": "Iquique", "variable": "Centros de Educaci\u00f3n Parvularia", "Nombres": "COLEGIO HUMBERSTONE", "POINT_X": -70.130188, "POINT_Y": -20.249901}}, {"type": "Feature", "geometry": {"type": "Point", "coordinates": [-70.101425, -20.249286000000026]}, "properties": {"CUT_REG": "01", "CUT_PROV": "011", "CUT_COM": "01107", "REGION": "Tarapac\u00e1", "PROVINCIA": "Iquique", "COMUNA": "Alto Hospicio", "variable": "Centros de Educaci\u00f3n Parvularia", "Nombres": "ECOS DE ESPERANZA", "POINT_X": -70.101425, "POINT_Y": -20.249286}}, {"type": "Feature", "geometry": {"type": "Point", "coordinates": [-70.10365299999995, -20.24871099999997]}, "properties": {"CUT_REG": "01", "CUT_PROV": "011", "CUT_COM": "01107", "REGION": "Tarapac\u00e1", "PROVINCIA": "Iquique", "COMUNA": "Alto Hospicio", "variable": "Centros de Educaci\u00f3n Parvularia", "Nombres": "COLEGIO MONTE SION", "POINT_X": -70.103653, "POINT_Y": -20.248711}}, {"type": "Feature", "geometry": {"type": "Point", "coordinates": [-70.10048762199997, -20.248701875000016]}, "properties": {"CUT_REG": "01", "CUT_PROV": "011", "CUT_COM": "01107", "REGION": "Tarapac\u00e1", "PROVINCIA": "Iquique", "COMUNA": "Alto Hospicio", "variable": "Centros de Educaci\u00f3n Parvularia", "Nombres": "MAGIA DE APRENDER", "POINT_X": -70.100487622, "POINT_Y": -20.248701875}}, {"type": "Feature", "geometry": {"type": "Point", "coordinates": [-70.10240000000002, -20.247984000000038]}, "properties": {"CUT_REG": "01", "CUT_PROV": "011", "CUT_COM": "01107", "REGION": "Tarapac\u00e1", "PROVINCIA": "Iquique", "COMUNA": "Alto Hospicio", "variable": "Centros de Educaci\u00f3n Parvularia", "Nombres": "ESC ESP DE LENGUAJE ESPISANT", "POINT_X": -70.1024, "POINT_Y": -20.247984}}, {"type": "Feature", "geometry": {"type": "Point", "coordinates": [-70.09583299999997, -20.247080000000025]}, "properties": {"CUT_REG": "01", "CUT_PROV": "011", "CUT_COM": "01107", "REGION": "Tarapac\u00e1", "PROVINCIA": "Iquique", "COMUNA": "Alto Hospicio", "variable": "Centros de Educaci\u00f3n Parvularia", "Nombres": "COLEGIO NAZARET", "POINT_X": -70.095833, "POINT_Y": -20.24708}}, {"type": "Feature", "geometry": {"type": "Point", "coordinates": [-70.09813700000001, -20.246909999999993]}, "properties": {"CUT_REG": "01", "CUT_PROV": "011", "CUT_COM": "01107", "REGION": "Tarapac\u00e1", "PROVINCIA": "Iquique", "COMUNA": "Alto Hospicio", "variable": "Centros de Educaci\u00f3n Parvularia", "Nombres": "ESCUELA SANTA LAURA", "POINT_X": -70.098137, "POINT_Y": -20.24691}}, {"type": "Feature", "geometry": {"type": "Point", "coordinates": [-70.13204956000001, -20.246549610000017]}, "properties": {"CUT_REG": "01", "CUT_PROV": "011", "CUT_COM": "01101", "REGION": "Tarapac\u00e1", "PROVINCIA": "Iquique", "COMUNA": "Iquique", "variable": "Centros de Educaci\u00f3n Parvularia", "Nombres": "JARDIN INFANTIL CARITAS CONTENTAS", "POINT_X": -70.13204956, "POINT_Y": -20.24654961}}, {"type": "Feature", "geometry": {"type": "Point", "coordinates": [-70.13226318, -20.245969770000002]}, "properties": {"CUT_REG": "01", "CUT_PROV": "011", "CUT_COM": "01101", "REGION": "Tarapac\u00e1", "PROVINCIA": "Iquique", "COMUNA": "Iquique", "variable": "Centros de Educaci\u00f3n Parvularia", "Nombres": "JARDIN INFANTIL PAPELUCHO", "POINT_X": -70.13226318, "POINT_Y": -20.24596977}}, {"type": "Feature", "geometry": {"type": "Point", "coordinates": [-70.138268, -20.245781000000015]}, "properties": {"CUT_REG": "01", "CUT_PROV": "011", "CUT_COM": "01101", "REGION": "Tarapac\u00e1", "PROVINCIA": "Iquique", "COMUNA": "Iquique", "variable": "Centros de Educaci\u00f3n Parvularia", "Nombres": "ESCUELA PROFESOR MANUEL CASTRO RAMOS", "POINT_X": -70.138268, "POINT_Y": -20.245781}}, {"type": "Feature", "geometry": {"type": "Point", "coordinates": [-70.13309000000002, -20.245610999999982]}, "properties": {"CUT_REG": "01", "CUT_PROV": "011", "CUT_COM": "01101", "REGION": "Tarapac\u00e1", "PROVINCIA": "Iquique", "COMUNA": "Iquique", "variable": "Centros de Educaci\u00f3n Parvularia", "Nombres": "ESC ESP DE LENGUAJE STA CAROLINA DE MATILLA", "POINT_X": -70.13309, "POINT_Y": -20.245611}}, {"type": "Feature", "geometry": {"type": "Point", "coordinates": [-70.13149299999996, -20.243601000000027]}, "properties": {"CUT_REG": "01", "CUT_PROV": "011", "CUT_COM": "01101", "REGION": "Tarapac\u00e1", "PROVINCIA": "Iquique", "COMUNA": "Iquique", "variable": "Centros de Educaci\u00f3n Parvularia", "Nombres": "COLEGIO REPUBLICA DE ITALIA", "POINT_X": -70.131493, "POINT_Y": -20.243601}}, {"type": "Feature", "geometry": {"type": "Point", "coordinates": [-70.13959999999999, -20.243142999999968]}, "properties": {"CUT_REG": "01", "CUT_PROV": "011", "CUT_COM": "01101", "REGION": "Tarapac\u00e1", "PROVINCIA": "Iquique", "COMUNA": "Iquique", "variable": "Centros de Educaci\u00f3n Parvularia", "Nombres": "ESC ESPECIAL DE LENGUAJE KUNAMASTA", "POINT_X": -70.1396, "POINT_Y": -20.243143}}, {"type": "Feature", "geometry": {"type": "Point", "coordinates": [-70.12873840000003, -20.241647719999975]}, "properties": {"CUT_REG": "01", "CUT_PROV": "011", "CUT_COM": "01101", "REGION": "Tarapac\u00e1", "PROVINCIA": "Iquique", "COMUNA": "Iquique", "variable": "Centros de Educaci\u00f3n Parvularia", "Nombres": "JARDIN INFANTIL AMTIRI", "POINT_X": -70.1287384, "POINT_Y": -20.24164772}}, {"type": "Feature", "geometry": {"type": "Point", "coordinates": [-70.14013999999999, -20.241589999999995]}, "properties": {"CUT_REG": "01", "CUT_PROV": "011", "CUT_COM": "01101", "REGION": "Tarapac\u00e1", "PROVINCIA": "Iquique", "COMUNA": "Iquique", "variable": "Centros de Educaci\u00f3n Parvularia", "Nombres": "JARDIN INFANTIL MUNAYI MONTESSORI", "POINT_X": -70.14014, "POINT_Y": -20.24159}}, {"type": "Feature", "geometry": {"type": "Point", "coordinates": [-70.13935088999997, -20.24097251999997]}, "properties": {"CUT_REG": "01", "CUT_PROV": "011", "CUT_COM": "01101", "REGION": "Tarapac\u00e1", "PROVINCIA": "Iquique", "COMUNA": "Iquique", "variable": "Centros de Educaci\u00f3n Parvularia", "Nombres": "ESC.EDUC.ESPECIAL FLOR DEL INCA", "POINT_X": -70.13935089, "POINT_Y": -20.24097252}}, {"type": "Feature", "geometry": {"type": "Point", "coordinates": [-70.13739000000001, -20.240578000000014]}, "properties": {"CUT_REG": "01", "CUT_PROV": "011", "CUT_COM": "01101", "REGION": "Tarapac\u00e1", "PROVINCIA": "Iquique", "COMUNA": "Iquique", "variable": "Centros de Educaci\u00f3n Parvularia", "Nombres": "CENTRO TRAT. INTEG. LOS TAMARUGOS", "POINT_X": -70.13739, "POINT_Y": -20.240578}}, {"type": "Feature", "geometry": {"type": "Point", "coordinates": [-70.12902800000002, -20.24048099999998]}, "properties": {"CUT_REG": "01", "CUT_PROV": "011", "CUT_COM": "01101", "REGION": "Tarapac\u00e1", "PROVINCIA": "Iquique", "COMUNA": "Iquique", "variable": "Centros de Educaci\u00f3n Parvularia", "Nombres": "DRAGONCITO", "POINT_X": -70.129028, "POINT_Y": -20.240481}}, {"type": "Feature", "geometry": {"type": "Point", "coordinates": [-70.14012000000002, -20.240171000000004]}, "properties": {"CUT_REG": "01", "CUT_PROV": "011", "CUT_COM": "01101", "REGION": "Tarapac\u00e1", "PROVINCIA": "Iquique", "COMUNA": "Iquique", "variable": "Centros de Educaci\u00f3n Parvularia", "Nombres": "JARDIN INFANTIL ACUARELA", "POINT_X": -70.14012, "POINT_Y": -20.240171}}, {"type": "Feature", "geometry": {"type": "Point", "coordinates": [-70.14094543000002, -20.23920631000003]}, "properties": {"CUT_REG": "01", "CUT_PROV": "011", "CUT_COM": "01101", "REGION": "Tarapac\u00e1", "PROVINCIA": "Iquique", "COMUNA": "Iquique", "variable": "Centros de Educaci\u00f3n Parvularia", "Nombres": "J. I. PUKARA", "POINT_X": -70.14094543, "POINT_Y": -20.23920631}}, {"type": "Feature", "geometry": {"type": "Point", "coordinates": [-70.14004700000002, -20.23908700000002]}, "properties": {"CUT_REG": "01", "CUT_PROV": "011", "CUT_COM": "01101", "REGION": "Tarapac\u00e1", "PROVINCIA": "Iquique", "COMUNA": "Iquique", "variable": "Centros de Educaci\u00f3n Parvularia", "Nombres": "ESC ESP DE LENGUAJE NIDOS DEL SABER", "POINT_X": -70.140047, "POINT_Y": -20.239087}}, {"type": "Feature", "geometry": {"type": "Point", "coordinates": [-70.13335799999999, -20.23887399999998]}, "properties": {"CUT_REG": "01", "CUT_PROV": "011", "CUT_COM": "01101", "REGION": "Tarapac\u00e1", "PROVINCIA": "Iquique", "COMUNA": "Iquique", "variable": "Centros de Educaci\u00f3n Parvularia", "Nombres": "NORTE\u00d1ITO", "POINT_X": -70.133358, "POINT_Y": -20.238874}}, {"type": "Feature", "geometry": {"type": "Point", "coordinates": [-70.13720499999997, -20.238450999999976]}, "properties": {"CUT_REG": "01", "CUT_PROV": "011", "CUT_COM": "01101", "REGION": "Tarapac\u00e1", "PROVINCIA": "Iquique", "COMUNA": "Iquique", "variable": "Centros de Educaci\u00f3n Parvularia", "Nombres": "PECECITO", "POINT_X": -70.137205, "POINT_Y": -20.238451}}, {"type": "Feature", "geometry": {"type": "Point", "coordinates": [-70.13133239999999, -20.23747825999996]}, "properties": {"CUT_REG": "01", "CUT_PROV": "011", "CUT_COM": "01101", "REGION": "Tarapac\u00e1", "PROVINCIA": "Iquique", "COMUNA": "Iquique", "variable": "Centros de Educaci\u00f3n Parvularia", "Nombres": "JARDIN INFANTIL CAPERUZO", "POINT_X": -70.1313324, "POINT_Y": -20.23747826}}, {"type": "Feature", "geometry": {"type": "Point", "coordinates": [-70.14100599999998, -20.236210000000007]}, "properties": {"CUT_REG": "01", "CUT_PROV": "011", "CUT_COM": "01101", "REGION": "Tarapac\u00e1", "PROVINCIA": "Iquique", "COMUNA": "Iquique", "variable": "Centros de Educaci\u00f3n Parvularia", "Nombres": "ESCUELA THILDA PORTILLO OLIVARES", "POINT_X": -70.141006, "POINT_Y": -20.23621}}, {"type": "Feature", "geometry": {"type": "Point", "coordinates": [-70.13547999999997, -20.231031000000037]}, "properties": {"CUT_REG": "01", "CUT_PROV": "011", "CUT_COM": "01101", "REGION": "Tarapac\u00e1", "PROVINCIA": "Iquique", "COMUNA": "Iquique", "variable": "Centros de Educaci\u00f3n Parvularia", "Nombres": "JARDIN INFANTIL ECOSEMILLITA", "POINT_X": -70.13548, "POINT_Y": -20.231031}}, {"type": "Feature", "geometry": {"type": "Point", "coordinates": [-70.13544999999999, -20.230796999999953]}, "properties": {"CUT_REG": "01", "CUT_PROV": "011", "CUT_COM": "01101", "REGION": "Tarapac\u00e1", "PROVINCIA": "Iquique", "COMUNA": "Iquique", "variable": "Centros de Educaci\u00f3n Parvularia", "Nombres": "ESCUELA ESPECIAL DE LENGUAJE LOS ANDES", "POINT_X": -70.13545, "POINT_Y": -20.230797}}, {"type": "Feature", "geometry": {"type": "Point", "coordinates": [-70.12888329999996, -20.23052769999996]}, "properties": {"CUT_REG": "01", "CUT_PROV": "011", "CUT_COM": "01101", "REGION": "Tarapac\u00e1", "PROVINCIA": "Iquique", "COMUNA": "Iquique", "variable": "Centros de Educaci\u00f3n Parvularia", "Nombres": "RETO\u00d1ITOS", "POINT_X": -70.1288833, "POINT_Y": -20.2305277}}, {"type": "Feature", "geometry": {"type": "Point", "coordinates": [-70.14375099999998, -20.22949299999997]}, "properties": {"CUT_REG": "01", "CUT_PROV": "011", "CUT_COM": "01101", "REGION": "Tarapac\u00e1", "PROVINCIA": "Iquique", "COMUNA": "Iquique", "variable": "Centros de Educaci\u00f3n Parvularia", "Nombres": "JARDIN INFANTIL Y SALA CUNA EL SOLDADITO", "POINT_X": -70.143751, "POINT_Y": -20.229493}}, {"type": "Feature", "geometry": {"type": "Point", "coordinates": [-70.134119, -20.22928499999999]}, "properties": {"CUT_REG": "01", "CUT_PROV": "011", "CUT_COM": "01101", "REGION": "Tarapac\u00e1", "PROVINCIA": "Iquique", "COMUNA": "Iquique", "variable": "Centros de Educaci\u00f3n Parvularia", "Nombres": "FLORCITAS DEL DESIERTO", "POINT_X": -70.134119, "POINT_Y": -20.229285}}, {"type": "Feature", "geometry": {"type": "Point", "coordinates": [-70.14239700000005, -20.229243999999973]}, "properties": {"CUT_REG": "01", "CUT_PROV": "011", "CUT_COM": "01101", "REGION": "Tarapac\u00e1", "PROVINCIA": "Iquique", "COMUNA": "Iquique", "variable": "Centros de Educaci\u00f3n Parvularia", "Nombres": "IKE - IKE", "POINT_X": -70.142397, "POINT_Y": -20.229244}}, {"type": "Feature", "geometry": {"type": "Point", "coordinates": [-70.14380645999995, -20.22822380000003]}, "properties": {"CUT_REG": "01", "CUT_PROV": "011", "CUT_COM": "01101", "REGION": "Tarapac\u00e1", "PROVINCIA": "Iquique", "COMUNA": "Iquique", "variable": "Centros de Educaci\u00f3n Parvularia", "Nombres": "JARDIN INFANTIL MATIAS", "POINT_X": -70.14380646, "POINT_Y": -20.2282238}}, {"type": "Feature", "geometry": {"type": "Point", "coordinates": [-70.13484999999999, -20.227280000000007]}, "properties": {"CUT_REG": "01", "CUT_PROV": "011", "CUT_COM": "01101", "REGION": "Tarapac\u00e1", "PROVINCIA": "Iquique", "COMUNA": "Iquique", "variable": "Centros de Educaci\u00f3n Parvularia", "Nombres": "COLEGIO REPUBLICA DE CROACIA", "POINT_X": -70.13485, "POINT_Y": -20.22728}}, {"type": "Feature", "geometry": {"type": "Point", "coordinates": [-70.13514399999997, -20.227135000000004]}, "properties": {"CUT_REG": "01", "CUT_PROV": "011", "CUT_COM": "01101", "REGION": "Tarapac\u00e1", "PROVINCIA": "Iquique", "COMUNA": "Iquique", "variable": "Centros de Educaci\u00f3n Parvularia", "Nombres": "LOS GUAYABITOS", "POINT_X": -70.135144, "POINT_Y": -20.227135}}, {"type": "Feature", "geometry": {"type": "Point", "coordinates": [-70.14425658999998, -20.22554016000003]}, "properties": {"CUT_REG": "01", "CUT_PROV": "011", "CUT_COM": "01101", "REGION": "Tarapac\u00e1", "PROVINCIA": "Iquique", "COMUNA": "Iquique", "variable": "Centros de Educaci\u00f3n Parvularia", "Nombres": "JARDIN INFANTIL EMMANUELITO", "POINT_X": -70.14425659, "POINT_Y": -20.22554016}}, {"type": "Feature", "geometry": {"type": "Point", "coordinates": [-70.147922741, -20.225428460000025]}, "properties": {"CUT_REG": "01", "CUT_PROV": "011", "CUT_COM": "01101", "REGION": "Tarapac\u00e1", "PROVINCIA": "Iquique", "COMUNA": "Iquique", "variable": "Centros de Educaci\u00f3n Parvularia", "Nombres": "J.S.R. CALETA SAN MARCOS", "POINT_X": -70.147922741, "POINT_Y": -20.22542846}}, {"type": "Feature", "geometry": {"type": "Point", "coordinates": [-70.147922741, -20.225428460000025]}, "properties": {"CUT_REG": "01", "CUT_PROV": "011", "CUT_COM": "01101", "REGION": "Tarapac\u00e1", "PROVINCIA": "Iquique", "COMUNA": "Iquique", "variable": "Centros de Educaci\u00f3n Parvularia", "Nombres": "J.S.R. PINTADOS", "POINT_X": -70.147922741, "POINT_Y": -20.22542846}}, {"type": "Feature", "geometry": {"type": "Point", "coordinates": [-70.14819068299997, -20.225271514000006]}, "properties": {"CUT_REG": "01", "CUT_PROV": "011", "CUT_COM": "01101", "REGION": "Tarapac\u00e1", "PROVINCIA": "Iquique", "COMUNA": "Iquique", "variable": "Centros de Educaci\u00f3n Parvularia", "Nombres": "VERDE ESPERANZA", "POINT_X": -70.148190683, "POINT_Y": -20.225271514}}, {"type": "Feature", "geometry": {"type": "Point", "coordinates": [-70.13229800000005, -20.22516599999998]}, "properties": {"CUT_REG": "01", "CUT_PROV": "011", "CUT_COM": "01101", "REGION": "Tarapac\u00e1", "PROVINCIA": "Iquique", "COMUNA": "Iquique", "variable": "Centros de Educaci\u00f3n Parvularia", "Nombres": "ESCUELA ESPECIAL DE LENGUAJE SAN JOAQUIN", "POINT_X": -70.132298, "POINT_Y": -20.225166}}, {"type": "Feature", "geometry": {"type": "Point", "coordinates": [-70.14849899999999, -20.22513999999996]}, "properties": {"CUT_REG": "01", "CUT_PROV": "011", "CUT_COM": "01101", "REGION": "Tarapac\u00e1", "PROVINCIA": "Iquique", "COMUNA": "Iquique", "variable": "Centros de Educaci\u00f3n Parvularia", "Nombres": "COLEGIO ADVENTISTA DE IQUIQUE", "POINT_X": -70.148499, "POINT_Y": -20.22514}}, {"type": "Feature", "geometry": {"type": "Point", "coordinates": [-70.14100599999998, -20.22407900000001]}, "properties": {"CUT_REG": "01", "CUT_PROV": "011", "CUT_COM": "01101", "REGION": "Tarapac\u00e1", "PROVINCIA": "Iquique", "COMUNA": "Iquique", "variable": "Centros de Educaci\u00f3n Parvularia", "Nombres": "LICEO PDTE. ANIBAL PINTO GARMENDIA.", "POINT_X": -70.141006, "POINT_Y": -20.224079}}, {"type": "Feature", "geometry": {"type": "Point", "coordinates": [-70.14997100000002, -20.22388099999997]}, "properties": {"CUT_REG": "01", "CUT_PROV": "011", "CUT_COM": "01101", "REGION": "Tarapac\u00e1", "PROVINCIA": "Iquique", "COMUNA": "Iquique", "variable": "Centros de Educaci\u00f3n Parvularia", "Nombres": "COLEGIO SALESIANO DE IQUIQUE", "POINT_X": -70.149971, "POINT_Y": -20.223881}}, {"type": "Feature", "geometry": {"type": "Point", "coordinates": [-70.144684, -20.22362500000002]}, "properties": {"CUT_REG": "01", "CUT_PROV": "011", "CUT_COM": "01101", "REGION": "Tarapac\u00e1", "PROVINCIA": "Iquique", "COMUNA": "Iquique", "variable": "Centros de Educaci\u00f3n Parvularia", "Nombres": "JARDIN INFANTIL HAPPY DAY", "POINT_X": -70.144684, "POINT_Y": -20.223625}}, {"type": "Feature", "geometry": {"type": "Point", "coordinates": [-70.14456177000001, -20.223577499999998]}, "properties": {"CUT_REG": "01", "CUT_PROV": "011", "CUT_COM": "01101", "REGION": "Tarapac\u00e1", "PROVINCIA": "Iquique", "COMUNA": "Iquique", "variable": "Centros de Educaci\u00f3n Parvularia", "Nombres": "JARDIN INFANTIL MIS PRIMEROS PASOS 2", "POINT_X": -70.14456177, "POINT_Y": -20.2235775}}, {"type": "Feature", "geometry": {"type": "Point", "coordinates": [-70.14475999999998, -20.221810000000033]}, "properties": {"CUT_REG": "01", "CUT_PROV": "011", "CUT_COM": "01101", "REGION": "Tarapac\u00e1", "PROVINCIA": "Iquique", "COMUNA": "Iquique", "variable": "Centros de Educaci\u00f3n Parvularia", "Nombres": "ESCUELA DE LENGUAJE KERIMA LTDA.", "POINT_X": -70.14476, "POINT_Y": -20.22181}}, {"type": "Feature", "geometry": {"type": "Point", "coordinates": [-70.15144299999994, -20.22108999999997]}, "properties": {"CUT_REG": "01", "CUT_PROV": "011", "CUT_COM": "01101", "REGION": "Tarapac\u00e1", "PROVINCIA": "Iquique", "COMUNA": "Iquique", "variable": "Centros de Educaci\u00f3n Parvularia", "Nombres": "LICEO SUPERIOR GABRIELA MISTRAL", "POINT_X": -70.151443, "POINT_Y": -20.22109}}, {"type": "Feature", "geometry": {"type": "Point", "coordinates": [-70.15292400000001, -20.220738999999973]}, "properties": {"CUT_REG": "01", "CUT_PROV": "011", "CUT_COM": "01101", "REGION": "Tarapac\u00e1", "PROVINCIA": "Iquique", "COMUNA": "Iquique", "variable": "Centros de Educaci\u00f3n Parvularia", "Nombres": "COLEGIO GOLDEN NORTH", "POINT_X": -70.152924, "POINT_Y": -20.220739}}, {"type": "Feature", "geometry": {"type": "Point", "coordinates": [-70.13459545999999, -20.220467070000034]}, "properties": {"CUT_REG": "01", "CUT_PROV": "011", "CUT_COM": "01101", "REGION": "Tarapac\u00e1", "PROVINCIA": "Iquique", "COMUNA": "Iquique", "variable": "Centros de Educaci\u00f3n Parvularia", "Nombres": "COLEGIO HUANTAJAYA", "POINT_X": -70.13459546, "POINT_Y": -20.22046707}}, {"type": "Feature", "geometry": {"type": "Point", "coordinates": [-70.14624799999999, -20.22039999999999]}, "properties": {"CUT_REG": "01", "CUT_PROV": "011", "CUT_COM": "01101", "REGION": "Tarapac\u00e1", "PROVINCIA": "Iquique", "COMUNA": "Iquique", "variable": "Centros de Educaci\u00f3n Parvularia", "Nombres": "ESCUELA PAULA JARAQUEMADA ALQUIZAR", "POINT_X": -70.146248, "POINT_Y": -20.2204}}, {"type": "Feature", "geometry": {"type": "Point", "coordinates": [-70.144112, -20.220239999999983]}, "properties": {"CUT_REG": "01", "CUT_PROV": "011", "CUT_COM": "01101", "REGION": "Tarapac\u00e1", "PROVINCIA": "Iquique", "COMUNA": "Iquique", "variable": "Centros de Educaci\u00f3n Parvularia", "Nombres": "ESCUELA PLACIDO VILLARROEL", "POINT_X": -70.144112, "POINT_Y": -20.22024}}, {"type": "Feature", "geometry": {"type": "Point", "coordinates": [-70.14824999999999, -20.21955499999997]}, "properties": {"CUT_REG": "01", "CUT_PROV": "011", "CUT_COM": "01101", "REGION": "Tarapac\u00e1", "PROVINCIA": "Iquique", "COMUNA": "Iquique", "variable": "Centros de Educaci\u00f3n Parvularia", "Nombres": "ACADEMIA IQUIQUE", "POINT_X": -70.14825, "POINT_Y": -20.219555}}, {"type": "Feature", "geometry": {"type": "Point", "coordinates": [-70.14780399999995, -20.218383999999986]}, "properties": {"CUT_REG": "01", "CUT_PROV": "011", "CUT_COM": "01101", "REGION": "Tarapac\u00e1", "PROVINCIA": "Iquique", "COMUNA": "Iquique", "variable": "Centros de Educaci\u00f3n Parvularia", "Nombres": "JARDIN INFANTIL TALPIOT", "POINT_X": -70.147804, "POINT_Y": -20.218384}}, {"type": "Feature", "geometry": {"type": "Point", "coordinates": [-70.14517199999996, -20.217911000000015]}, "properties": {"CUT_REG": "01", "CUT_PROV": "011", "CUT_COM": "01101", "REGION": "Tarapac\u00e1", "PROVINCIA": "Iquique", "COMUNA": "Iquique", "variable": "Centros de Educaci\u00f3n Parvularia", "Nombres": "ESCUELA BASICA CORONA SCHOOL", "POINT_X": -70.145172, "POINT_Y": -20.217911}}, {"type": "Feature", "geometry": {"type": "Point", "coordinates": [-70.13644000000001, -20.217860999999964]}, "properties": {"CUT_REG": "01", "CUT_PROV": "011", "CUT_COM": "01101", "REGION": "Tarapac\u00e1", "PROVINCIA": "Iquique", "COMUNA": "Iquique", "variable": "Centros de Educaci\u00f3n Parvularia", "Nombres": "JARDIN INFANTIL DAELY", "POINT_X": -70.13644, "POINT_Y": -20.217861}}, {"type": "Feature", "geometry": {"type": "Point", "coordinates": [-70.14691199999996, -20.217590000000015]}, "properties": {"CUT_REG": "01", "CUT_PROV": "011", "CUT_COM": "01101", "REGION": "Tarapac\u00e1", "PROVINCIA": "Iquique", "COMUNA": "Iquique", "variable": "Centros de Educaci\u00f3n Parvularia", "Nombres": "LICEO BICENTENARIO DOMINGO SANTA MARIA DE IQQ.", "POINT_X": -70.146912, "POINT_Y": -20.21759}}, {"type": "Feature", "geometry": {"type": "Point", "coordinates": [-70.15342897899995, -20.217207383999977]}, "properties": {"CUT_REG": "01", "CUT_PROV": "011", "CUT_COM": "01101", "REGION": "Tarapac\u00e1", "PROVINCIA": "Iquique", "COMUNA": "Iquique", "variable": "Centros de Educaci\u00f3n Parvularia", "Nombres": "PEQUE\u00d1O MORRO", "POINT_X": -70.153428979, "POINT_Y": -20.217207384}}, {"type": "Feature", "geometry": {"type": "Point", "coordinates": [-70.14012999999997, -20.21691500000003]}, "properties": {"CUT_REG": "01", "CUT_PROV": "011", "CUT_COM": "01101", "REGION": "Tarapac\u00e1", "PROVINCIA": "Iquique", "COMUNA": "Iquique", "variable": "Centros de Educaci\u00f3n Parvularia", "Nombres": "ESCUELA DE LENGUAJE MOMENTOS PRECIOSOS", "POINT_X": -70.14013, "POINT_Y": -20.216915}}, {"type": "Feature", "geometry": {"type": "Point", "coordinates": [-70.14278999999996, -20.216573999999973]}, "properties": {"CUT_REG": "01", "CUT_PROV": "011", "CUT_COM": "01101", "REGION": "Tarapac\u00e1", "PROVINCIA": "Iquique", "COMUNA": "Iquique", "variable": "Centros de Educaci\u00f3n Parvularia", "Nombres": "ESCUELA ESPECIAL PADRE PIO", "POINT_X": -70.14279, "POINT_Y": -20.216574}}, {"type": "Feature", "geometry": {"type": "Point", "coordinates": [-70.13577, -20.215776000000027]}, "properties": {"CUT_REG": "01", "CUT_PROV": "011", "CUT_COM": "01101", "REGION": "Tarapac\u00e1", "PROVINCIA": "Iquique", "COMUNA": "Iquique", "variable": "Centros de Educaci\u00f3n Parvularia", "Nombres": "ESCUELA DE LENGUAJE ANGELUZ", "POINT_X": -70.13577, "POINT_Y": -20.215776}}, {"type": "Feature", "geometry": {"type": "Point", "coordinates": [-70.13880920000001, -20.21555327999998]}, "properties": {"CUT_REG": "01", "CUT_PROV": "011", "CUT_COM": "01101", "REGION": "Tarapac\u00e1", "PROVINCIA": "Iquique", "COMUNA": "Iquique", "variable": "Centros de Educaci\u00f3n Parvularia", "Nombres": "JARDIN INFANTIL D`STEPHANO", "POINT_X": -70.1388092, "POINT_Y": -20.21555328}}, {"type": "Feature", "geometry": {"type": "Point", "coordinates": [-70.14211939999998, -20.215429999999998]}, "properties": {"CUT_REG": "01", "CUT_PROV": "011", "CUT_COM": "01101", "REGION": "Tarapac\u00e1", "PROVINCIA": "Iquique", "COMUNA": "Iquique", "variable": "Centros de Educaci\u00f3n Parvularia", "Nombres": "MUNDO DE SUE\u00d1OS CECI", "POINT_X": -70.1421194, "POINT_Y": -20.21543}}, {"type": "Feature", "geometry": {"type": "Point", "coordinates": [-70.14946999999995, -20.215336000000036]}, "properties": {"CUT_REG": "01", "CUT_PROV": "011", "CUT_COM": "01101", "REGION": "Tarapac\u00e1", "PROVINCIA": "Iquique", "COMUNA": "Iquique", "variable": "Centros de Educaci\u00f3n Parvularia", "Nombres": "ESC.TRAST.DE LA COM.FLOR DE LIRIO", "POINT_X": -70.14947, "POINT_Y": -20.215336}}, {"type": "Feature", "geometry": {"type": "Point", "coordinates": [-70.13879000000003, -20.21494999999998]}, "properties": {"CUT_REG": "01", "CUT_PROV": "011", "CUT_COM": "01101", "REGION": "Tarapac\u00e1", "PROVINCIA": "Iquique", "COMUNA": "Iquique", "variable": "Centros de Educaci\u00f3n Parvularia", "Nombres": "AULA HOSPITALARIA SAN SEBASTIAN DE IQUIQUE", "POINT_X": -70.13879, "POINT_Y": -20.21495}}, {"type": "Feature", "geometry": {"type": "Point", "coordinates": [-70.15091, -20.214559999999956]}, "properties": {"CUT_REG": "01", "CUT_PROV": "011", "CUT_COM": "01101", "REGION": "Tarapac\u00e1", "PROVINCIA": "Iquique", "COMUNA": "Iquique", "variable": "Centros de Educaci\u00f3n Parvularia", "Nombres": "JARDIN INFANTIL HAPPY GARDEN", "POINT_X": -70.15091, "POINT_Y": -20.21456}}, {"type": "Feature", "geometry": {"type": "Point", "coordinates": [-70.13585699999999, -20.214479000000004]}, "properties": {"CUT_REG": "01", "CUT_PROV": "011", "CUT_COM": "01101", "REGION": "Tarapac\u00e1", "PROVINCIA": "Iquique", "COMUNA": "Iquique", "variable": "Centros de Educaci\u00f3n Parvularia", "Nombres": "ESCUELA EDUARDO LLANOS", "POINT_X": -70.135857, "POINT_Y": -20.214479}}, {"type": "Feature", "geometry": {"type": "Point", "coordinates": [-70.14373016000003, -20.213876719999995]}, "properties": {"CUT_REG": "01", "CUT_PROV": "011", "CUT_COM": "01101", "REGION": "Tarapac\u00e1", "PROVINCIA": "Iquique", "COMUNA": "Iquique", "variable": "Centros de Educaci\u00f3n Parvularia", "Nombres": "JARDIN INFANTIL EL LLAMITO", "POINT_X": -70.14373016, "POINT_Y": -20.21387672}}, {"type": "Feature", "geometry": {"type": "Point", "coordinates": [-70.14511900000002, -20.213511000000025]}, "properties": {"CUT_REG": "01", "CUT_PROV": "011", "CUT_COM": "01101", "REGION": "Tarapac\u00e1", "PROVINCIA": "Iquique", "COMUNA": "Iquique", "variable": "Centros de Educaci\u00f3n Parvularia", "Nombres": "ESCUELA CENTENARIO", "POINT_X": -70.145119, "POINT_Y": -20.213511}}, {"type": "Feature", "geometry": {"type": "Point", "coordinates": [-70.13844999999995, -20.213223]}, "properties": {"CUT_REG": "01", "CUT_PROV": "011", "CUT_COM": "01101", "REGION": "Tarapac\u00e1", "PROVINCIA": "Iquique", "COMUNA": "Iquique", "variable": "Centros de Educaci\u00f3n Parvularia", "Nombres": "ESCUELA DE LENGUAJE NUBE Y SOL", "POINT_X": -70.13845, "POINT_Y": -20.213223}}, {"type": "Feature", "geometry": {"type": "Point", "coordinates": [-70.146452, -20.211525000000016]}, "properties": {"CUT_REG": "01", "CUT_PROV": "011", "CUT_COM": "01101", "REGION": "Tarapac\u00e1", "PROVINCIA": "Iquique", "COMUNA": "Iquique", "variable": "Centros de Educaci\u00f3n Parvularia", "Nombres": "S.C. ESTRELLITAS", "POINT_X": -70.146452, "POINT_Y": -20.211525}}, {"type": "Feature", "geometry": {"type": "Point", "coordinates": [-70.14593506000003, -20.21065520999999]}, "properties": {"CUT_REG": "01", "CUT_PROV": "011", "CUT_COM": "01101", "REGION": "Tarapac\u00e1", "PROVINCIA": "Iquique", "COMUNA": "Iquique", "variable": "Centros de Educaci\u00f3n Parvularia", "Nombres": "J.I.SAINT MARGARET ROSE GARDEN", "POINT_X": -70.14593506, "POINT_Y": -20.21065521}}, {"type": "Feature", "geometry": {"type": "Point", "coordinates": [-70.13429899999997, -20.210574000000022]}, "properties": {"CUT_REG": "01", "CUT_PROV": "011", "CUT_COM": "01101", "REGION": "Tarapac\u00e1", "PROVINCIA": "Iquique", "COMUNA": "Iquique", "variable": "Centros de Educaci\u00f3n Parvularia", "Nombres": "CALICHITO", "POINT_X": -70.134299, "POINT_Y": -20.210574}}, {"type": "Feature", "geometry": {"type": "Point", "coordinates": [-70.14260101000005, -20.210367199999965]}, "properties": {"CUT_REG": "01", "CUT_PROV": "011", "CUT_COM": "01101", "REGION": "Tarapac\u00e1", "PROVINCIA": "Iquique", "COMUNA": "Iquique", "variable": "Centros de Educaci\u00f3n Parvularia", "Nombres": "J. I. ANATIRI", "POINT_X": -70.14260101, "POINT_Y": -20.2103672}}, {"type": "Feature", "geometry": {"type": "Point", "coordinates": [-70.148628, -20.209406000000016]}, "properties": {"CUT_REG": "01", "CUT_PROV": "011", "CUT_COM": "01101", "REGION": "Tarapac\u00e1", "PROVINCIA": "Iquique", "COMUNA": "Iquique", "variable": "Centros de Educaci\u00f3n Parvularia", "Nombres": "S.C. SONRISAS DE BEB\u00c9", "POINT_X": -70.148628, "POINT_Y": -20.209406}}, {"type": "Feature", "geometry": {"type": "Point", "coordinates": [-70.145531, -20.209088999999985]}, "properties": {"CUT_REG": "01", "CUT_PROV": "011", "CUT_COM": "01101", "REGION": "Tarapac\u00e1", "PROVINCIA": "Iquique", "COMUNA": "Iquique", "variable": "Centros de Educaci\u00f3n Parvularia", "Nombres": "COLEGIO DIOCESANO OBISPO LABBE", "POINT_X": -70.145531, "POINT_Y": -20.209089}}, {"type": "Feature", "geometry": {"type": "Point", "coordinates": [-70.14578, -20.208809999999993]}, "properties": {"CUT_REG": "01", "CUT_PROV": "011", "CUT_COM": "01101", "REGION": "Tarapac\u00e1", "PROVINCIA": "Iquique", "COMUNA": "Iquique", "variable": "Centros de Educaci\u00f3n Parvularia", "Nombres": "ESC.ESP.DE TRANS. DE LA COM. ARUSINA", "POINT_X": -70.14578, "POINT_Y": -20.20881}}]}