{"type": "FeatureCollection", "features": [{"type": "Feature", "geometry": {"type": "Point", "coordinates": [-70.17983100000001, -19.160019999999975]}, "properties": {"CUT_REG": "15", "CUT_PROV": "151", "CUT_COM": "15102", "REGION": "Arica y Parinacota", "PROVINCIA": "Arica", "COMUNA": "Camarones", "variable": "Centros de Educaci\u00f3n Parvularia", "Nombres": "SEMILLITAS DE CUYA", "POINT_X": -70.179831, "POINT_Y": -19.16002}}, {"type": "Feature", "geometry": {"type": "Point", "coordinates": [-69.41854551100003, -18.8975391985]}, "properties": {"CUT_REG": "15", "CUT_PROV": "151", "CUT_COM": "15102", "REGION": "Arica y Parinacota", "PROVINCIA": "Arica", "COMUNA": "Camarones", "variable": "Centros de Educaci\u00f3n Parvularia", "Nombres": "INTI JALSU", "POINT_X": -69.418545511, "POINT_Y": -18.8975391985}}, {"type": "Feature", "geometry": {"type": "Point", "coordinates": [-70.32182399999999, -18.756422000000036]}, "properties": {"CUT_REG": "15", "CUT_PROV": "151", "CUT_COM": "15101", "REGION": "Arica y Parinacota", "PROVINCIA": "Arica", "COMUNA": "Arica", "variable": "Centros de Educaci\u00f3n Parvularia", "Nombres": "CALETA VITOR", "POINT_X": -70.321824, "POINT_Y": -18.756422}}, {"type": "Feature", "geometry": {"type": "Point", "coordinates": [-70.24125999999997, -18.587619999999987]}, "properties": {"CUT_REG": "15", "CUT_PROV": "151", "CUT_COM": "15101", "REGION": "Arica y Parinacota", "PROVINCIA": "Arica", "COMUNA": "Arica", "variable": "Centros de Educaci\u00f3n Parvularia", "Nombres": "QUEBRADA DE ACHA", "POINT_X": -70.24126, "POINT_Y": -18.58762}}, {"type": "Feature", "geometry": {"type": "Point", "coordinates": [-69.96517200000002, -18.578210999999975]}, "properties": {"CUT_REG": "15", "CUT_PROV": "151", "CUT_COM": "15101", "REGION": "Arica y Parinacota", "PROVINCIA": "Arica", "COMUNA": "Arica", "variable": "Centros de Educaci\u00f3n Parvularia", "Nombres": "ESCUELA PAMPA ALGODONAL", "POINT_X": -69.965172, "POINT_Y": -18.578211}}, {"type": "Feature", "geometry": {"type": "Point", "coordinates": [-70.05624526999998, -18.573951260000037]}, "properties": {"CUT_REG": "15", "CUT_PROV": "151", "CUT_COM": "15101", "REGION": "Arica y Parinacota", "PROVINCIA": "Arica", "COMUNA": "Arica", "variable": "Centros de Educaci\u00f3n Parvularia", "Nombres": "SUMA PANQARITAS", "POINT_X": -70.05624527, "POINT_Y": -18.57395126}}, {"type": "Feature", "geometry": {"type": "Point", "coordinates": [-70.25103100000001, -18.545049999999982]}, "properties": {"CUT_REG": "15", "CUT_PROV": "151", "CUT_COM": "15101", "REGION": "Arica y Parinacota", "PROVINCIA": "Arica", "COMUNA": "Arica", "variable": "Centros de Educaci\u00f3n Parvularia", "Nombres": "S.C. CASTORCITOS", "POINT_X": -70.251031, "POINT_Y": -18.54505}}, {"type": "Feature", "geometry": {"type": "Point", "coordinates": [-70.20899700000002, -18.53393300000004]}, "properties": {"CUT_REG": "15", "CUT_PROV": "151", "CUT_COM": "15101", "REGION": "Arica y Parinacota", "PROVINCIA": "Arica", "COMUNA": "Arica", "variable": "Centros de Educaci\u00f3n Parvularia", "Nombres": "LAS LLOSYAS", "POINT_X": -70.208997, "POINT_Y": -18.533933}}, {"type": "Feature", "geometry": {"type": "Point", "coordinates": [-70.29271, -18.523877999999954]}, "properties": {"CUT_REG": "15", "CUT_PROV": "151", "CUT_COM": "15101", "REGION": "Arica y Parinacota", "PROVINCIA": "Arica", "COMUNA": "Arica", "variable": "Centros de Educaci\u00f3n Parvularia", "Nombres": "ESC. ESP. LENG. SEMILLITAS DE AMOR", "POINT_X": -70.29271, "POINT_Y": -18.523878}}, {"type": "Feature", "geometry": {"type": "Point", "coordinates": [-70.19566900000002, -18.52050400000003]}, "properties": {"CUT_REG": "15", "CUT_PROV": "151", "CUT_COM": "15101", "REGION": "Arica y Parinacota", "PROVINCIA": "Arica", "COMUNA": "Arica", "variable": "Centros de Educaci\u00f3n Parvularia", "Nombres": "CECI LOS INDUSTRIALES", "POINT_X": -70.195669, "POINT_Y": -18.520504}}, {"type": "Feature", "geometry": {"type": "Point", "coordinates": [-70.175797, -18.520096000000024]}, "properties": {"CUT_REG": "15", "CUT_PROV": "151", "CUT_COM": "15101", "REGION": "Arica y Parinacota", "PROVINCIA": "Arica", "COMUNA": "Arica", "variable": "Centros de Educaci\u00f3n Parvularia", "Nombres": "SAN MIGUEL DE AZAPA", "POINT_X": -70.175797, "POINT_Y": -18.520096}}, {"type": "Feature", "geometry": {"type": "Point", "coordinates": [-70.17874099999996, -18.519259999999953]}, "properties": {"CUT_REG": "15", "CUT_PROV": "151", "CUT_COM": "15101", "REGION": "Arica y Parinacota", "PROVINCIA": "Arica", "COMUNA": "Arica", "variable": "Centros de Educaci\u00f3n Parvularia", "Nombres": "LICEO AGRICOLA JOSE ABELARDO NUNEZ M.", "POINT_X": -70.178741, "POINT_Y": -18.51926}}, {"type": "Feature", "geometry": {"type": "Point", "coordinates": [-70.29359399999996, -18.514835000000026]}, "properties": {"CUT_REG": "15", "CUT_PROV": "151", "CUT_COM": "15101", "REGION": "Arica y Parinacota", "PROVINCIA": "Arica", "COMUNA": "Arica", "variable": "Centros de Educaci\u00f3n Parvularia", "Nombres": "ESCUELA ESP. DE LENGUAJE ILLAWARA", "POINT_X": -70.293594, "POINT_Y": -18.514835}}, {"type": "Feature", "geometry": {"type": "Point", "coordinates": [-70.26566599999997, -18.512557000000015]}, "properties": {"CUT_REG": "15", "CUT_PROV": "151", "CUT_COM": "15101", "REGION": "Arica y Parinacota", "PROVINCIA": "Arica", "COMUNA": "Arica", "variable": "Centros de Educaci\u00f3n Parvularia", "Nombres": "SOMBRERITO", "POINT_X": -70.265666, "POINT_Y": -18.512557}}, {"type": "Feature", "geometry": {"type": "Point", "coordinates": [-70.29449000000002, -18.505792999999997]}, "properties": {"CUT_REG": "15", "CUT_PROV": "151", "CUT_COM": "15101", "REGION": "Arica y Parinacota", "PROVINCIA": "Arica", "COMUNA": "Arica", "variable": "Centros de Educaci\u00f3n Parvularia", "Nombres": "COLEGIO DIFERENCIAL COLIBR\u00cd", "POINT_X": -70.29449, "POINT_Y": -18.505793}}, {"type": "Feature", "geometry": {"type": "Point", "coordinates": [-70.31212, -18.500628000000034]}, "properties": {"CUT_REG": "15", "CUT_PROV": "151", "CUT_COM": "15101", "REGION": "Arica y Parinacota", "PROVINCIA": "Arica", "COMUNA": "Arica", "variable": "Centros de Educaci\u00f3n Parvularia", "Nombres": "ESCUELA ESPECIAL DE LENGUAJE AMANK`AY", "POINT_X": -70.31212, "POINT_Y": -18.500628}}, {"type": "Feature", "geometry": {"type": "Point", "coordinates": [-70.28207999999995, -18.500250000000023]}, "properties": {"CUT_REG": "15", "CUT_PROV": "151", "CUT_COM": "15101", "REGION": "Arica y Parinacota", "PROVINCIA": "Arica", "COMUNA": "Arica", "variable": "Centros de Educaci\u00f3n Parvularia", "Nombres": "PEDREGAL II", "POINT_X": -70.28208, "POINT_Y": -18.50025}}, {"type": "Feature", "geometry": {"type": "Point", "coordinates": [-70.28223760000003, -18.49993010000002]}, "properties": {"CUT_REG": "15", "CUT_PROV": "151", "CUT_COM": "15101", "REGION": "Arica y Parinacota", "PROVINCIA": "Arica", "COMUNA": "Arica", "variable": "Centros de Educaci\u00f3n Parvularia", "Nombres": "EL PEDREGAL", "POINT_X": -70.2822376, "POINT_Y": -18.4999301}}, {"type": "Feature", "geometry": {"type": "Point", "coordinates": [-70.25711000000001, -18.49991999999999]}, "properties": {"CUT_REG": "15", "CUT_PROV": "151", "CUT_COM": "15101", "REGION": "Arica y Parinacota", "PROVINCIA": "Arica", "COMUNA": "Arica", "variable": "Centros de Educaci\u00f3n Parvularia", "Nombres": "THE AZAPA VALLEY SCHOOL", "POINT_X": -70.25711, "POINT_Y": -18.49992}}, {"type": "Feature", "geometry": {"type": "Point", "coordinates": [-70.30570999999996, -18.496990000000032]}, "properties": {"CUT_REG": "15", "CUT_PROV": "151", "CUT_COM": "15101", "REGION": "Arica y Parinacota", "PROVINCIA": "Arica", "COMUNA": "Arica", "variable": "Centros de Educaci\u00f3n Parvularia", "Nombres": "COLEGIO MIRAMAR", "POINT_X": -70.30571, "POINT_Y": -18.49699}}, {"type": "Feature", "geometry": {"type": "Point", "coordinates": [-70.30332100000001, -18.496821999999987]}, "properties": {"CUT_REG": "15", "CUT_PROV": "151", "CUT_COM": "15101", "REGION": "Arica y Parinacota", "PROVINCIA": "Arica", "COMUNA": "Arica", "variable": "Centros de Educaci\u00f3n Parvularia", "Nombres": "MILAGRO DE AMOR", "POINT_X": -70.303321, "POINT_Y": -18.496822}}, {"type": "Feature", "geometry": {"type": "Point", "coordinates": [-70.29537, -18.496751999999965]}, "properties": {"CUT_REG": "15", "CUT_PROV": "151", "CUT_COM": "15101", "REGION": "Arica y Parinacota", "PROVINCIA": "Arica", "COMUNA": "Arica", "variable": "Centros de Educaci\u00f3n Parvularia", "Nombres": "ESC.ESP.LENG LOS BENJAMINES", "POINT_X": -70.29537, "POINT_Y": -18.496752}}, {"type": "Feature", "geometry": {"type": "Point", "coordinates": [-70.29678999999999, -18.495955000000016]}, "properties": {"CUT_REG": "15", "CUT_PROV": "151", "CUT_COM": "15101", "REGION": "Arica y Parinacota", "PROVINCIA": "Arica", "COMUNA": "Arica", "variable": "Centros de Educaci\u00f3n Parvularia", "Nombres": "JARDIN INFANTIL PEQUENO ARRAU", "POINT_X": -70.29679, "POINT_Y": -18.495955}}, {"type": "Feature", "geometry": {"type": "Point", "coordinates": [-70.28467416500001, -18.49576235199997]}, "properties": {"CUT_REG": "15", "CUT_PROV": "151", "CUT_COM": "15101", "REGION": "Arica y Parinacota", "PROVINCIA": "Arica", "COMUNA": "Arica", "variable": "Centros de Educaci\u00f3n Parvularia", "Nombres": "CECI NUEVA ESPERANZA", "POINT_X": -70.284674165, "POINT_Y": -18.495762352}}, {"type": "Feature", "geometry": {"type": "Point", "coordinates": [-70.30589999999995, -18.495465999999965]}, "properties": {"CUT_REG": "15", "CUT_PROV": "151", "CUT_COM": "15101", "REGION": "Arica y Parinacota", "PROVINCIA": "Arica", "COMUNA": "Arica", "variable": "Centros de Educaci\u00f3n Parvularia", "Nombres": "ESC ESP DE LENG SENDERO DEL SABER", "POINT_X": -70.3059, "POINT_Y": -18.495466}}, {"type": "Feature", "geometry": {"type": "Point", "coordinates": [-70.295403, -18.494490000000035]}, "properties": {"CUT_REG": "15", "CUT_PROV": "151", "CUT_COM": "15101", "REGION": "Arica y Parinacota", "PROVINCIA": "Arica", "COMUNA": "Arica", "variable": "Centros de Educaci\u00f3n Parvularia", "Nombres": "COLEGIO FORD COLLEGE", "POINT_X": -70.295403, "POINT_Y": -18.49449}}, {"type": "Feature", "geometry": {"type": "Point", "coordinates": [-70.27498000000003, -18.494180999999962]}, "properties": {"CUT_REG": "15", "CUT_PROV": "151", "CUT_COM": "15101", "REGION": "Arica y Parinacota", "PROVINCIA": "Arica", "COMUNA": "Arica", "variable": "Centros de Educaci\u00f3n Parvularia", "Nombres": "COLEGIO ANDINO", "POINT_X": -70.27498, "POINT_Y": -18.494181}}, {"type": "Feature", "geometry": {"type": "Point", "coordinates": [-70.290314, -18.492929000000018]}, "properties": {"CUT_REG": "15", "CUT_PROV": "151", "CUT_COM": "15101", "REGION": "Arica y Parinacota", "PROVINCIA": "Arica", "COMUNA": "Arica", "variable": "Centros de Educaci\u00f3n Parvularia", "Nombres": "COLEGIO SAUCACHE", "POINT_X": -70.290314, "POINT_Y": -18.492929}}, {"type": "Feature", "geometry": {"type": "Point", "coordinates": [-70.29062999999995, -18.492291999999985]}, "properties": {"CUT_REG": "15", "CUT_PROV": "151", "CUT_COM": "15101", "REGION": "Arica y Parinacota", "PROVINCIA": "Arica", "COMUNA": "Arica", "variable": "Centros de Educaci\u00f3n Parvularia", "Nombres": "ESCUELA ESP DE LENGUAJE PARINA", "POINT_X": -70.29063, "POINT_Y": -18.492292}}, {"type": "Feature", "geometry": {"type": "Point", "coordinates": [-70.28029599999996, -18.492210000000036]}, "properties": {"CUT_REG": "15", "CUT_PROV": "151", "CUT_COM": "15101", "REGION": "Arica y Parinacota", "PROVINCIA": "Arica", "COMUNA": "Arica", "variable": "Centros de Educaci\u00f3n Parvularia", "Nombres": "COLEGIO ALEMAN DE ARICA", "POINT_X": -70.280296, "POINT_Y": -18.49221}}, {"type": "Feature", "geometry": {"type": "Point", "coordinates": [-70.293968, -18.49192999999996]}, "properties": {"CUT_REG": "15", "CUT_PROV": "151", "CUT_COM": "15101", "REGION": "Arica y Parinacota", "PROVINCIA": "Arica", "COMUNA": "Arica", "variable": "Centros de Educaci\u00f3n Parvularia", "Nombres": "ESCUELA GRAL JOSE MIGUEL CARRERA", "POINT_X": -70.293968, "POINT_Y": -18.49193}}, {"type": "Feature", "geometry": {"type": "Point", "coordinates": [-70.28383600000004, -18.49110000000003]}, "properties": {"CUT_REG": "15", "CUT_PROV": "151", "CUT_COM": "15101", "REGION": "Arica y Parinacota", "PROVINCIA": "Arica", "COMUNA": "Arica", "variable": "Centros de Educaci\u00f3n Parvularia", "Nombres": "COLEGIO CARDENAL ANTONIO SAMORE", "POINT_X": -70.283836, "POINT_Y": -18.4911}}, {"type": "Feature", "geometry": {"type": "Point", "coordinates": [-70.311577, -18.49101099999995]}, "properties": {"CUT_REG": "15", "CUT_PROV": "151", "CUT_COM": "15101", "REGION": "Arica y Parinacota", "PROVINCIA": "Arica", "COMUNA": "Arica", "variable": "Centros de Educaci\u00f3n Parvularia", "Nombres": "ESC. GRAL. PEDRO LAGOS MARCHANT", "POINT_X": -70.311577, "POINT_Y": -18.491011}}, {"type": "Feature", "geometry": {"type": "Point", "coordinates": [-70.29906500000001, -18.490172999999984]}, "properties": {"CUT_REG": "15", "CUT_PROV": "151", "CUT_COM": "15101", "REGION": "Arica y Parinacota", "PROVINCIA": "Arica", "COMUNA": "Arica", "variable": "Centros de Educaci\u00f3n Parvularia", "Nombres": "JARDIN INFANTIL DON OSITO", "POINT_X": -70.299065, "POINT_Y": -18.490173}}, {"type": "Feature", "geometry": {"type": "Point", "coordinates": [-70.30294999999995, -18.48990200000003]}, "properties": {"CUT_REG": "15", "CUT_PROV": "151", "CUT_COM": "15101", "REGION": "Arica y Parinacota", "PROVINCIA": "Arica", "COMUNA": "Arica", "variable": "Centros de Educaci\u00f3n Parvularia", "Nombres": "JARDIN INFANTIL CASTILLLO DEL SABER", "POINT_X": -70.30295, "POINT_Y": -18.489902}}, {"type": "Feature", "geometry": {"type": "Point", "coordinates": [-70.29463400000003, -18.489864999999988]}, "properties": {"CUT_REG": "15", "CUT_PROV": "151", "CUT_COM": "15101", "REGION": "Arica y Parinacota", "PROVINCIA": "Arica", "COMUNA": "Arica", "variable": "Centros de Educaci\u00f3n Parvularia", "Nombres": "FDUTA", "POINT_X": -70.294634, "POINT_Y": -18.489865}}, {"type": "Feature", "geometry": {"type": "Point", "coordinates": [-70.29338999999996, -18.489830000000026]}, "properties": {"CUT_REG": "15", "CUT_PROV": "151", "CUT_COM": "15101", "REGION": "Arica y Parinacota", "PROVINCIA": "Arica", "COMUNA": "Arica", "variable": "Centros de Educaci\u00f3n Parvularia", "Nombres": "ESCUELA ESPECIAL DE LENGUAJE MIS PRIMEROS PASITOS", "POINT_X": -70.29339, "POINT_Y": -18.48983}}, {"type": "Feature", "geometry": {"type": "Point", "coordinates": [-70.29329000000004, -18.489786000000024]}, "properties": {"CUT_REG": "15", "CUT_PROV": "151", "CUT_COM": "15101", "REGION": "Arica y Parinacota", "PROVINCIA": "Arica", "COMUNA": "Arica", "variable": "Centros de Educaci\u00f3n Parvularia", "Nombres": "ESC ESP DE LENGUAJE GOTITAS DE ROCIO", "POINT_X": -70.29329, "POINT_Y": -18.489786}}, {"type": "Feature", "geometry": {"type": "Point", "coordinates": [-70.29211999999995, -18.489697000000035]}, "properties": {"CUT_REG": "15", "CUT_PROV": "151", "CUT_COM": "15101", "REGION": "Arica y Parinacota", "PROVINCIA": "Arica", "COMUNA": "Arica", "variable": "Centros de Educaci\u00f3n Parvularia", "Nombres": "C.T. C.Y LENGUAJE HISPANO AMERICANO", "POINT_X": -70.29212, "POINT_Y": -18.489697}}, {"type": "Feature", "geometry": {"type": "Point", "coordinates": [-70.30329999999995, -18.489160000000012]}, "properties": {"CUT_REG": "15", "CUT_PROV": "151", "CUT_COM": "15101", "REGION": "Arica y Parinacota", "PROVINCIA": "Arica", "COMUNA": "Arica", "variable": "Centros de Educaci\u00f3n Parvularia", "Nombres": "ESCUELA ESPECIAL DE LENGUAJE ESTRELLITA DE BEL\u00c9N", "POINT_X": -70.3033, "POINT_Y": -18.48916}}, {"type": "Feature", "geometry": {"type": "Point", "coordinates": [-70.29805999999999, -18.487992999999996]}, "properties": {"CUT_REG": "15", "CUT_PROV": "151", "CUT_COM": "15101", "REGION": "Arica y Parinacota", "PROVINCIA": "Arica", "COMUNA": "Arica", "variable": "Centros de Educaci\u00f3n Parvularia", "Nombres": "ESCUELA ESPECIAL DE LENGUAJE LUCERITO MUSIKAL", "POINT_X": -70.29806, "POINT_Y": -18.487993}}, {"type": "Feature", "geometry": {"type": "Point", "coordinates": [-70.30333000000005, -18.487494000000012]}, "properties": {"CUT_REG": "15", "CUT_PROV": "151", "CUT_COM": "15101", "REGION": "Arica y Parinacota", "PROVINCIA": "Arica", "COMUNA": "Arica", "variable": "Centros de Educaci\u00f3n Parvularia", "Nombres": "ESCUELA ESPECIAL DE LENGUAJE MATEITO\u00b4S", "POINT_X": -70.30333, "POINT_Y": -18.487494}}, {"type": "Feature", "geometry": {"type": "Point", "coordinates": [-70.314901343, -18.487142760999994]}, "properties": {"CUT_REG": "15", "CUT_PROV": "151", "CUT_COM": "15101", "REGION": "Arica y Parinacota", "PROVINCIA": "Arica", "COMUNA": "Arica", "variable": "Centros de Educaci\u00f3n Parvularia", "Nombres": "CECI CERRO LA CRUZ", "POINT_X": -70.314901343, "POINT_Y": -18.487142761}}, {"type": "Feature", "geometry": {"type": "Point", "coordinates": [-70.28591000000003, -18.486915999999972]}, "properties": {"CUT_REG": "15", "CUT_PROV": "151", "CUT_COM": "15101", "REGION": "Arica y Parinacota", "PROVINCIA": "Arica", "COMUNA": "Arica", "variable": "Centros de Educaci\u00f3n Parvularia", "Nombres": "ESC ESP DE LENGUAJE EL DESPERTAR", "POINT_X": -70.28591, "POINT_Y": -18.486916}}, {"type": "Feature", "geometry": {"type": "Point", "coordinates": [-70.302956, -18.486108999999992]}, "properties": {"CUT_REG": "15", "CUT_PROV": "151", "CUT_COM": "15101", "REGION": "Arica y Parinacota", "PROVINCIA": "Arica", "COMUNA": "Arica", "variable": "Centros de Educaci\u00f3n Parvularia", "Nombres": "JARDIN INFANTIL PETETE J.M. BORGO\u00d0O", "POINT_X": -70.302956, "POINT_Y": -18.486109}}, {"type": "Feature", "geometry": {"type": "Point", "coordinates": [-70.2863068, -18.486089800000002]}, "properties": {"CUT_REG": "15", "CUT_PROV": "151", "CUT_COM": "15101", "REGION": "Arica y Parinacota", "PROVINCIA": "Arica", "COMUNA": "Arica", "variable": "Centros de Educaci\u00f3n Parvularia", "Nombres": "AVIONCITO", "POINT_X": -70.2863068, "POINT_Y": -18.4860898}}, {"type": "Feature", "geometry": {"type": "Point", "coordinates": [-70.29546092999999, -18.486072279999973]}, "properties": {"CUT_REG": "15", "CUT_PROV": "151", "CUT_COM": "15101", "REGION": "Arica y Parinacota", "PROVINCIA": "Arica", "COMUNA": "Arica", "variable": "Centros de Educaci\u00f3n Parvularia", "Nombres": "SUENO DE ANGELITO", "POINT_X": -70.29546093, "POINT_Y": -18.48607228}}, {"type": "Feature", "geometry": {"type": "Point", "coordinates": [-70.30018499999997, -18.485799000000007]}, "properties": {"CUT_REG": "15", "CUT_PROV": "151", "CUT_COM": "15101", "REGION": "Arica y Parinacota", "PROVINCIA": "Arica", "COMUNA": "Arica", "variable": "Centros de Educaci\u00f3n Parvularia", "Nombres": "ALTO BELLAVISTA", "POINT_X": -70.300185, "POINT_Y": -18.485799}}, {"type": "Feature", "geometry": {"type": "Point", "coordinates": [-70.30018499999997, -18.485799000000007]}, "properties": {"CUT_REG": "15", "CUT_PROV": "151", "CUT_COM": "15101", "REGION": "Arica y Parinacota", "PROVINCIA": "Arica", "COMUNA": "Arica", "variable": "Centros de Educaci\u00f3n Parvularia", "Nombres": "APRENDIENDO JUNTOS", "POINT_X": -70.300185, "POINT_Y": -18.485799}}, {"type": "Feature", "geometry": {"type": "Point", "coordinates": [-70.30018499999997, -18.485799000000007]}, "properties": {"CUT_REG": "15", "CUT_PROV": "151", "CUT_COM": "15101", "REGION": "Arica y Parinacota", "PROVINCIA": "Arica", "COMUNA": "Arica", "variable": "Centros de Educaci\u00f3n Parvularia", "Nombres": "CASH ARENEROS", "POINT_X": -70.300185, "POINT_Y": -18.485799}}, {"type": "Feature", "geometry": {"type": "Point", "coordinates": [-70.30018499999997, -18.485799000000007]}, "properties": {"CUT_REG": "15", "CUT_PROV": "151", "CUT_COM": "15101", "REGION": "Arica y Parinacota", "PROVINCIA": "Arica", "COMUNA": "Arica", "variable": "Centros de Educaci\u00f3n Parvularia", "Nombres": "ESPERANZA 2001", "POINT_X": -70.300185, "POINT_Y": -18.485799}}, {"type": "Feature", "geometry": {"type": "Point", "coordinates": [-70.30018499999997, -18.485799000000007]}, "properties": {"CUT_REG": "15", "CUT_PROV": "151", "CUT_COM": "15101", "REGION": "Arica y Parinacota", "PROVINCIA": "Arica", "COMUNA": "Arica", "variable": "Centros de Educaci\u00f3n Parvularia", "Nombres": "POCONCHILE", "POINT_X": -70.300185, "POINT_Y": -18.485799}}, {"type": "Feature", "geometry": {"type": "Point", "coordinates": [-70.30018499999997, -18.485799000000007]}, "properties": {"CUT_REG": "15", "CUT_PROV": "151", "CUT_COM": "15101", "REGION": "Arica y Parinacota", "PROVINCIA": "Arica", "COMUNA": "Arica", "variable": "Centros de Educaci\u00f3n Parvularia", "Nombres": "VALLE DE CHACA", "POINT_X": -70.300185, "POINT_Y": -18.485799}}, {"type": "Feature", "geometry": {"type": "Point", "coordinates": [-70.29440300000002, -18.485069000000003]}, "properties": {"CUT_REG": "15", "CUT_PROV": "151", "CUT_COM": "15101", "REGION": "Arica y Parinacota", "PROVINCIA": "Arica", "COMUNA": "Arica", "variable": "Centros de Educaci\u00f3n Parvularia", "Nombres": "ESCUELA RICARDO SILVA ARRIAGADA", "POINT_X": -70.294403, "POINT_Y": -18.485069}}, {"type": "Feature", "geometry": {"type": "Point", "coordinates": [-70.30059099999998, -18.48360999999999]}, "properties": {"CUT_REG": "15", "CUT_PROV": "151", "CUT_COM": "15101", "REGION": "Arica y Parinacota", "PROVINCIA": "Arica", "COMUNA": "Arica", "variable": "Centros de Educaci\u00f3n Parvularia", "Nombres": "ESCUELA REPUBLICA DE ARGENTINA", "POINT_X": -70.300591, "POINT_Y": -18.48361}}, {"type": "Feature", "geometry": {"type": "Point", "coordinates": [-70.31000499999996, -18.483596999999982]}, "properties": {"CUT_REG": "15", "CUT_PROV": "151", "CUT_COM": "15101", "REGION": "Arica y Parinacota", "PROVINCIA": "Arica", "COMUNA": "Arica", "variable": "Centros de Educaci\u00f3n Parvularia", "Nombres": "JARDIN INFANTIL Y SALACUNA MI PEQUE\u00d1O GENIO", "POINT_X": -70.310005, "POINT_Y": -18.483597}}, {"type": "Feature", "geometry": {"type": "Point", "coordinates": [-70.29989126999999, -18.483227380000038]}, "properties": {"CUT_REG": "15", "CUT_PROV": "151", "CUT_COM": "15101", "REGION": "Arica y Parinacota", "PROVINCIA": "Arica", "COMUNA": "Arica", "variable": "Centros de Educaci\u00f3n Parvularia", "Nombres": "ESTRELLITAS DEL SABER", "POINT_X": -70.29989127, "POINT_Y": -18.48322738}}, {"type": "Feature", "geometry": {"type": "Point", "coordinates": [-70.31430099999997, -18.48306099999995]}, "properties": {"CUT_REG": "15", "CUT_PROV": "151", "CUT_COM": "15101", "REGION": "Arica y Parinacota", "PROVINCIA": "Arica", "COMUNA": "Arica", "variable": "Centros de Educaci\u00f3n Parvularia", "Nombres": "COLEGIO ITALIANO SANTA ANA", "POINT_X": -70.314301, "POINT_Y": -18.483061}}, {"type": "Feature", "geometry": {"type": "Point", "coordinates": [-70.30802899999999, -18.483049000000022]}, "properties": {"CUT_REG": "15", "CUT_PROV": "151", "CUT_COM": "15101", "REGION": "Arica y Parinacota", "PROVINCIA": "Arica", "COMUNA": "Arica", "variable": "Centros de Educaci\u00f3n Parvularia", "Nombres": "ESCUELA ESMERALDA", "POINT_X": -70.308029, "POINT_Y": -18.483049}}, {"type": "Feature", "geometry": {"type": "Point", "coordinates": [-70.29090099999999, -18.482820999999987]}, "properties": {"CUT_REG": "15", "CUT_PROV": "151", "CUT_COM": "15101", "REGION": "Arica y Parinacota", "PROVINCIA": "Arica", "COMUNA": "Arica", "variable": "Centros de Educaci\u00f3n Parvularia", "Nombres": "COLEGIO ADOLFO BEYZAGA OVANDO", "POINT_X": -70.290901, "POINT_Y": -18.482821}}, {"type": "Feature", "geometry": {"type": "Point", "coordinates": [-70.31538399999997, -18.48273299999999]}, "properties": {"CUT_REG": "15", "CUT_PROV": "151", "CUT_COM": "15101", "REGION": "Arica y Parinacota", "PROVINCIA": "Arica", "COMUNA": "Arica", "variable": "Centros de Educaci\u00f3n Parvularia", "Nombres": "ESCUELA ESPECIAL DE LENG. PIECECITOS DE NI\u00d1O", "POINT_X": -70.315384, "POINT_Y": -18.482733}}, {"type": "Feature", "geometry": {"type": "Point", "coordinates": [-70.31856499999999, -18.48261000000003]}, "properties": {"CUT_REG": "15", "CUT_PROV": "151", "CUT_COM": "15101", "REGION": "Arica y Parinacota", "PROVINCIA": "Arica", "COMUNA": "Arica", "variable": "Centros de Educaci\u00f3n Parvularia", "Nombres": "ESCUELA ESPECIAL DE LENGUAJE INTI - JALLU", "POINT_X": -70.318565, "POINT_Y": -18.48261}}, {"type": "Feature", "geometry": {"type": "Point", "coordinates": [-70.31758100000002, -18.482490999999953]}, "properties": {"CUT_REG": "15", "CUT_PROV": "151", "CUT_COM": "15101", "REGION": "Arica y Parinacota", "PROVINCIA": "Arica", "COMUNA": "Arica", "variable": "Centros de Educaci\u00f3n Parvularia", "Nombres": "COLEGIO INTEGRADO EDUARDO FREI MONTALVA", "POINT_X": -70.317581, "POINT_Y": -18.482491}}, {"type": "Feature", "geometry": {"type": "Point", "coordinates": [-70.31478099999998, -18.482148999999986]}, "properties": {"CUT_REG": "15", "CUT_PROV": "151", "CUT_COM": "15101", "REGION": "Arica y Parinacota", "PROVINCIA": "Arica", "COMUNA": "Arica", "variable": "Centros de Educaci\u00f3n Parvularia", "Nombres": "NORTH AMERICAN COLLEGE", "POINT_X": -70.314781, "POINT_Y": -18.482149}}, {"type": "Feature", "geometry": {"type": "Point", "coordinates": [-70.27818300000001, -18.481779000000017]}, "properties": {"CUT_REG": "15", "CUT_PROV": "151", "CUT_COM": "15101", "REGION": "Arica y Parinacota", "PROVINCIA": "Arica", "COMUNA": "Arica", "variable": "Centros de Educaci\u00f3n Parvularia", "Nombres": "COLEGIO SAN JUAN DE LA BLACHERE", "POINT_X": -70.278183, "POINT_Y": -18.481779}}, {"type": "Feature", "geometry": {"type": "Point", "coordinates": [-70.29065, -18.481475999999994]}, "properties": {"CUT_REG": "15", "CUT_PROV": "151", "CUT_COM": "15101", "REGION": "Arica y Parinacota", "PROVINCIA": "Arica", "COMUNA": "Arica", "variable": "Centros de Educaci\u00f3n Parvularia", "Nombres": "JARDIN INFANTIL AYMARA AYRAMPITO", "POINT_X": -70.29065, "POINT_Y": -18.481476}}, {"type": "Feature", "geometry": {"type": "Point", "coordinates": [-70.285347, -18.481340000000017]}, "properties": {"CUT_REG": "15", "CUT_PROV": "151", "CUT_COM": "15101", "REGION": "Arica y Parinacota", "PROVINCIA": "Arica", "COMUNA": "Arica", "variable": "Centros de Educaci\u00f3n Parvularia", "Nombres": "ESCUELA MANUEL RODRIGUEZ ERDOYZA", "POINT_X": -70.285347, "POINT_Y": -18.48134}}, {"type": "Feature", "geometry": {"type": "Point", "coordinates": [-70.31878699999999, -18.481229999999975]}, "properties": {"CUT_REG": "15", "CUT_PROV": "151", "CUT_COM": "15101", "REGION": "Arica y Parinacota", "PROVINCIA": "Arica", "COMUNA": "Arica", "variable": "Centros de Educaci\u00f3n Parvularia", "Nombres": "ABRAHAM LINCOLN SCHOOL", "POINT_X": -70.318787, "POINT_Y": -18.48123}}, {"type": "Feature", "geometry": {"type": "Point", "coordinates": [-70.29063437999996, -18.48068044999998]}, "properties": {"CUT_REG": "15", "CUT_PROV": "151", "CUT_COM": "15101", "REGION": "Arica y Parinacota", "PROVINCIA": "Arica", "COMUNA": "Arica", "variable": "Centros de Educaci\u00f3n Parvularia", "Nombres": "URUCHI AMAYA", "POINT_X": -70.29063438, "POINT_Y": -18.48068045}}, {"type": "Feature", "geometry": {"type": "Point", "coordinates": [-70.28401184, -18.480617520000017]}, "properties": {"CUT_REG": "15", "CUT_PROV": "151", "CUT_COM": "15101", "REGION": "Arica y Parinacota", "PROVINCIA": "Arica", "COMUNA": "Arica", "variable": "Centros de Educaci\u00f3n Parvularia", "Nombres": "ESCUELA DR. RICARDO OLEA GUERRA", "POINT_X": -70.28401184, "POINT_Y": -18.48061752}}, {"type": "Feature", "geometry": {"type": "Point", "coordinates": [-70.295502, -18.479700000000037]}, "properties": {"CUT_REG": "15", "CUT_PROV": "151", "CUT_COM": "15101", "REGION": "Arica y Parinacota", "PROVINCIA": "Arica", "COMUNA": "Arica", "variable": "Centros de Educaci\u00f3n Parvularia", "Nombres": "ESCUELA TUCAPEL", "POINT_X": -70.295502, "POINT_Y": -18.4797}}, {"type": "Feature", "geometry": {"type": "Point", "coordinates": [-70.30105000000003, -18.47912799999996]}, "properties": {"CUT_REG": "15", "CUT_PROV": "151", "CUT_COM": "15101", "REGION": "Arica y Parinacota", "PROVINCIA": "Arica", "COMUNA": "Arica", "variable": "Centros de Educaci\u00f3n Parvularia", "Nombres": "ESCUELA ESP. DE LENG MANANTIAL DEL SABER", "POINT_X": -70.30105, "POINT_Y": -18.479128}}, {"type": "Feature", "geometry": {"type": "Point", "coordinates": [-70.30339999999997, -18.479056999999948]}, "properties": {"CUT_REG": "15", "CUT_PROV": "151", "CUT_COM": "15101", "REGION": "Arica y Parinacota", "PROVINCIA": "Arica", "COMUNA": "Arica", "variable": "Centros de Educaci\u00f3n Parvularia", "Nombres": "JARDIN INFANTIL PLUTO", "POINT_X": -70.3034, "POINT_Y": -18.479057}}, {"type": "Feature", "geometry": {"type": "Point", "coordinates": [-70.31040999999999, -18.478990000000003]}, "properties": {"CUT_REG": "15", "CUT_PROV": "151", "CUT_COM": "15101", "REGION": "Arica y Parinacota", "PROVINCIA": "Arica", "COMUNA": "Arica", "variable": "Centros de Educaci\u00f3n Parvularia", "Nombres": "JARDIN INFANTIL BETHEL DE ARICA", "POINT_X": -70.31041, "POINT_Y": -18.47899}}, {"type": "Feature", "geometry": {"type": "Point", "coordinates": [-70.30403400000003, -18.478437999999983]}, "properties": {"CUT_REG": "15", "CUT_PROV": "151", "CUT_COM": "15101", "REGION": "Arica y Parinacota", "PROVINCIA": "Arica", "COMUNA": "Arica", "variable": "Centros de Educaci\u00f3n Parvularia", "Nombres": "S.C. CAPULLITOS DE TERNURA", "POINT_X": -70.304034, "POINT_Y": -18.478438}}, {"type": "Feature", "geometry": {"type": "Point", "coordinates": [-70.28784329100003, -18.47690352600003]}, "properties": {"CUT_REG": "15", "CUT_PROV": "151", "CUT_COM": "15101", "REGION": "Arica y Parinacota", "PROVINCIA": "Arica", "COMUNA": "Arica", "variable": "Centros de Educaci\u00f3n Parvularia", "Nombres": "PAYACHATAS", "POINT_X": -70.287843291, "POINT_Y": -18.476903526}}, {"type": "Feature", "geometry": {"type": "Point", "coordinates": [-70.28778799999999, -18.476681]}, "properties": {"CUT_REG": "15", "CUT_PROV": "151", "CUT_COM": "15101", "REGION": "Arica y Parinacota", "PROVINCIA": "Arica", "COMUNA": "Arica", "variable": "Centros de Educaci\u00f3n Parvularia", "Nombres": "ESC. COMTE. JUAN JOSE SAN MARTIN", "POINT_X": -70.287788, "POINT_Y": -18.476681}}, {"type": "Feature", "geometry": {"type": "Point", "coordinates": [-70.312907875, -18.47614237600002]}, "properties": {"CUT_REG": "15", "CUT_PROV": "151", "CUT_COM": "15101", "REGION": "Arica y Parinacota", "PROVINCIA": "Arica", "COMUNA": "Arica", "variable": "Centros de Educaci\u00f3n Parvularia", "Nombres": "MI RINCONCITO FELIZ", "POINT_X": -70.312907875, "POINT_Y": -18.476142376}}, {"type": "Feature", "geometry": {"type": "Point", "coordinates": [-70.29024000000001, -18.475017999999984]}, "properties": {"CUT_REG": "15", "CUT_PROV": "151", "CUT_COM": "15101", "REGION": "Arica y Parinacota", "PROVINCIA": "Arica", "COMUNA": "Arica", "variable": "Centros de Educaci\u00f3n Parvularia", "Nombres": "JARDIN INFANTIL PADRE LUIS GALLARDO", "POINT_X": -70.29024, "POINT_Y": -18.475018}}, {"type": "Feature", "geometry": {"type": "Point", "coordinates": [-70.31256922999995, -18.474848069999958]}, "properties": {"CUT_REG": "15", "CUT_PROV": "151", "CUT_COM": "15101", "REGION": "Arica y Parinacota", "PROVINCIA": "Arica", "COMUNA": "Arica", "variable": "Centros de Educaci\u00f3n Parvularia", "Nombres": "TEVITO", "POINT_X": -70.31256923, "POINT_Y": -18.47484807}}, {"type": "Feature", "geometry": {"type": "Point", "coordinates": [-70.30877699999996, -18.474830999999966]}, "properties": {"CUT_REG": "15", "CUT_PROV": "151", "CUT_COM": "15101", "REGION": "Arica y Parinacota", "PROVINCIA": "Arica", "COMUNA": "Arica", "variable": "Centros de Educaci\u00f3n Parvularia", "Nombres": "ESCUELA REGIMIENTO RANCAGUA", "POINT_X": -70.308777, "POINT_Y": -18.474831}}, {"type": "Feature", "geometry": {"type": "Point", "coordinates": [-70.291908, -18.47466100000002]}, "properties": {"CUT_REG": "15", "CUT_PROV": "151", "CUT_COM": "15101", "REGION": "Arica y Parinacota", "PROVINCIA": "Arica", "COMUNA": "Arica", "variable": "Centros de Educaci\u00f3n Parvularia", "Nombres": "ESC. HUMBERTO VALENZUELA GARCIA", "POINT_X": -70.291908, "POINT_Y": -18.474661}}, {"type": "Feature", "geometry": {"type": "Point", "coordinates": [-70.29724000000002, -18.47316199999998]}, "properties": {"CUT_REG": "15", "CUT_PROV": "151", "CUT_COM": "15101", "REGION": "Arica y Parinacota", "PROVINCIA": "Arica", "COMUNA": "Arica", "variable": "Centros de Educaci\u00f3n Parvularia", "Nombres": "ESC. EDUCACION ESPECIAL LOS IBISCOS", "POINT_X": -70.29724, "POINT_Y": -18.473162}}, {"type": "Feature", "geometry": {"type": "Point", "coordinates": [-70.30481699999997, -18.47075099999998]}, "properties": {"CUT_REG": "15", "CUT_PROV": "151", "CUT_COM": "15101", "REGION": "Arica y Parinacota", "PROVINCIA": "Arica", "COMUNA": "Arica", "variable": "Centros de Educaci\u00f3n Parvularia", "Nombres": "COLEGIO SAN MARCOS DE ARICA", "POINT_X": -70.304817, "POINT_Y": -18.470751}}, {"type": "Feature", "geometry": {"type": "Point", "coordinates": [-70.29983499999996, -18.469910000000027]}, "properties": {"CUT_REG": "15", "CUT_PROV": "151", "CUT_COM": "15101", "REGION": "Arica y Parinacota", "PROVINCIA": "Arica", "COMUNA": "Arica", "variable": "Centros de Educaci\u00f3n Parvularia", "Nombres": "ESC. ESP. LENG. LA GRANJITA SCHOOL", "POINT_X": -70.299835, "POINT_Y": -18.46991}}, {"type": "Feature", "geometry": {"type": "Point", "coordinates": [-70.30275725999999, -18.469861979999962]}, "properties": {"CUT_REG": "15", "CUT_PROV": "151", "CUT_COM": "15101", "REGION": "Arica y Parinacota", "PROVINCIA": "Arica", "COMUNA": "Arica", "variable": "Centros de Educaci\u00f3n Parvularia", "Nombres": "PARVULARIO LAS ESPIGUITAS", "POINT_X": -70.30275726, "POINT_Y": -18.46986198}}, {"type": "Feature", "geometry": {"type": "Point", "coordinates": [-70.29841, -18.469603000000028]}, "properties": {"CUT_REG": "15", "CUT_PROV": "151", "CUT_COM": "15101", "REGION": "Arica y Parinacota", "PROVINCIA": "Arica", "COMUNA": "Arica", "variable": "Centros de Educaci\u00f3n Parvularia", "Nombres": "JARDIN INFANTIL LA GRANJITA", "POINT_X": -70.29841, "POINT_Y": -18.469603}}, {"type": "Feature", "geometry": {"type": "Point", "coordinates": [-70.30359600000003, -18.468339999999976]}, "properties": {"CUT_REG": "15", "CUT_PROV": "151", "CUT_COM": "15101", "REGION": "Arica y Parinacota", "PROVINCIA": "Arica", "COMUNA": "Arica", "variable": "Centros de Educaci\u00f3n Parvularia", "Nombres": "LICEO BICENTENARIO DOMINGO SANTA MARIA", "POINT_X": -70.303596, "POINT_Y": -18.46834}}, {"type": "Feature", "geometry": {"type": "Point", "coordinates": [-70.29651599999997, -18.468049999999963]}, "properties": {"CUT_REG": "15", "CUT_PROV": "151", "CUT_COM": "15101", "REGION": "Arica y Parinacota", "PROVINCIA": "Arica", "COMUNA": "Arica", "variable": "Centros de Educaci\u00f3n Parvularia", "Nombres": "COLEGIO MOSAICOS", "POINT_X": -70.296516, "POINT_Y": -18.46805}}, {"type": "Feature", "geometry": {"type": "Point", "coordinates": [-70.29093900000002, -18.46727]}, "properties": {"CUT_REG": "15", "CUT_PROV": "151", "CUT_COM": "15101", "REGION": "Arica y Parinacota", "PROVINCIA": "Arica", "COMUNA": "Arica", "variable": "Centros de Educaci\u00f3n Parvularia", "Nombres": "ESCUELA SUBTTE. LUIS CRUZ MARTINEZ", "POINT_X": -70.290939, "POINT_Y": -18.46727}}, {"type": "Feature", "geometry": {"type": "Point", "coordinates": [-70.299507, -18.464010000000002]}, "properties": {"CUT_REG": "15", "CUT_PROV": "151", "CUT_COM": "15101", "REGION": "Arica y Parinacota", "PROVINCIA": "Arica", "COMUNA": "Arica", "variable": "Centros de Educaci\u00f3n Parvularia", "Nombres": "THE INTERNATIONAL SCHOOL ARICA", "POINT_X": -70.299507, "POINT_Y": -18.46401}}, {"type": "Feature", "geometry": {"type": "Point", "coordinates": [-70.29144, -18.46391299999997]}, "properties": {"CUT_REG": "15", "CUT_PROV": "151", "CUT_COM": "15101", "REGION": "Arica y Parinacota", "PROVINCIA": "Arica", "COMUNA": "Arica", "variable": "Centros de Educaci\u00f3n Parvularia", "Nombres": "JUNIOR COLLEGE", "POINT_X": -70.29144, "POINT_Y": -18.463913}}, {"type": "Feature", "geometry": {"type": "Point", "coordinates": [-70.29845000000003, -18.456861000000018]}, "properties": {"CUT_REG": "15", "CUT_PROV": "151", "CUT_COM": "15101", "REGION": "Arica y Parinacota", "PROVINCIA": "Arica", "COMUNA": "Arica", "variable": "Centros de Educaci\u00f3n Parvularia", "Nombres": "JARDIN INFANTIL SAN NICOLAS", "POINT_X": -70.29845, "POINT_Y": -18.456861}}, {"type": "Feature", "geometry": {"type": "Point", "coordinates": [-70.29838999999996, -18.455822000000026]}, "properties": {"CUT_REG": "15", "CUT_PROV": "151", "CUT_COM": "15101", "REGION": "Arica y Parinacota", "PROVINCIA": "Arica", "COMUNA": "Arica", "variable": "Centros de Educaci\u00f3n Parvularia", "Nombres": "ESCUELA DE LENGUAJE INTI-PAXI", "POINT_X": -70.29839, "POINT_Y": -18.455822}}, {"type": "Feature", "geometry": {"type": "Point", "coordinates": [-70.28409599999995, -18.455374]}, "properties": {"CUT_REG": "15", "CUT_PROV": "151", "CUT_COM": "15101", "REGION": "Arica y Parinacota", "PROVINCIA": "Arica", "COMUNA": "Arica", "variable": "Centros de Educaci\u00f3n Parvularia", "Nombres": "ESCUELA ESPECIAL DE LENGUAJE AMAPOLAS", "POINT_X": -70.284096, "POINT_Y": -18.455374}}, {"type": "Feature", "geometry": {"type": "Point", "coordinates": [-70.07072299999999, -18.452871000000023]}, "properties": {"CUT_REG": "15", "CUT_PROV": "151", "CUT_COM": "15101", "REGION": "Arica y Parinacota", "PROVINCIA": "Arica", "COMUNA": "Arica", "variable": "Centros de Educaci\u00f3n Parvularia", "Nombres": "POCON", "POINT_X": -70.070723, "POINT_Y": -18.452871}}, {"type": "Feature", "geometry": {"type": "Point", "coordinates": [-70.06757400000004, -18.451719000000004]}, "properties": {"CUT_REG": "15", "CUT_PROV": "151", "CUT_COM": "15101", "REGION": "Arica y Parinacota", "PROVINCIA": "Arica", "COMUNA": "Arica", "variable": "Centros de Educaci\u00f3n Parvularia", "Nombres": "ESCUELA GRAL. MANUEL BAQUEDANO", "POINT_X": -70.067574, "POINT_Y": -18.451719}}, {"type": "Feature", "geometry": {"type": "Point", "coordinates": [-70.29636000000002, -18.449879999999993]}, "properties": {"CUT_REG": "15", "CUT_PROV": "151", "CUT_COM": "15101", "REGION": "Arica y Parinacota", "PROVINCIA": "Arica", "COMUNA": "Arica", "variable": "Centros de Educaci\u00f3n Parvularia", "Nombres": "C.TRAST. DE LA COMUNIC. AMANECER", "POINT_X": -70.29636, "POINT_Y": -18.44988}}, {"type": "Feature", "geometry": {"type": "Point", "coordinates": [-70.28802, -18.447719999999975]}, "properties": {"CUT_REG": "15", "CUT_PROV": "151", "CUT_COM": "15101", "REGION": "Arica y Parinacota", "PROVINCIA": "Arica", "COMUNA": "Arica", "variable": "Centros de Educaci\u00f3n Parvularia", "Nombres": "ESCUELA ESPECIAL DE LENGUAJE PEQUE\u00d1O SAFARI", "POINT_X": -70.28802, "POINT_Y": -18.44772}}, {"type": "Feature", "geometry": {"type": "Point", "coordinates": [-70.27510799999996, -18.44696900000001]}, "properties": {"CUT_REG": "15", "CUT_PROV": "151", "CUT_COM": "15101", "REGION": "Arica y Parinacota", "PROVINCIA": "Arica", "COMUNA": "Arica", "variable": "Centros de Educaci\u00f3n Parvularia", "Nombres": "LAS TERRAZAS", "POINT_X": -70.275108, "POINT_Y": -18.446969}}, {"type": "Feature", "geometry": {"type": "Point", "coordinates": [-70.28499000000002, -18.446332999999967]}, "properties": {"CUT_REG": "15", "CUT_PROV": "151", "CUT_COM": "15101", "REGION": "Arica y Parinacota", "PROVINCIA": "Arica", "COMUNA": "Arica", "variable": "Centros de Educaci\u00f3n Parvularia", "Nombres": "ESCUELA ESPECIAL DE LENGUAJE ILLIMANI", "POINT_X": -70.28499, "POINT_Y": -18.446333}}, {"type": "Feature", "geometry": {"type": "Point", "coordinates": [-70.28491199999996, -18.446210999999998]}, "properties": {"CUT_REG": "15", "CUT_PROV": "151", "CUT_COM": "15101", "REGION": "Arica y Parinacota", "PROVINCIA": "Arica", "COMUNA": "Arica", "variable": "Centros de Educaci\u00f3n Parvularia", "Nombres": "COLEGIO CHILE NORTE", "POINT_X": -70.284912, "POINT_Y": -18.446211}}, {"type": "Feature", "geometry": {"type": "Point", "coordinates": [-70.28948199999999, -18.443410999999962]}, "properties": {"CUT_REG": "15", "CUT_PROV": "151", "CUT_COM": "15101", "REGION": "Arica y Parinacota", "PROVINCIA": "Arica", "COMUNA": "Arica", "variable": "Centros de Educaci\u00f3n Parvularia", "Nombres": "ESCUELA EJERCITO DE SALVACION", "POINT_X": -70.289482, "POINT_Y": -18.443411}}, {"type": "Feature", "geometry": {"type": "Point", "coordinates": [-70.29338100000001, -18.440000999999988]}, "properties": {"CUT_REG": "15", "CUT_PROV": "151", "CUT_COM": "15101", "REGION": "Arica y Parinacota", "PROVINCIA": "Arica", "COMUNA": "Arica", "variable": "Centros de Educaci\u00f3n Parvularia", "Nombres": "COLEGIO CENTENARIO DE ARICA", "POINT_X": -70.293381, "POINT_Y": -18.440001}}, {"type": "Feature", "geometry": {"type": "Point", "coordinates": [-70.29072599999998, -18.439635999999986]}, "properties": {"CUT_REG": "15", "CUT_PROV": "151", "CUT_COM": "15101", "REGION": "Arica y Parinacota", "PROVINCIA": "Arica", "COMUNA": "Arica", "variable": "Centros de Educaci\u00f3n Parvularia", "Nombres": "JARDIN INFANTIL CEPILLIN", "POINT_X": -70.290726, "POINT_Y": -18.439636}}, {"type": "Feature", "geometry": {"type": "Point", "coordinates": [-70.285873, -18.437290000000033]}, "properties": {"CUT_REG": "15", "CUT_PROV": "151", "CUT_COM": "15101", "REGION": "Arica y Parinacota", "PROVINCIA": "Arica", "COMUNA": "Arica", "variable": "Centros de Educaci\u00f3n Parvularia", "Nombres": "COLEGIO TECNOLOGICO DON BOSCO DE ARICA", "POINT_X": -70.285873, "POINT_Y": -18.43729}}, {"type": "Feature", "geometry": {"type": "Point", "coordinates": [-70.28755999999996, -18.43684799999997]}, "properties": {"CUT_REG": "15", "CUT_PROV": "151", "CUT_COM": "15101", "REGION": "Arica y Parinacota", "PROVINCIA": "Arica", "COMUNA": "Arica", "variable": "Centros de Educaci\u00f3n Parvularia", "Nombres": "ESCUELA ESPECIAL DE LENGUAJE PEQUE\u00d1OS ESTRATEGAS", "POINT_X": -70.28756, "POINT_Y": -18.436848}}, {"type": "Feature", "geometry": {"type": "Point", "coordinates": [-70.29092400000002, -18.43601599999996]}, "properties": {"CUT_REG": "15", "CUT_PROV": "151", "CUT_COM": "15101", "REGION": "Arica y Parinacota", "PROVINCIA": "Arica", "COMUNA": "Arica", "variable": "Centros de Educaci\u00f3n Parvularia", "Nombres": "ESCUELA ESPECIAL DE LENGUAJE RELMU", "POINT_X": -70.290924, "POINT_Y": -18.436016}}, {"type": "Feature", "geometry": {"type": "Point", "coordinates": [-70.29270199999996, -18.43506099999999]}, "properties": {"CUT_REG": "15", "CUT_PROV": "151", "CUT_COM": "15101", "REGION": "Arica y Parinacota", "PROVINCIA": "Arica", "COMUNA": "Arica", "variable": "Centros de Educaci\u00f3n Parvularia", "Nombres": "COLEGIO EL ROBLE", "POINT_X": -70.292702, "POINT_Y": -18.435061}}, {"type": "Feature", "geometry": {"type": "Point", "coordinates": [-70.288423616, -18.431150546000005]}, "properties": {"CUT_REG": "15", "CUT_PROV": "151", "CUT_COM": "15101", "REGION": "Arica y Parinacota", "PROVINCIA": "Arica", "COMUNA": "Arica", "variable": "Centros de Educaci\u00f3n Parvularia", "Nombres": "CECI PUNTA NORTE", "POINT_X": -70.288423616, "POINT_Y": -18.431150546}}, {"type": "Feature", "geometry": {"type": "Point", "coordinates": [-70.28980320000002, -18.428971800000035]}, "properties": {"CUT_REG": "15", "CUT_PROV": "151", "CUT_COM": "15101", "REGION": "Arica y Parinacota", "PROVINCIA": "Arica", "COMUNA": "Arica", "variable": "Centros de Educaci\u00f3n Parvularia", "Nombres": "PUNTA NORTE", "POINT_X": -70.2898032, "POINT_Y": -18.4289718}}, {"type": "Feature", "geometry": {"type": "Point", "coordinates": [-70.31501100000001, -18.397135999999996]}, "properties": {"CUT_REG": "15", "CUT_PROV": "151", "CUT_COM": "15101", "REGION": "Arica y Parinacota", "PROVINCIA": "Arica", "COMUNA": "Arica", "variable": "Centros de Educaci\u00f3n Parvularia", "Nombres": "VILLA FRONTERA", "POINT_X": -70.315011, "POINT_Y": -18.397136}}]}