{"type": "FeatureCollection", "features": [{"type": "Feature", "geometry": {"type": "Point", "coordinates": [-72.22028986999999, -37.17145676999996]}, "properties": {"CUT_REG": "16", "CUT_PROV": "161", "CUT_COM": "16109", "REGION": "\u00d1uble", "PROVINCIA": "Diguill\u00edn", "COMUNA": "Yungay", "variable": "Centros de Educaci\u00f3n Parvularia", "Nombres": "ESCUELA CLAUDIO ARRAU", "POINT_X": -72.22028987, "POINT_Y": -37.17145677}}, {"type": "Feature", "geometry": {"type": "Point", "coordinates": [-72.07144200000002, -37.161258999999966]}, "properties": {"CUT_REG": "16", "CUT_PROV": "161", "CUT_COM": "16109", "REGION": "\u00d1uble", "PROVINCIA": "Diguill\u00edn", "COMUNA": "Yungay", "variable": "Centros de Educaci\u00f3n Parvularia", "Nombres": "COLEGIO CHOLGUAN", "POINT_X": -72.071442, "POINT_Y": -37.161259}}, {"type": "Feature", "geometry": {"type": "Point", "coordinates": [-72.18270899999996, -37.13579899999998]}, "properties": {"CUT_REG": "16", "CUT_PROV": "161", "CUT_COM": "16109", "REGION": "\u00d1uble", "PROVINCIA": "Diguill\u00edn", "COMUNA": "Yungay", "variable": "Centros de Educaci\u00f3n Parvularia", "Nombres": "LICEO CAMPANARIO", "POINT_X": -72.182709, "POINT_Y": -37.135799}}, {"type": "Feature", "geometry": {"type": "Point", "coordinates": [-72.18660699999998, -37.13148100000002]}, "properties": {"CUT_REG": "16", "CUT_PROV": "161", "CUT_COM": "16109", "REGION": "\u00d1uble", "PROVINCIA": "Diguill\u00edn", "COMUNA": "Yungay", "variable": "Centros de Educaci\u00f3n Parvularia", "Nombres": "ESCUELA ESPECIAL DE LENGUAJE PINARES Y ESCUELA B\u00c1SICA PINARES", "POINT_X": -72.186607, "POINT_Y": -37.131481}}, {"type": "Feature", "geometry": {"type": "Point", "coordinates": [-71.88025700000003, -37.12733100000002]}, "properties": {"CUT_REG": "16", "CUT_PROV": "161", "CUT_COM": "16109", "REGION": "\u00d1uble", "PROVINCIA": "Diguill\u00edn", "COMUNA": "Yungay", "variable": "Centros de Educaci\u00f3n Parvularia", "Nombres": "ESCUELA LOS MAYOS", "POINT_X": -71.880257, "POINT_Y": -37.127331}}, {"type": "Feature", "geometry": {"type": "Point", "coordinates": [-72.012587745, -37.12653697899996]}, "properties": {"CUT_REG": "16", "CUT_PROV": "161", "CUT_COM": "16109", "REGION": "\u00d1uble", "PROVINCIA": "Diguill\u00edn", "COMUNA": "Yungay", "variable": "Centros de Educaci\u00f3n Parvularia", "Nombres": "MUNDO DE AMOR", "POINT_X": -72.012587745, "POINT_Y": -37.126536979}}, {"type": "Feature", "geometry": {"type": "Point", "coordinates": [-72.00909299999995, -37.125497999999965]}, "properties": {"CUT_REG": "16", "CUT_PROV": "161", "CUT_COM": "16109", "REGION": "\u00d1uble", "PROVINCIA": "Diguill\u00edn", "COMUNA": "Yungay", "variable": "Centros de Educaci\u00f3n Parvularia", "Nombres": "PARQUE ESTADIO", "POINT_X": -72.009093, "POINT_Y": -37.125498}}, {"type": "Feature", "geometry": {"type": "Point", "coordinates": [-72.09739299999995, -37.12331000000003]}, "properties": {"CUT_REG": "16", "CUT_PROV": "161", "CUT_COM": "16109", "REGION": "\u00d1uble", "PROVINCIA": "Diguill\u00edn", "COMUNA": "Yungay", "variable": "Centros de Educaci\u00f3n Parvularia", "Nombres": "ESCUELA BASICA GABRIELA MISTRAL", "POINT_X": -72.097393, "POINT_Y": -37.12331}}, {"type": "Feature", "geometry": {"type": "Point", "coordinates": [-72.019447, -37.121051999999985]}, "properties": {"CUT_REG": "16", "CUT_PROV": "161", "CUT_COM": "16109", "REGION": "\u00d1uble", "PROVINCIA": "Diguill\u00edn", "COMUNA": "Yungay", "variable": "Centros de Educaci\u00f3n Parvularia", "Nombres": "ESCUELA FERNANDO BAQUEDANO", "POINT_X": -72.019447, "POINT_Y": -37.121052}}, {"type": "Feature", "geometry": {"type": "Point", "coordinates": [-72.01979500000002, -37.12076900000002]}, "properties": {"CUT_REG": "16", "CUT_PROV": "161", "CUT_COM": "16109", "REGION": "\u00d1uble", "PROVINCIA": "Diguill\u00edn", "COMUNA": "Yungay", "variable": "Centros de Educaci\u00f3n Parvularia", "Nombres": "RAYO DE LUNA", "POINT_X": -72.019795, "POINT_Y": -37.120769}}, {"type": "Feature", "geometry": {"type": "Point", "coordinates": [-72.010651, -37.12057800000002]}, "properties": {"CUT_REG": "16", "CUT_PROV": "161", "CUT_COM": "16109", "REGION": "\u00d1uble", "PROVINCIA": "Diguill\u00edn", "COMUNA": "Yungay", "variable": "Centros de Educaci\u00f3n Parvularia", "Nombres": "VERDE AMANECER", "POINT_X": -72.010651, "POINT_Y": -37.120578}}, {"type": "Feature", "geometry": {"type": "Point", "coordinates": [-71.75605659100003, -37.10550841299999]}, "properties": {"CUT_REG": "16", "CUT_PROV": "161", "CUT_COM": "16109", "REGION": "\u00d1uble", "PROVINCIA": "Diguill\u00edn", "COMUNA": "Yungay", "variable": "Centros de Educaci\u00f3n Parvularia", "Nombres": "LUZ DE LUNA", "POINT_X": -71.756056591, "POINT_Y": -37.105508413}}, {"type": "Feature", "geometry": {"type": "Point", "coordinates": [-71.91828300000003, -37.10526400000001]}, "properties": {"CUT_REG": "16", "CUT_PROV": "161", "CUT_COM": "16109", "REGION": "\u00d1uble", "PROVINCIA": "Diguill\u00edn", "COMUNA": "Yungay", "variable": "Centros de Educaci\u00f3n Parvularia", "Nombres": "CARRUSEL", "POINT_X": -71.918283, "POINT_Y": -37.105264}}, {"type": "Feature", "geometry": {"type": "Point", "coordinates": [-71.93758499999996, -37.096622000000046]}, "properties": {"CUT_REG": "16", "CUT_PROV": "161", "CUT_COM": "16109", "REGION": "\u00d1uble", "PROVINCIA": "Diguill\u00edn", "COMUNA": "Yungay", "variable": "Centros de Educaci\u00f3n Parvularia", "Nombres": "PEUMAY\u00c9N", "POINT_X": -71.937585, "POINT_Y": -37.096622}}, {"type": "Feature", "geometry": {"type": "Point", "coordinates": [-72.14200000000001, -37.09497149999999]}, "properties": {"CUT_REG": "16", "CUT_PROV": "161", "CUT_COM": "16109", "REGION": "\u00d1uble", "PROVINCIA": "Diguill\u00edn", "COMUNA": "Yungay", "variable": "Centros de Educaci\u00f3n Parvularia", "Nombres": "ESCUELA DE LENGUAJE MANANTIAL", "POINT_X": -72.142, "POINT_Y": -37.0949715}}, {"type": "Feature", "geometry": {"type": "Point", "coordinates": [-71.98454064549998, -37.08580857]}, "properties": {"CUT_REG": "16", "CUT_PROV": "161", "CUT_COM": "16109", "REGION": "\u00d1uble", "PROVINCIA": "Diguill\u00edn", "COMUNA": "Yungay", "variable": "Centros de Educaci\u00f3n Parvularia", "Nombres": "HEIDI", "POINT_X": -71.9845406455, "POINT_Y": -37.08580857}}, {"type": "Feature", "geometry": {"type": "Point", "coordinates": [-71.9037665, -37.08270405999999]}, "properties": {"CUT_REG": "16", "CUT_PROV": "161", "CUT_COM": "16109", "REGION": "\u00d1uble", "PROVINCIA": "Diguill\u00edn", "COMUNA": "Yungay", "variable": "Centros de Educaci\u00f3n Parvularia", "Nombres": "COLEGIO SAN JOSE", "POINT_X": -71.9037665, "POINT_Y": -37.08270406}}, {"type": "Feature", "geometry": {"type": "Point", "coordinates": [-72.18903399999998, -37.07798000000001]}, "properties": {"CUT_REG": "16", "CUT_PROV": "161", "CUT_COM": "16109", "REGION": "\u00d1uble", "PROVINCIA": "Diguill\u00edn", "COMUNA": "Yungay", "variable": "Centros de Educaci\u00f3n Parvularia", "Nombres": "ESCUELA BASICA RANCHILLOS", "POINT_X": -72.189034, "POINT_Y": -37.07798}}, {"type": "Feature", "geometry": {"type": "Point", "coordinates": [-71.853049, -37.029154000000005]}, "properties": {"CUT_REG": "16", "CUT_PROV": "161", "CUT_COM": "16105", "REGION": "\u00d1uble", "PROVINCIA": "Diguill\u00edn", "COMUNA": "Pemuco", "variable": "Centros de Educaci\u00f3n Parvularia", "Nombres": "COLEGIO SAN MARCOS", "POINT_X": -71.853049, "POINT_Y": -37.029154}}, {"type": "Feature", "geometry": {"type": "Point", "coordinates": [-71.847406, -37.02167899999996]}, "properties": {"CUT_REG": "16", "CUT_PROV": "161", "CUT_COM": "16105", "REGION": "\u00d1uble", "PROVINCIA": "Diguill\u00edn", "COMUNA": "Pemuco", "variable": "Centros de Educaci\u00f3n Parvularia", "Nombres": "ANGORITA", "POINT_X": -71.847406, "POINT_Y": -37.021679}}, {"type": "Feature", "geometry": {"type": "Point", "coordinates": [-71.85516400000003, -37.02088200000001]}, "properties": {"CUT_REG": "16", "CUT_PROV": "161", "CUT_COM": "16105", "REGION": "\u00d1uble", "PROVINCIA": "Diguill\u00edn", "COMUNA": "Pemuco", "variable": "Centros de Educaci\u00f3n Parvularia", "Nombres": "ESCUELA JOS\u00c9 REN\u00c9 SALGADO", "POINT_X": -71.855164, "POINT_Y": -37.020882}}, {"type": "Feature", "geometry": {"type": "Point", "coordinates": [-71.79700534400001, -37.0193227195]}, "properties": {"CUT_REG": "16", "CUT_PROV": "161", "CUT_COM": "16105", "REGION": "\u00d1uble", "PROVINCIA": "Diguill\u00edn", "COMUNA": "Pemuco", "variable": "Centros de Educaci\u00f3n Parvularia", "Nombres": "LOS CEREZOS", "POINT_X": -71.797005344, "POINT_Y": -37.0193227195}}, {"type": "Feature", "geometry": {"type": "Point", "coordinates": [-71.98865899999997, -37.0082055]}, "properties": {"CUT_REG": "16", "CUT_PROV": "161", "CUT_COM": "16105", "REGION": "\u00d1uble", "PROVINCIA": "Diguill\u00edn", "COMUNA": "Pemuco", "variable": "Centros de Educaci\u00f3n Parvularia", "Nombres": "SONRISAS DE COLORES", "POINT_X": -71.988659, "POINT_Y": -37.0082055}}, {"type": "Feature", "geometry": {"type": "Point", "coordinates": [-72.100716, -36.97822999999997]}, "properties": {"CUT_REG": "16", "CUT_PROV": "161", "CUT_COM": "16105", "REGION": "\u00d1uble", "PROVINCIA": "Diguill\u00edn", "COMUNA": "Pemuco", "variable": "Centros de Educaci\u00f3n Parvularia", "Nombres": "JARD\u00cdN INFANTIL Y ESCUELA ESPECIAL DE LENGUAJE AGUA DE PEUMO", "POINT_X": -72.100716, "POINT_Y": -36.97823}}, {"type": "Feature", "geometry": {"type": "Point", "coordinates": [-72.09706100000001, -36.976558999999995]}, "properties": {"CUT_REG": "16", "CUT_PROV": "161", "CUT_COM": "16105", "REGION": "\u00d1uble", "PROVINCIA": "Diguill\u00edn", "COMUNA": "Pemuco", "variable": "Centros de Educaci\u00f3n Parvularia", "Nombres": "EL CONEJ\u00cdN", "POINT_X": -72.097061, "POINT_Y": -36.976559}}, {"type": "Feature", "geometry": {"type": "Point", "coordinates": [-72.10162399999999, -36.97597899999997]}, "properties": {"CUT_REG": "16", "CUT_PROV": "161", "CUT_COM": "16105", "REGION": "\u00d1uble", "PROVINCIA": "Diguill\u00edn", "COMUNA": "Pemuco", "variable": "Centros de Educaci\u00f3n Parvularia", "Nombres": "ESCUELA DAFNE ELVIRA ZAPATA ROZAS", "POINT_X": -72.101624, "POINT_Y": -36.975979}}, {"type": "Feature", "geometry": {"type": "Point", "coordinates": [-71.979477, -36.95786999999998]}, "properties": {"CUT_REG": "16", "CUT_PROV": "161", "CUT_COM": "16104", "REGION": "\u00d1uble", "PROVINCIA": "Diguill\u00edn", "COMUNA": "El Carmen", "variable": "Centros de Educaci\u00f3n Parvularia", "Nombres": "ESCUELA MATA REDONDA", "POINT_X": -71.979477, "POINT_Y": -36.95787}}, {"type": "Feature", "geometry": {"type": "Point", "coordinates": [-72.25375400000001, -36.955840999999964]}, "properties": {"CUT_REG": "16", "CUT_PROV": "161", "CUT_COM": "16105", "REGION": "\u00d1uble", "PROVINCIA": "Diguill\u00edn", "COMUNA": "Pemuco", "variable": "Centros de Educaci\u00f3n Parvularia", "Nombres": "ESCUELA BASICA VALLE HERMOSO", "POINT_X": -72.253754, "POINT_Y": -36.955841}}, {"type": "Feature", "geometry": {"type": "Point", "coordinates": [-71.78588899999995, -36.95305600000002]}, "properties": {"CUT_REG": "16", "CUT_PROV": "161", "CUT_COM": "16104", "REGION": "\u00d1uble", "PROVINCIA": "Diguill\u00edn", "COMUNA": "El Carmen", "variable": "Centros de Educaci\u00f3n Parvularia", "Nombres": "CAPILLA SUR-LAS CUNCUNITAS", "POINT_X": -71.785889, "POINT_Y": -36.953056}}, {"type": "Feature", "geometry": {"type": "Point", "coordinates": [-71.87052249999999, -36.94715049999998]}, "properties": {"CUT_REG": "16", "CUT_PROV": "161", "CUT_COM": "16104", "REGION": "\u00d1uble", "PROVINCIA": "Diguill\u00edn", "COMUNA": "El Carmen", "variable": "Centros de Educaci\u00f3n Parvularia", "Nombres": "MUNDO DE COLORES", "POINT_X": -71.8705225, "POINT_Y": -36.9471505}}, {"type": "Feature", "geometry": {"type": "Point", "coordinates": [-71.99922000000001, -36.942843999999994]}, "properties": {"CUT_REG": "16", "CUT_PROV": "161", "CUT_COM": "16104", "REGION": "\u00d1uble", "PROVINCIA": "Diguill\u00edn", "COMUNA": "El Carmen", "variable": "Centros de Educaci\u00f3n Parvularia", "Nombres": "RENACER DEL BOSQUE", "POINT_X": -71.99922, "POINT_Y": -36.942844}}, {"type": "Feature", "geometry": {"type": "Point", "coordinates": [-71.86122279299995, -36.93859420450004]}, "properties": {"CUT_REG": "16", "CUT_PROV": "161", "CUT_COM": "16104", "REGION": "\u00d1uble", "PROVINCIA": "Diguill\u00edn", "COMUNA": "El Carmen", "variable": "Centros de Educaci\u00f3n Parvularia", "Nombres": "PADRE HURTADO", "POINT_X": -71.861222793, "POINT_Y": -36.9385942045}}, {"type": "Feature", "geometry": {"type": "Point", "coordinates": [-72.35208899999995, -36.93804900000001]}, "properties": {"CUT_REG": "16", "CUT_PROV": "161", "CUT_COM": "16105", "REGION": "\u00d1uble", "PROVINCIA": "Diguill\u00edn", "COMUNA": "Pemuco", "variable": "Centros de Educaci\u00f3n Parvularia", "Nombres": "ESCUELA BASICA GENERAL CRUZ", "POINT_X": -72.352089, "POINT_Y": -36.938049}}, {"type": "Feature", "geometry": {"type": "Point", "coordinates": [-71.87262700000002, -36.932072000000005]}, "properties": {"CUT_REG": "16", "CUT_PROV": "161", "CUT_COM": "16104", "REGION": "\u00d1uble", "PROVINCIA": "Diguill\u00edn", "COMUNA": "El Carmen", "variable": "Centros de Educaci\u00f3n Parvularia", "Nombres": "ESCUELA BERNARDINO MUNOZ GONZALEZ", "POINT_X": -71.872627, "POINT_Y": -36.932072}}, {"type": "Feature", "geometry": {"type": "Point", "coordinates": [-72.00713140500001, -36.931418839999964]}, "properties": {"CUT_REG": "16", "CUT_PROV": "161", "CUT_COM": "16104", "REGION": "\u00d1uble", "PROVINCIA": "Diguill\u00edn", "COMUNA": "El Carmen", "variable": "Centros de Educaci\u00f3n Parvularia", "Nombres": "ABEJITAS", "POINT_X": -72.007131405, "POINT_Y": -36.93141884}}, {"type": "Feature", "geometry": {"type": "Point", "coordinates": [-71.47921999999997, -36.919810000000005]}, "properties": {"CUT_REG": "16", "CUT_PROV": "161", "CUT_COM": "16106", "REGION": "\u00d1uble", "PROVINCIA": "Diguill\u00edn", "COMUNA": "Pinto", "variable": "Centros de Educaci\u00f3n Parvularia", "Nombres": "ESCUELA ESPECIAL DE LENGUAJE PINTO Y APRENDO", "POINT_X": -71.47922, "POINT_Y": -36.91981}}, {"type": "Feature", "geometry": {"type": "Point", "coordinates": [-71.80315999999996, -36.916232999999984]}, "properties": {"CUT_REG": "16", "CUT_PROV": "161", "CUT_COM": "16104", "REGION": "\u00d1uble", "PROVINCIA": "Diguill\u00edn", "COMUNA": "El Carmen", "variable": "Centros de Educaci\u00f3n Parvularia", "Nombres": "CAPILLA NORTE-EL AROMITO", "POINT_X": -71.80316, "POINT_Y": -36.916233}}, {"type": "Feature", "geometry": {"type": "Point", "coordinates": [-72.07286109049997, -36.91083739000004]}, "properties": {"CUT_REG": "16", "CUT_PROV": "161", "CUT_COM": "16104", "REGION": "\u00d1uble", "PROVINCIA": "Diguill\u00edn", "COMUNA": "El Carmen", "variable": "Centros de Educaci\u00f3n Parvularia", "Nombres": "SONRISITAS", "POINT_X": -72.0728610905, "POINT_Y": -36.91083739}}, {"type": "Feature", "geometry": {"type": "Point", "coordinates": [-72.02991499999997, -36.90787000000001]}, "properties": {"CUT_REG": "16", "CUT_PROV": "161", "CUT_COM": "16104", "REGION": "\u00d1uble", "PROVINCIA": "Diguill\u00edn", "COMUNA": "El Carmen", "variable": "Centros de Educaci\u00f3n Parvularia", "Nombres": "ESCUELA ESPECIAL DE LENGUAJE MI ANGEL", "POINT_X": -72.029915, "POINT_Y": -36.90787}}, {"type": "Feature", "geometry": {"type": "Point", "coordinates": [-72.00458281899999, -36.902087269000006]}, "properties": {"CUT_REG": "16", "CUT_PROV": "161", "CUT_COM": "16104", "REGION": "\u00d1uble", "PROVINCIA": "Diguill\u00edn", "COMUNA": "El Carmen", "variable": "Centros de Educaci\u00f3n Parvularia", "Nombres": "ILUSIONES", "POINT_X": -72.004582819, "POINT_Y": -36.902087269}}, {"type": "Feature", "geometry": {"type": "Point", "coordinates": [-72.00455005500004, -36.90094877800004]}, "properties": {"CUT_REG": "16", "CUT_PROV": "161", "CUT_COM": "16104", "REGION": "\u00d1uble", "PROVINCIA": "Diguill\u00edn", "COMUNA": "El Carmen", "variable": "Centros de Educaci\u00f3n Parvularia", "Nombres": "SANTA ELVIRA", "POINT_X": -72.004550055, "POINT_Y": -36.900948778}}, {"type": "Feature", "geometry": {"type": "Point", "coordinates": [-72.38054700000002, -36.90055099999999]}, "properties": {"CUT_REG": "16", "CUT_PROV": "161", "CUT_COM": "16107", "REGION": "\u00d1uble", "PROVINCIA": "Diguill\u00edn", "COMUNA": "Quill\u00f3n", "variable": "Centros de Educaci\u00f3n Parvularia", "Nombres": "ESCUELA BASICA LIUCURA BAJO", "POINT_X": -72.380547, "POINT_Y": -36.900551}}, {"type": "Feature", "geometry": {"type": "Point", "coordinates": [-72.03064, -36.90020399999997]}, "properties": {"CUT_REG": "16", "CUT_PROV": "161", "CUT_COM": "16104", "REGION": "\u00d1uble", "PROVINCIA": "Diguill\u00edn", "COMUNA": "El Carmen", "variable": "Centros de Educaci\u00f3n Parvularia", "Nombres": "ESCUELA ESPECIAL DE LENGUAJE MUNICIPAL EL CARMEN", "POINT_X": -72.03064, "POINT_Y": -36.900204}}, {"type": "Feature", "geometry": {"type": "Point", "coordinates": [-72.034323, -36.89980899999997]}, "properties": {"CUT_REG": "16", "CUT_PROV": "161", "CUT_COM": "16104", "REGION": "\u00d1uble", "PROVINCIA": "Diguill\u00edn", "COMUNA": "El Carmen", "variable": "Centros de Educaci\u00f3n Parvularia", "Nombres": "PARQUE SAN ANDRES", "POINT_X": -72.034323, "POINT_Y": -36.899809}}, {"type": "Feature", "geometry": {"type": "Point", "coordinates": [-72.03005999999998, -36.89958999999997]}, "properties": {"CUT_REG": "16", "CUT_PROV": "161", "CUT_COM": "16104", "REGION": "\u00d1uble", "PROVINCIA": "Diguill\u00edn", "COMUNA": "El Carmen", "variable": "Centros de Educaci\u00f3n Parvularia", "Nombres": "ESCUELA VIRGEN DEL CARMEN", "POINT_X": -72.03006, "POINT_Y": -36.89959}}, {"type": "Feature", "geometry": {"type": "Point", "coordinates": [-71.80399199499998, -36.89885923499999]}, "properties": {"CUT_REG": "16", "CUT_PROV": "161", "CUT_COM": "16104", "REGION": "\u00d1uble", "PROVINCIA": "Diguill\u00edn", "COMUNA": "El Carmen", "variable": "Centros de Educaci\u00f3n Parvularia", "Nombres": "COLEGIO SANTA CRUZ", "POINT_X": -71.803991995, "POINT_Y": -36.898859235}}, {"type": "Feature", "geometry": {"type": "Point", "coordinates": [-72.03090699999998, -36.898689000000026]}, "properties": {"CUT_REG": "16", "CUT_PROV": "161", "CUT_COM": "16104", "REGION": "\u00d1uble", "PROVINCIA": "Diguill\u00edn", "COMUNA": "El Carmen", "variable": "Centros de Educaci\u00f3n Parvularia", "Nombres": "ESCUELA ELISE MOTTART", "POINT_X": -72.030907, "POINT_Y": -36.898689}}, {"type": "Feature", "geometry": {"type": "Point", "coordinates": [-72.02127799999997, -36.898548]}, "properties": {"CUT_REG": "16", "CUT_PROV": "161", "CUT_COM": "16104", "REGION": "\u00d1uble", "PROVINCIA": "Diguill\u00edn", "COMUNA": "El Carmen", "variable": "Centros de Educaci\u00f3n Parvularia", "Nombres": "COLEGIO HALCONES DEL CARMEN", "POINT_X": -72.021278, "POINT_Y": -36.898548}}, {"type": "Feature", "geometry": {"type": "Point", "coordinates": [-72.31709300000001, -36.89791099999996]}, "properties": {"CUT_REG": "16", "CUT_PROV": "161", "CUT_COM": "16105", "REGION": "\u00d1uble", "PROVINCIA": "Diguill\u00edn", "COMUNA": "Pemuco", "variable": "Centros de Educaci\u00f3n Parvularia", "Nombres": "ESCUELA ARTURO MATTE ALESSANDRI", "POINT_X": -72.317093, "POINT_Y": -36.897911}}, {"type": "Feature", "geometry": {"type": "Point", "coordinates": [-72.02960822099999, -36.89735446700001]}, "properties": {"CUT_REG": "16", "CUT_PROV": "161", "CUT_COM": "16104", "REGION": "\u00d1uble", "PROVINCIA": "Diguill\u00edn", "COMUNA": "El Carmen", "variable": "Centros de Educaci\u00f3n Parvularia", "Nombres": "CONCEJAL EMILIO MARTINEZ", "POINT_X": -72.029608221, "POINT_Y": -36.897354467}}, {"type": "Feature", "geometry": {"type": "Point", "coordinates": [-71.929802, -36.89683899999999]}, "properties": {"CUT_REG": "16", "CUT_PROV": "161", "CUT_COM": "16104", "REGION": "\u00d1uble", "PROVINCIA": "Diguill\u00edn", "COMUNA": "El Carmen", "variable": "Centros de Educaci\u00f3n Parvularia", "Nombres": "ESCUELA NAVIDAD-TREHUALEMU", "POINT_X": -71.929802, "POINT_Y": -36.896839}}, {"type": "Feature", "geometry": {"type": "Point", "coordinates": [-72.02522247500002, -36.89680350199998]}, "properties": {"CUT_REG": "16", "CUT_PROV": "161", "CUT_COM": "16104", "REGION": "\u00d1uble", "PROVINCIA": "Diguill\u00edn", "COMUNA": "El Carmen", "variable": "Centros de Educaci\u00f3n Parvularia", "Nombres": "TIA EDITH JANS", "POINT_X": -72.025222475, "POINT_Y": -36.896803502}}, {"type": "Feature", "geometry": {"type": "Point", "coordinates": [-72.42900099999997, -36.893631000000035]}, "properties": {"CUT_REG": "16", "CUT_PROV": "161", "CUT_COM": "16107", "REGION": "\u00d1uble", "PROVINCIA": "Diguill\u00edn", "COMUNA": "Quill\u00f3n", "variable": "Centros de Educaci\u00f3n Parvularia", "Nombres": "ESCUELA PEDRO ENRIQUE TORRES SABELLE", "POINT_X": -72.429001, "POINT_Y": -36.893631}}, {"type": "Feature", "geometry": {"type": "Point", "coordinates": [-71.94057850000002, -36.89062899999998]}, "properties": {"CUT_REG": "16", "CUT_PROV": "161", "CUT_COM": "16104", "REGION": "\u00d1uble", "PROVINCIA": "Diguill\u00edn", "COMUNA": "El Carmen", "variable": "Centros de Educaci\u00f3n Parvularia", "Nombres": "ESCUELA SANTA ROSA", "POINT_X": -71.9405785, "POINT_Y": -36.890629}}, {"type": "Feature", "geometry": {"type": "Point", "coordinates": [-72.09249, -36.88954999999997]}, "properties": {"CUT_REG": "16", "CUT_PROV": "161", "CUT_COM": "16108", "REGION": "\u00d1uble", "PROVINCIA": "Diguill\u00edn", "COMUNA": "San Ignacio", "variable": "Centros de Educaci\u00f3n Parvularia", "Nombres": "ESCUELA ESPECIAL DE LENGUAJE CUMBRES DE SAN IGNACIO", "POINT_X": -72.09249, "POINT_Y": -36.88955}}, {"type": "Feature", "geometry": {"type": "Point", "coordinates": [-72.244011, -36.88251100000003]}, "properties": {"CUT_REG": "16", "CUT_PROV": "161", "CUT_COM": "16102", "REGION": "\u00d1uble", "PROVINCIA": "Diguill\u00edn", "COMUNA": "Bulnes", "variable": "Centros de Educaci\u00f3n Parvularia", "Nombres": "ESCUELA LOS TILOS JOS\u00c9 ANDRADES V\u00c1SQUEZ", "POINT_X": -72.244011, "POINT_Y": -36.882511}}, {"type": "Feature", "geometry": {"type": "Point", "coordinates": [-72.093643, -36.88045899999997]}, "properties": {"CUT_REG": "16", "CUT_PROV": "161", "CUT_COM": "16108", "REGION": "\u00d1uble", "PROVINCIA": "Diguill\u00edn", "COMUNA": "San Ignacio", "variable": "Centros de Educaci\u00f3n Parvularia", "Nombres": "ESCUELA BASICA PUEBLO SECO", "POINT_X": -72.093643, "POINT_Y": -36.880459}}, {"type": "Feature", "geometry": {"type": "Point", "coordinates": [-71.8699671315, -36.87856463]}, "properties": {"CUT_REG": "16", "CUT_PROV": "161", "CUT_COM": "16104", "REGION": "\u00d1uble", "PROVINCIA": "Diguill\u00edn", "COMUNA": "El Carmen", "variable": "Centros de Educaci\u00f3n Parvularia", "Nombres": "CASCANUECES", "POINT_X": -71.8699671315, "POINT_Y": -36.87856463}}, {"type": "Feature", "geometry": {"type": "Point", "coordinates": [-72.04663099999999, -36.875938000000005]}, "properties": {"CUT_REG": "16", "CUT_PROV": "161", "CUT_COM": "16108", "REGION": "\u00d1uble", "PROVINCIA": "Diguill\u00edn", "COMUNA": "San Ignacio", "variable": "Centros de Educaci\u00f3n Parvularia", "Nombres": "ESCUELA LAS QUILAS", "POINT_X": -72.046631, "POINT_Y": -36.875938}}, {"type": "Feature", "geometry": {"type": "Point", "coordinates": [-71.96742199999998, -36.862349999999985]}, "properties": {"CUT_REG": "16", "CUT_PROV": "161", "CUT_COM": "16104", "REGION": "\u00d1uble", "PROVINCIA": "Diguill\u00edn", "COMUNA": "El Carmen", "variable": "Centros de Educaci\u00f3n Parvularia", "Nombres": "ESCUELA DEL CARMEN SAN MART\u00cdN OT\u00c1ROLA", "POINT_X": -71.967422, "POINT_Y": -36.86235}}, {"type": "Feature", "geometry": {"type": "Point", "coordinates": [-71.80187199999997, -36.85913100000001]}, "properties": {"CUT_REG": "16", "CUT_PROV": "161", "CUT_COM": "16104", "REGION": "\u00d1uble", "PROVINCIA": "Diguill\u00edn", "COMUNA": "El Carmen", "variable": "Centros de Educaci\u00f3n Parvularia", "Nombres": "ESCUELA DE SAN VICENTE ALTO", "POINT_X": -71.801872, "POINT_Y": -36.859131}}, {"type": "Feature", "geometry": {"type": "Point", "coordinates": [-71.79812941300003, -36.856065242000014]}, "properties": {"CUT_REG": "16", "CUT_PROV": "161", "CUT_COM": "16104", "REGION": "\u00d1uble", "PROVINCIA": "Diguill\u00edn", "COMUNA": "El Carmen", "variable": "Centros de Educaci\u00f3n Parvularia", "Nombres": "LAS AZUCENAS", "POINT_X": -71.798129413, "POINT_Y": -36.856065242}}, {"type": "Feature", "geometry": {"type": "Point", "coordinates": [-71.64404299999995, -36.856049]}, "properties": {"CUT_REG": "16", "CUT_PROV": "161", "CUT_COM": "16106", "REGION": "\u00d1uble", "PROVINCIA": "Diguill\u00edn", "COMUNA": "Pinto", "variable": "Centros de Educaci\u00f3n Parvularia", "Nombres": "ESCUELA JAVIER JARPA SOTOMAYOR", "POINT_X": -71.644043, "POINT_Y": -36.856049}}, {"type": "Feature", "geometry": {"type": "Point", "coordinates": [-72.06878699999999, -36.84641999999999]}, "properties": {"CUT_REG": "16", "CUT_PROV": "161", "CUT_COM": "16108", "REGION": "\u00d1uble", "PROVINCIA": "Diguill\u00edn", "COMUNA": "San Ignacio", "variable": "Centros de Educaci\u00f3n Parvularia", "Nombres": "ESCUELA CALLE ALEGRE", "POINT_X": -72.068787, "POINT_Y": -36.84642}}, {"type": "Feature", "geometry": {"type": "Point", "coordinates": [-71.65778400000002, -36.84539000000003]}, "properties": {"CUT_REG": "16", "CUT_PROV": "161", "CUT_COM": "16106", "REGION": "\u00d1uble", "PROVINCIA": "Diguill\u00edn", "COMUNA": "Pinto", "variable": "Centros de Educaci\u00f3n Parvularia", "Nombres": "ESCUELA JOSE TOHA SOLDEVILLA", "POINT_X": -71.657784, "POINT_Y": -36.84539}}, {"type": "Feature", "geometry": {"type": "Point", "coordinates": [-72.23729700000003, -36.84360900000002]}, "properties": {"CUT_REG": "16", "CUT_PROV": "161", "CUT_COM": "16102", "REGION": "\u00d1uble", "PROVINCIA": "Diguill\u00edn", "COMUNA": "Bulnes", "variable": "Centros de Educaci\u00f3n Parvularia", "Nombres": "ESCUELA MILAHUE", "POINT_X": -72.237297, "POINT_Y": -36.843609}}, {"type": "Feature", "geometry": {"type": "Point", "coordinates": [-72.10182200000003, -36.84128200000004]}, "properties": {"CUT_REG": "16", "CUT_PROV": "161", "CUT_COM": "16108", "REGION": "\u00d1uble", "PROVINCIA": "Diguill\u00edn", "COMUNA": "San Ignacio", "variable": "Centros de Educaci\u00f3n Parvularia", "Nombres": "COLEGIO POLITECNICO VICTOR JARA", "POINT_X": -72.101822, "POINT_Y": -36.841282}}, {"type": "Feature", "geometry": {"type": "Point", "coordinates": [-72.10182769999997, -36.84023329999996]}, "properties": {"CUT_REG": "16", "CUT_PROV": "161", "CUT_COM": "16108", "REGION": "\u00d1uble", "PROVINCIA": "Diguill\u00edn", "COMUNA": "San Ignacio", "variable": "Centros de Educaci\u00f3n Parvularia", "Nombres": "VICTOR JARA", "POINT_X": -72.1018277, "POINT_Y": -36.8402333}}, {"type": "Feature", "geometry": {"type": "Point", "coordinates": [-72.43118300000003, -36.83272899999997]}, "properties": {"CUT_REG": "16", "CUT_PROV": "161", "CUT_COM": "16107", "REGION": "\u00d1uble", "PROVINCIA": "Diguill\u00edn", "COMUNA": "Quill\u00f3n", "variable": "Centros de Educaci\u00f3n Parvularia", "Nombres": "ESCUELA BASICA EL CASINO", "POINT_X": -72.431183, "POINT_Y": -36.832729}}, {"type": "Feature", "geometry": {"type": "Point", "coordinates": [-72.33306099999996, -36.82894900000003]}, "properties": {"CUT_REG": "16", "CUT_PROV": "161", "CUT_COM": "16102", "REGION": "\u00d1uble", "PROVINCIA": "Diguill\u00edn", "COMUNA": "Bulnes", "variable": "Centros de Educaci\u00f3n Parvularia", "Nombres": "ESCUELA EL PALPAL DE SANTA CLARA", "POINT_X": -72.333061, "POINT_Y": -36.828949}}, {"type": "Feature", "geometry": {"type": "Point", "coordinates": [-72.334079146, -36.82803643900002]}, "properties": {"CUT_REG": "16", "CUT_PROV": "161", "CUT_COM": "16102", "REGION": "\u00d1uble", "PROVINCIA": "Diguill\u00edn", "COMUNA": "Bulnes", "variable": "Centros de Educaci\u00f3n Parvularia", "Nombres": "MIS CARI\u00d1OSITOS", "POINT_X": -72.334079146, "POINT_Y": -36.828036439}}, {"type": "Feature", "geometry": {"type": "Point", "coordinates": [-71.79477449999999, -36.8241975]}, "properties": {"CUT_REG": "16", "CUT_PROV": "161", "CUT_COM": "16108", "REGION": "\u00d1uble", "PROVINCIA": "Diguill\u00edn", "COMUNA": "San Ignacio", "variable": "Centros de Educaci\u00f3n Parvularia", "Nombres": "PEQUE\u00d1OS ARTISTAS", "POINT_X": -71.7947745, "POINT_Y": -36.8241975}}, {"type": "Feature", "geometry": {"type": "Point", "coordinates": [-72.46215799999999, -36.82221999999998]}, "properties": {"CUT_REG": "16", "CUT_PROV": "161", "CUT_COM": "16107", "REGION": "\u00d1uble", "PROVINCIA": "Diguill\u00edn", "COMUNA": "Quill\u00f3n", "variable": "Centros de Educaci\u00f3n Parvularia", "Nombres": "ESCUELA BASICA HUACAMALA", "POINT_X": -72.462158, "POINT_Y": -36.82222}}, {"type": "Feature", "geometry": {"type": "Point", "coordinates": [-72.32739999999998, -36.819981]}, "properties": {"CUT_REG": "16", "CUT_PROV": "161", "CUT_COM": "16102", "REGION": "\u00d1uble", "PROVINCIA": "Diguill\u00edn", "COMUNA": "Bulnes", "variable": "Centros de Educaci\u00f3n Parvularia", "Nombres": "ESCUELA BASICA PUEBLO SECO SANTA CLARA", "POINT_X": -72.3274, "POINT_Y": -36.819981}}, {"type": "Feature", "geometry": {"type": "Point", "coordinates": [-71.89511900000002, -36.81872899999997]}, "properties": {"CUT_REG": "16", "CUT_PROV": "161", "CUT_COM": "16108", "REGION": "\u00d1uble", "PROVINCIA": "Diguill\u00edn", "COMUNA": "San Ignacio", "variable": "Centros de Educaci\u00f3n Parvularia", "Nombres": "ESCUELA MAYULERMO", "POINT_X": -71.895119, "POINT_Y": -36.818729}}, {"type": "Feature", "geometry": {"type": "Point", "coordinates": [-72.32342799999998, -36.81620800000002]}, "properties": {"CUT_REG": "16", "CUT_PROV": "161", "CUT_COM": "16102", "REGION": "\u00d1uble", "PROVINCIA": "Diguill\u00edn", "COMUNA": "Bulnes", "variable": "Centros de Educaci\u00f3n Parvularia", "Nombres": "MIS ANGELITOS", "POINT_X": -72.323428, "POINT_Y": -36.816208}}, {"type": "Feature", "geometry": {"type": "Point", "coordinates": [-71.96082300000003, -36.815479]}, "properties": {"CUT_REG": "16", "CUT_PROV": "161", "CUT_COM": "16108", "REGION": "\u00d1uble", "PROVINCIA": "Diguill\u00edn", "COMUNA": "San Ignacio", "variable": "Centros de Educaci\u00f3n Parvularia", "Nombres": "ESCUELA MAR\u00cdA LUISA ESPINOZA RUIZ", "POINT_X": -71.960823, "POINT_Y": -36.815479}}, {"type": "Feature", "geometry": {"type": "Point", "coordinates": [-72.28949550000002, -36.81197750000001]}, "properties": {"CUT_REG": "16", "CUT_PROV": "161", "CUT_COM": "16102", "REGION": "\u00d1uble", "PROVINCIA": "Diguill\u00edn", "COMUNA": "Bulnes", "variable": "Centros de Educaci\u00f3n Parvularia", "Nombres": "ESCUELA ESPECIAL DE LENGUAJE FANTASIA", "POINT_X": -72.2894955, "POINT_Y": -36.8119775}}, {"type": "Feature", "geometry": {"type": "Point", "coordinates": [-72.40979616669998, -36.81141538890004]}, "properties": {"CUT_REG": "16", "CUT_PROV": "161", "CUT_COM": "16102", "REGION": "\u00d1uble", "PROVINCIA": "Diguill\u00edn", "COMUNA": "Bulnes", "variable": "Centros de Educaci\u00f3n Parvularia", "Nombres": "PEQUE\u00d1OS PASOS", "POINT_X": -72.4097961667, "POINT_Y": -36.8114153889}}, {"type": "Feature", "geometry": {"type": "Point", "coordinates": [-72.24372900000002, -36.81023000000002]}, "properties": {"CUT_REG": "16", "CUT_PROV": "161", "CUT_COM": "16102", "REGION": "\u00d1uble", "PROVINCIA": "Diguill\u00edn", "COMUNA": "Bulnes", "variable": "Centros de Educaci\u00f3n Parvularia", "Nombres": "ESCUELA EL CARACOL", "POINT_X": -72.243729, "POINT_Y": -36.81023}}, {"type": "Feature", "geometry": {"type": "Point", "coordinates": [-72.01600129100001, -36.80540811300003]}, "properties": {"CUT_REG": "16", "CUT_PROV": "161", "CUT_COM": "16108", "REGION": "\u00d1uble", "PROVINCIA": "Diguill\u00edn", "COMUNA": "San Ignacio", "variable": "Centros de Educaci\u00f3n Parvularia", "Nombres": "AROMITO", "POINT_X": -72.016001291, "POINT_Y": -36.805408113}}, {"type": "Feature", "geometry": {"type": "Point", "coordinates": [-72.15249599999999, -36.80366099999998]}, "properties": {"CUT_REG": "16", "CUT_PROV": "161", "CUT_COM": "16102", "REGION": "\u00d1uble", "PROVINCIA": "Diguill\u00edn", "COMUNA": "Bulnes", "variable": "Centros de Educaci\u00f3n Parvularia", "Nombres": "ESCUELA CANTA RANA", "POINT_X": -72.152496, "POINT_Y": -36.803661}}, {"type": "Feature", "geometry": {"type": "Point", "coordinates": [-71.837391617, -36.803158970000005]}, "properties": {"CUT_REG": "16", "CUT_PROV": "161", "CUT_COM": "16106", "REGION": "\u00d1uble", "PROVINCIA": "Diguill\u00edn", "COMUNA": "Pinto", "variable": "Centros de Educaci\u00f3n Parvularia", "Nombres": "PEQUE\u00d1O PARAISO", "POINT_X": -71.837391617, "POINT_Y": -36.80315897}}, {"type": "Feature", "geometry": {"type": "Point", "coordinates": [-72.03208899999998, -36.80004899999999]}, "properties": {"CUT_REG": "16", "CUT_PROV": "161", "CUT_COM": "16108", "REGION": "\u00d1uble", "PROVINCIA": "Diguill\u00edn", "COMUNA": "San Ignacio", "variable": "Centros de Educaci\u00f3n Parvularia", "Nombres": "LICEO POLIT\u00c9CNICO MAR\u00cdA WARD", "POINT_X": -72.032089, "POINT_Y": -36.800049}}, {"type": "Feature", "geometry": {"type": "Point", "coordinates": [-72.02990700000002, -36.79928600000001]}, "properties": {"CUT_REG": "16", "CUT_PROV": "161", "CUT_COM": "16108", "REGION": "\u00d1uble", "PROVINCIA": "Diguill\u00edn", "COMUNA": "San Ignacio", "variable": "Centros de Educaci\u00f3n Parvularia", "Nombres": "LICEO MANUEL JESUS ORTIZ", "POINT_X": -72.029907, "POINT_Y": -36.799286}}, {"type": "Feature", "geometry": {"type": "Point", "coordinates": [-72.02568999999998, -36.79835000000001]}, "properties": {"CUT_REG": "16", "CUT_PROV": "161", "CUT_COM": "16108", "REGION": "\u00d1uble", "PROVINCIA": "Diguill\u00edn", "COMUNA": "San Ignacio", "variable": "Centros de Educaci\u00f3n Parvularia", "Nombres": "SANTA IN\u00c9S", "POINT_X": -72.02569, "POINT_Y": -36.79835}}, {"type": "Feature", "geometry": {"type": "Point", "coordinates": [-72.368832, -36.79343500000004]}, "properties": {"CUT_REG": "16", "CUT_PROV": "161", "CUT_COM": "16102", "REGION": "\u00d1uble", "PROVINCIA": "Diguill\u00edn", "COMUNA": "Bulnes", "variable": "Centros de Educaci\u00f3n Parvularia", "Nombres": "LAS MANZANITAS", "POINT_X": -72.368832, "POINT_Y": -36.793435}}, {"type": "Feature", "geometry": {"type": "Point", "coordinates": [-71.833641, -36.79132100000001]}, "properties": {"CUT_REG": "16", "CUT_PROV": "161", "CUT_COM": "16106", "REGION": "\u00d1uble", "PROVINCIA": "Diguill\u00edn", "COMUNA": "Pinto", "variable": "Centros de Educaci\u00f3n Parvularia", "Nombres": "ESCUELA HECTOR MANUEL ARIAS CORTES", "POINT_X": -71.833641, "POINT_Y": -36.791321}}, {"type": "Feature", "geometry": {"type": "Point", "coordinates": [-72.11077899999995, -36.78895999999997]}, "properties": {"CUT_REG": "16", "CUT_PROV": "161", "CUT_COM": "16108", "REGION": "\u00d1uble", "PROVINCIA": "Diguill\u00edn", "COMUNA": "San Ignacio", "variable": "Centros de Educaci\u00f3n Parvularia", "Nombres": "ESCUELA COLTON VARIANTE", "POINT_X": -72.110779, "POINT_Y": -36.78896}}, {"type": "Feature", "geometry": {"type": "Point", "coordinates": [-72.209053, -36.78759000000004]}, "properties": {"CUT_REG": "16", "CUT_PROV": "161", "CUT_COM": "16102", "REGION": "\u00d1uble", "PROVINCIA": "Diguill\u00edn", "COMUNA": "Bulnes", "variable": "Centros de Educaci\u00f3n Parvularia", "Nombres": "ESCUELA EVARISTA OGALDE ORTEGA", "POINT_X": -72.209053, "POINT_Y": -36.78759}}, {"type": "Feature", "geometry": {"type": "Point", "coordinates": [-71.92736799999997, -36.78730000000002]}, "properties": {"CUT_REG": "16", "CUT_PROV": "161", "CUT_COM": "16108", "REGION": "\u00d1uble", "PROVINCIA": "Diguill\u00edn", "COMUNA": "San Ignacio", "variable": "Centros de Educaci\u00f3n Parvularia", "Nombres": "ESCUELA SELVA NEGRA", "POINT_X": -71.927368, "POINT_Y": -36.7873}}, {"type": "Feature", "geometry": {"type": "Point", "coordinates": [-72.157784, -36.779048999999986]}, "properties": {"CUT_REG": "16", "CUT_PROV": "161", "CUT_COM": "16102", "REGION": "\u00d1uble", "PROVINCIA": "Diguill\u00edn", "COMUNA": "Bulnes", "variable": "Centros de Educaci\u00f3n Parvularia", "Nombres": "ESCUELA COLTON QUILLAY", "POINT_X": -72.157784, "POINT_Y": -36.779049}}, {"type": "Feature", "geometry": {"type": "Point", "coordinates": [-72.43659200000002, -36.77254899999996]}, "properties": {"CUT_REG": "16", "CUT_PROV": "161", "CUT_COM": "16107", "REGION": "\u00d1uble", "PROVINCIA": "Diguill\u00edn", "COMUNA": "Quill\u00f3n", "variable": "Centros de Educaci\u00f3n Parvularia", "Nombres": "ESCUELA BASICA PASO EL ROBLE", "POINT_X": -72.436592, "POINT_Y": -36.772549}}, {"type": "Feature", "geometry": {"type": "Point", "coordinates": [-72.39914699999996, -36.75801100000003]}, "properties": {"CUT_REG": "16", "CUT_PROV": "161", "CUT_COM": "16102", "REGION": "\u00d1uble", "PROVINCIA": "Diguill\u00edn", "COMUNA": "Bulnes", "variable": "Centros de Educaci\u00f3n Parvularia", "Nombres": "ESCUELA BATALLA DEL ROBLE", "POINT_X": -72.399147, "POINT_Y": -36.758011}}, {"type": "Feature", "geometry": {"type": "Point", "coordinates": [-72.47836999999996, -36.75437999999998]}, "properties": {"CUT_REG": "16", "CUT_PROV": "161", "CUT_COM": "16107", "REGION": "\u00d1uble", "PROVINCIA": "Diguill\u00edn", "COMUNA": "Quill\u00f3n", "variable": "Centros de Educaci\u00f3n Parvularia", "Nombres": "ESCUELA DE LENGUAJE EL VALLE", "POINT_X": -72.47837, "POINT_Y": -36.75438}}, {"type": "Feature", "geometry": {"type": "Point", "coordinates": [-72.47525000000002, -36.75223900000003]}, "properties": {"CUT_REG": "16", "CUT_PROV": "161", "CUT_COM": "16107", "REGION": "\u00d1uble", "PROVINCIA": "Diguill\u00edn", "COMUNA": "Quill\u00f3n", "variable": "Centros de Educaci\u00f3n Parvularia", "Nombres": "ESCUELA B\u00c1SICA LAGUNA AVENDA\u00d1O", "POINT_X": -72.47525, "POINT_Y": -36.752239}}, {"type": "Feature", "geometry": {"type": "Point", "coordinates": [-72.47846200000004, -36.75093800000003]}, "properties": {"CUT_REG": "16", "CUT_PROV": "161", "CUT_COM": "16107", "REGION": "\u00d1uble", "PROVINCIA": "Diguill\u00edn", "COMUNA": "Quill\u00f3n", "variable": "Centros de Educaci\u00f3n Parvularia", "Nombres": "ESCUELA B\u00c1SICA AMANDA CH\u00c1VEZ NAVARRETE", "POINT_X": -72.478462, "POINT_Y": -36.750938}}, {"type": "Feature", "geometry": {"type": "Point", "coordinates": [-72.46882599999998, -36.75071]}, "properties": {"CUT_REG": "16", "CUT_PROV": "161", "CUT_COM": "16107", "REGION": "\u00d1uble", "PROVINCIA": "Diguill\u00edn", "COMUNA": "Quill\u00f3n", "variable": "Centros de Educaci\u00f3n Parvularia", "Nombres": "ESCUELA B\u00c1SICA PUERTO LOS FRUTALES DE COYANCO", "POINT_X": -72.468826, "POINT_Y": -36.75071}}, {"type": "Feature", "geometry": {"type": "Point", "coordinates": [-72.287956, -36.74866100000001]}, "properties": {"CUT_REG": "16", "CUT_PROV": "161", "CUT_COM": "16102", "REGION": "\u00d1uble", "PROVINCIA": "Diguill\u00edn", "COMUNA": "Bulnes", "variable": "Centros de Educaci\u00f3n Parvularia", "Nombres": "ESCUELA CELIA URRUTIA PRIETO", "POINT_X": -72.287956, "POINT_Y": -36.748661}}, {"type": "Feature", "geometry": {"type": "Point", "coordinates": [-72.47485400000002, -36.746268999999984]}, "properties": {"CUT_REG": "16", "CUT_PROV": "161", "CUT_COM": "16107", "REGION": "\u00d1uble", "PROVINCIA": "Diguill\u00edn", "COMUNA": "Quill\u00f3n", "variable": "Centros de Educaci\u00f3n Parvularia", "Nombres": "ESCUELA BASICA HEROES DEL ITATA", "POINT_X": -72.474854, "POINT_Y": -36.746269}}, {"type": "Feature", "geometry": {"type": "Point", "coordinates": [-72.46730898699995, -36.745825790999994]}, "properties": {"CUT_REG": "16", "CUT_PROV": "161", "CUT_COM": "16107", "REGION": "\u00d1uble", "PROVINCIA": "Diguill\u00edn", "COMUNA": "Quill\u00f3n", "variable": "Centros de Educaci\u00f3n Parvularia", "Nombres": "CARICIAS DE BEBE", "POINT_X": -72.467308987, "POINT_Y": -36.745825791}}, {"type": "Feature", "geometry": {"type": "Point", "coordinates": [-72.47720510800004, -36.74508809299998]}, "properties": {"CUT_REG": "16", "CUT_PROV": "161", "CUT_COM": "16107", "REGION": "\u00d1uble", "PROVINCIA": "Diguill\u00edn", "COMUNA": "Quill\u00f3n", "variable": "Centros de Educaci\u00f3n Parvularia", "Nombres": "VALLE DEL SOL", "POINT_X": -72.477205108, "POINT_Y": -36.745088093}}, {"type": "Feature", "geometry": {"type": "Point", "coordinates": [-72.47573899999998, -36.74494900000001]}, "properties": {"CUT_REG": "16", "CUT_PROV": "161", "CUT_COM": "16107", "REGION": "\u00d1uble", "PROVINCIA": "Diguill\u00edn", "COMUNA": "Quill\u00f3n", "variable": "Centros de Educaci\u00f3n Parvularia", "Nombres": "COLEGIO QUILL\u00d3N", "POINT_X": -72.475739, "POINT_Y": -36.744949}}, {"type": "Feature", "geometry": {"type": "Point", "coordinates": [-72.29705999999999, -36.744600000000005]}, "properties": {"CUT_REG": "16", "CUT_PROV": "161", "CUT_COM": "16102", "REGION": "\u00d1uble", "PROVINCIA": "Diguill\u00edn", "COMUNA": "Bulnes", "variable": "Centros de Educaci\u00f3n Parvularia", "Nombres": "ESCUELA DE LENGUAJE BULNES", "POINT_X": -72.29706, "POINT_Y": -36.7446}}, {"type": "Feature", "geometry": {"type": "Point", "coordinates": [-72.30119300000001, -36.74409099999999]}, "properties": {"CUT_REG": "16", "CUT_PROV": "161", "CUT_COM": "16102", "REGION": "\u00d1uble", "PROVINCIA": "Diguill\u00edn", "COMUNA": "Bulnes", "variable": "Centros de Educaci\u00f3n Parvularia", "Nombres": "COLEGIO AMANECER", "POINT_X": -72.301193, "POINT_Y": -36.744091}}, {"type": "Feature", "geometry": {"type": "Point", "coordinates": [-72.29659000000001, -36.74354999999999]}, "properties": {"CUT_REG": "16", "CUT_PROV": "161", "CUT_COM": "16102", "REGION": "\u00d1uble", "PROVINCIA": "Diguill\u00edn", "COMUNA": "Bulnes", "variable": "Centros de Educaci\u00f3n Parvularia", "Nombres": "ESCUELA ESPECIAL DE LENGUAJE RINC\u00d3N DEL SABER", "POINT_X": -72.29659, "POINT_Y": -36.74355}}, {"type": "Feature", "geometry": {"type": "Point", "coordinates": [-72.29907200000002, -36.74309200000002]}, "properties": {"CUT_REG": "16", "CUT_PROV": "161", "CUT_COM": "16102", "REGION": "\u00d1uble", "PROVINCIA": "Diguill\u00edn", "COMUNA": "Bulnes", "variable": "Centros de Educaci\u00f3n Parvularia", "Nombres": "LICEO SANTA CRUZ DE LARQUI", "POINT_X": -72.299072, "POINT_Y": -36.743092}}, {"type": "Feature", "geometry": {"type": "Point", "coordinates": [-72.30160899999997, -36.74179200000002]}, "properties": {"CUT_REG": "16", "CUT_PROV": "161", "CUT_COM": "16102", "REGION": "\u00d1uble", "PROVINCIA": "Diguill\u00edn", "COMUNA": "Bulnes", "variable": "Centros de Educaci\u00f3n Parvularia", "Nombres": "ESCUELA ESPECIAL DE LENGUAJE ELUNEY", "POINT_X": -72.301609, "POINT_Y": -36.741792}}, {"type": "Feature", "geometry": {"type": "Point", "coordinates": [-72.301440842, -36.74089213599999]}, "properties": {"CUT_REG": "16", "CUT_PROV": "161", "CUT_COM": "16102", "REGION": "\u00d1uble", "PROVINCIA": "Diguill\u00edn", "COMUNA": "Bulnes", "variable": "Centros de Educaci\u00f3n Parvularia", "Nombres": "MIS PEQUE\u00d1OS DUENDECITOS", "POINT_X": -72.301440842, "POINT_Y": -36.740892136}}, {"type": "Feature", "geometry": {"type": "Point", "coordinates": [-72.47136699999999, -36.74005899999998]}, "properties": {"CUT_REG": "16", "CUT_PROV": "161", "CUT_COM": "16107", "REGION": "\u00d1uble", "PROVINCIA": "Diguill\u00edn", "COMUNA": "Quill\u00f3n", "variable": "Centros de Educaci\u00f3n Parvularia", "Nombres": "ESCUELA ESPECIAL DE LENGUAJE Y COLEGIO B\u00c1SICO CUMBRES DEL VALLE COLLEGE", "POINT_X": -72.471367, "POINT_Y": -36.740059}}, {"type": "Feature", "geometry": {"type": "Point", "coordinates": [-72.30761699999996, -36.73878100000002]}, "properties": {"CUT_REG": "16", "CUT_PROV": "161", "CUT_COM": "16102", "REGION": "\u00d1uble", "PROVINCIA": "Diguill\u00edn", "COMUNA": "Bulnes", "variable": "Centros de Educaci\u00f3n Parvularia", "Nombres": "COLEGIO TERESA DE LOS ANDES", "POINT_X": -72.307617, "POINT_Y": -36.738781}}, {"type": "Feature", "geometry": {"type": "Point", "coordinates": [-72.30233799999999, -36.738621000000016]}, "properties": {"CUT_REG": "16", "CUT_PROV": "161", "CUT_COM": "16102", "REGION": "\u00d1uble", "PROVINCIA": "Diguill\u00edn", "COMUNA": "Bulnes", "variable": "Centros de Educaci\u00f3n Parvularia", "Nombres": "ESCUELA BASICA EDUARDO FREI MONTALBA", "POINT_X": -72.302338, "POINT_Y": -36.738621}}, {"type": "Feature", "geometry": {"type": "Point", "coordinates": [-72.46762000000001, -36.73689999999999]}, "properties": {"CUT_REG": "16", "CUT_PROV": "161", "CUT_COM": "16107", "REGION": "\u00d1uble", "PROVINCIA": "Diguill\u00edn", "COMUNA": "Quill\u00f3n", "variable": "Centros de Educaci\u00f3n Parvularia", "Nombres": "ESCUELA DE LENGUAJE ALMENDRA", "POINT_X": -72.46762, "POINT_Y": -36.7369}}, {"type": "Feature", "geometry": {"type": "Point", "coordinates": [-72.30404034799997, -36.736779557999974]}, "properties": {"CUT_REG": "16", "CUT_PROV": "161", "CUT_COM": "16102", "REGION": "\u00d1uble", "PROVINCIA": "Diguill\u00edn", "COMUNA": "Bulnes", "variable": "Centros de Educaci\u00f3n Parvularia", "Nombres": "MIS PEQUE\u00d1OS CORAZONES", "POINT_X": -72.304040348, "POINT_Y": -36.736779558}}, {"type": "Feature", "geometry": {"type": "Point", "coordinates": [-72.46791958800003, -36.73675151999996]}, "properties": {"CUT_REG": "16", "CUT_PROV": "161", "CUT_COM": "16107", "REGION": "\u00d1uble", "PROVINCIA": "Diguill\u00edn", "COMUNA": "Quill\u00f3n", "variable": "Centros de Educaci\u00f3n Parvularia", "Nombres": "CARI\u00d1OSITOS DEL PORTAL", "POINT_X": -72.467919588, "POINT_Y": -36.73675152}}, {"type": "Feature", "geometry": {"type": "Point", "coordinates": [-72.01751995450002, -36.725457664500006]}, "properties": {"CUT_REG": "16", "CUT_PROV": "161", "CUT_COM": "16101", "REGION": "\u00d1uble", "PROVINCIA": "Diguill\u00edn", "COMUNA": "Chill\u00e1n", "variable": "Centros de Educaci\u00f3n Parvularia", "Nombres": "ORUGUITA", "POINT_X": -72.0175199545, "POINT_Y": -36.7254576645}}, {"type": "Feature", "geometry": {"type": "Point", "coordinates": [-71.84159900000003, -36.72427000000001]}, "properties": {"CUT_REG": "16", "CUT_PROV": "161", "CUT_COM": "16106", "REGION": "\u00d1uble", "PROVINCIA": "Diguill\u00edn", "COMUNA": "Pinto", "variable": "Centros de Educaci\u00f3n Parvularia", "Nombres": "ESCUELA BASICA JUAN JORGE", "POINT_X": -71.841599, "POINT_Y": -36.72427}}, {"type": "Feature", "geometry": {"type": "Point", "coordinates": [-71.88677495000002, -36.717092209999954]}, "properties": {"CUT_REG": "16", "CUT_PROV": "161", "CUT_COM": "16106", "REGION": "\u00d1uble", "PROVINCIA": "Diguill\u00edn", "COMUNA": "Pinto", "variable": "Centros de Educaci\u00f3n Parvularia", "Nombres": "COLEGIO CRISTIANO BELEN", "POINT_X": -71.88677495, "POINT_Y": -36.71709221}}, {"type": "Feature", "geometry": {"type": "Point", "coordinates": [-72.44057416949995, -36.7095984475]}, "properties": {"CUT_REG": "16", "CUT_PROV": "161", "CUT_COM": "16102", "REGION": "\u00d1uble", "PROVINCIA": "Diguill\u00edn", "COMUNA": "Bulnes", "variable": "Centros de Educaci\u00f3n Parvularia", "Nombres": "MANITOS DE AMOR", "POINT_X": -72.4405741695, "POINT_Y": -36.7095984475}}, {"type": "Feature", "geometry": {"type": "Point", "coordinates": [-71.892052, -36.70542900000003]}, "properties": {"CUT_REG": "16", "CUT_PROV": "161", "CUT_COM": "16106", "REGION": "\u00d1uble", "PROVINCIA": "Diguill\u00edn", "COMUNA": "Pinto", "variable": "Centros de Educaci\u00f3n Parvularia", "Nombres": "ESCUELA PUERTA DE LA CORDILLERA", "POINT_X": -71.892052, "POINT_Y": -36.705429}}, {"type": "Feature", "geometry": {"type": "Point", "coordinates": [-71.89025100000003, -36.70467000000003]}, "properties": {"CUT_REG": "16", "CUT_PROV": "161", "CUT_COM": "16106", "REGION": "\u00d1uble", "PROVINCIA": "Diguill\u00edn", "COMUNA": "Pinto", "variable": "Centros de Educaci\u00f3n Parvularia", "Nombres": "COLEGIO FRANCISCO DE ASIS", "POINT_X": -71.890251, "POINT_Y": -36.70467}}, {"type": "Feature", "geometry": {"type": "Point", "coordinates": [-71.89231600000001, -36.70149900000003]}, "properties": {"CUT_REG": "16", "CUT_PROV": "161", "CUT_COM": "16106", "REGION": "\u00d1uble", "PROVINCIA": "Diguill\u00edn", "COMUNA": "Pinto", "variable": "Centros de Educaci\u00f3n Parvularia", "Nombres": "PETET\u00cdN", "POINT_X": -71.892316, "POINT_Y": -36.701499}}, {"type": "Feature", "geometry": {"type": "Point", "coordinates": [-71.90039880299997, -36.700977496999954]}, "properties": {"CUT_REG": "16", "CUT_PROV": "161", "CUT_COM": "16106", "REGION": "\u00d1uble", "PROVINCIA": "Diguill\u00edn", "COMUNA": "Pinto", "variable": "Centros de Educaci\u00f3n Parvularia", "Nombres": "CAPULLO DE ROSA", "POINT_X": -71.900398803, "POINT_Y": -36.700977497}}, {"type": "Feature", "geometry": {"type": "Point", "coordinates": [-72.28389000000001, -36.67370999999998]}, "properties": {"CUT_REG": "16", "CUT_PROV": "161", "CUT_COM": "16103", "REGION": "\u00d1uble", "PROVINCIA": "Diguill\u00edn", "COMUNA": "Chill\u00e1n Viejo", "variable": "Centros de Educaci\u00f3n Parvularia", "Nombres": "ESCUELA BASICA RUCAPEQUEN", "POINT_X": -72.28389, "POINT_Y": -36.67371}}, {"type": "Feature", "geometry": {"type": "Point", "coordinates": [-72.27812634399999, -36.67034753300003]}, "properties": {"CUT_REG": "16", "CUT_PROV": "161", "CUT_COM": "16103", "REGION": "\u00d1uble", "PROVINCIA": "Diguill\u00edn", "COMUNA": "Chill\u00e1n Viejo", "variable": "Centros de Educaci\u00f3n Parvularia", "Nombres": "RUCAPEQUEN", "POINT_X": -72.278126344, "POINT_Y": -36.670347533}}, {"type": "Feature", "geometry": {"type": "Point", "coordinates": [-71.96946000000003, -36.663872]}, "properties": {"CUT_REG": "16", "CUT_PROV": "161", "CUT_COM": "16101", "REGION": "\u00d1uble", "PROVINCIA": "Diguill\u00edn", "COMUNA": "Chill\u00e1n", "variable": "Centros de Educaci\u00f3n Parvularia", "Nombres": "ESCUELA LOS JARDINES DE LAUTARO", "POINT_X": -71.96946, "POINT_Y": -36.663872}}, {"type": "Feature", "geometry": {"type": "Point", "coordinates": [-72.37986000000002, -36.654678000000004]}, "properties": {"CUT_REG": "16", "CUT_PROV": "161", "CUT_COM": "16101", "REGION": "\u00d1uble", "PROVINCIA": "Diguill\u00edn", "COMUNA": "Chill\u00e1n", "variable": "Centros de Educaci\u00f3n Parvularia", "Nombres": "ESCUELA BASICA COLLIGUAY", "POINT_X": -72.37986, "POINT_Y": -36.654678}}, {"type": "Feature", "geometry": {"type": "Point", "coordinates": [-72.41240700000002, -36.65109999999999]}, "properties": {"CUT_REG": "16", "CUT_PROV": "161", "CUT_COM": "16101", "REGION": "\u00d1uble", "PROVINCIA": "Diguill\u00edn", "COMUNA": "Chill\u00e1n", "variable": "Centros de Educaci\u00f3n Parvularia", "Nombres": "ESCUELA BASICA QUINCHAMALI", "POINT_X": -72.412407, "POINT_Y": -36.6511}}, {"type": "Feature", "geometry": {"type": "Point", "coordinates": [-72.21778900000001, -36.64672099999996]}, "properties": {"CUT_REG": "16", "CUT_PROV": "161", "CUT_COM": "16103", "REGION": "\u00d1uble", "PROVINCIA": "Diguill\u00edn", "COMUNA": "Chill\u00e1n Viejo", "variable": "Centros de Educaci\u00f3n Parvularia", "Nombres": "ESCUELA BASICA NEBUCO", "POINT_X": -72.217789, "POINT_Y": -36.646721}}, {"type": "Feature", "geometry": {"type": "Point", "coordinates": [-72.44409899999997, -36.64514900000001]}, "properties": {"CUT_REG": "16", "CUT_PROV": "161", "CUT_COM": "16101", "REGION": "\u00d1uble", "PROVINCIA": "Diguill\u00edn", "COMUNA": "Chill\u00e1n", "variable": "Centros de Educaci\u00f3n Parvularia", "Nombres": "ESCUELA BASICA CONFLUENCIA", "POINT_X": -72.444099, "POINT_Y": -36.645149}}, {"type": "Feature", "geometry": {"type": "Point", "coordinates": [-72.29531366649996, -36.641855950000036]}, "properties": {"CUT_REG": "16", "CUT_PROV": "161", "CUT_COM": "16103", "REGION": "\u00d1uble", "PROVINCIA": "Diguill\u00edn", "COMUNA": "Chill\u00e1n Viejo", "variable": "Centros de Educaci\u00f3n Parvularia", "Nombres": "LA ESPERANZA", "POINT_X": -72.2953136665, "POINT_Y": -36.64185595}}, {"type": "Feature", "geometry": {"type": "Point", "coordinates": [-72.08192000000003, -36.641589999999965]}, "properties": {"CUT_REG": "16", "CUT_PROV": "161", "CUT_COM": "16101", "REGION": "\u00d1uble", "PROVINCIA": "Diguill\u00edn", "COMUNA": "Chill\u00e1n", "variable": "Centros de Educaci\u00f3n Parvularia", "Nombres": "JARDIN INFANTIL Y ESCUELA DE LENGUAJE PRIMEROS PASOS", "POINT_X": -72.08192, "POINT_Y": -36.64159}}, {"type": "Feature", "geometry": {"type": "Point", "coordinates": [-71.99488800000003, -36.63888900000004]}, "properties": {"CUT_REG": "16", "CUT_PROV": "161", "CUT_COM": "16101", "REGION": "\u00d1uble", "PROVINCIA": "Diguill\u00edn", "COMUNA": "Chill\u00e1n", "variable": "Centros de Educaci\u00f3n Parvularia", "Nombres": "ESCUELA PARTICULAR LAS MARIPOSAS", "POINT_X": -71.994888, "POINT_Y": -36.638889}}, {"type": "Feature", "geometry": {"type": "Point", "coordinates": [-72.13115300000004, -36.63768599999998]}, "properties": {"CUT_REG": "16", "CUT_PROV": "161", "CUT_COM": "16103", "REGION": "\u00d1uble", "PROVINCIA": "Diguill\u00edn", "COMUNA": "Chill\u00e1n Viejo", "variable": "Centros de Educaci\u00f3n Parvularia", "Nombres": "ESCUELA ESPECIAL DE LENGUAJE PASAPALABRAS", "POINT_X": -72.131153, "POINT_Y": -36.637686}}, {"type": "Feature", "geometry": {"type": "Point", "coordinates": [-72.08268999999996, -36.63255699999998]}, "properties": {"CUT_REG": "16", "CUT_PROV": "161", "CUT_COM": "16101", "REGION": "\u00d1uble", "PROVINCIA": "Diguill\u00edn", "COMUNA": "Chill\u00e1n", "variable": "Centros de Educaci\u00f3n Parvularia", "Nombres": "JARDIN INFANTIL ZAPATITO JUGUETON", "POINT_X": -72.08269, "POINT_Y": -36.632557}}, {"type": "Feature", "geometry": {"type": "Point", "coordinates": [-72.13636799999995, -36.63211100000002]}, "properties": {"CUT_REG": "16", "CUT_PROV": "161", "CUT_COM": "16103", "REGION": "\u00d1uble", "PROVINCIA": "Diguill\u00edn", "COMUNA": "Chill\u00e1n Viejo", "variable": "Centros de Educaci\u00f3n Parvularia", "Nombres": "LICEO TOMAS LAGO", "POINT_X": -72.136368, "POINT_Y": -36.632111}}, {"type": "Feature", "geometry": {"type": "Point", "coordinates": [-72.03502699999999, -36.63190800000001]}, "properties": {"CUT_REG": "16", "CUT_PROV": "161", "CUT_COM": "16101", "REGION": "\u00d1uble", "PROVINCIA": "Diguill\u00edn", "COMUNA": "Chill\u00e1n", "variable": "Centros de Educaci\u00f3n Parvularia", "Nombres": "ESCUELA ESPECIAL DE LENGUAJE Y ESCUELA BASICA MY COLLEGE", "POINT_X": -72.035027, "POINT_Y": -36.631908}}, {"type": "Feature", "geometry": {"type": "Point", "coordinates": [-72.13426199999996, -36.63182799999996]}, "properties": {"CUT_REG": "16", "CUT_PROV": "161", "CUT_COM": "16103", "REGION": "\u00d1uble", "PROVINCIA": "Diguill\u00edn", "COMUNA": "Chill\u00e1n Viejo", "variable": "Centros de Educaci\u00f3n Parvularia", "Nombres": "COLEGIO CRISTIANO HOREB", "POINT_X": -72.134262, "POINT_Y": -36.631828}}, {"type": "Feature", "geometry": {"type": "Point", "coordinates": [-72.08968300000001, -36.63123300000003]}, "properties": {"CUT_REG": "16", "CUT_PROV": "161", "CUT_COM": "16101", "REGION": "\u00d1uble", "PROVINCIA": "Diguill\u00edn", "COMUNA": "Chill\u00e1n", "variable": "Centros de Educaci\u00f3n Parvularia", "Nombres": "CENTRAL CHILLAN", "POINT_X": -72.089683, "POINT_Y": -36.631233}}, {"type": "Feature", "geometry": {"type": "Point", "coordinates": [-72.109936, -36.63073299999996]}, "properties": {"CUT_REG": "16", "CUT_PROV": "161", "CUT_COM": "16103", "REGION": "\u00d1uble", "PROVINCIA": "Diguill\u00edn", "COMUNA": "Chill\u00e1n Viejo", "variable": "Centros de Educaci\u00f3n Parvularia", "Nombres": "VILLA LOS NARANJOS", "POINT_X": -72.109936, "POINT_Y": -36.630733}}, {"type": "Feature", "geometry": {"type": "Point", "coordinates": [-72.12482829699995, -36.63068228300003]}, "properties": {"CUT_REG": "16", "CUT_PROV": "161", "CUT_COM": "16103", "REGION": "\u00d1uble", "PROVINCIA": "Diguill\u00edn", "COMUNA": "Chill\u00e1n Viejo", "variable": "Centros de Educaci\u00f3n Parvularia", "Nombres": "EDUARDO FREI", "POINT_X": -72.124828297, "POINT_Y": -36.630682283}}, {"type": "Feature", "geometry": {"type": "Point", "coordinates": [-72.09307100000001, -36.63061900000003]}, "properties": {"CUT_REG": "16", "CUT_PROV": "161", "CUT_COM": "16101", "REGION": "\u00d1uble", "PROVINCIA": "Diguill\u00edn", "COMUNA": "Chill\u00e1n", "variable": "Centros de Educaci\u00f3n Parvularia", "Nombres": "COLEGIO HISPANO AMERICANO RIO VIEJO", "POINT_X": -72.093071, "POINT_Y": -36.630619}}, {"type": "Feature", "geometry": {"type": "Point", "coordinates": [-72.098837449, -36.630326593999996]}, "properties": {"CUT_REG": "16", "CUT_PROV": "161", "CUT_COM": "16103", "REGION": "\u00d1uble", "PROVINCIA": "Diguill\u00edn", "COMUNA": "Chill\u00e1n Viejo", "variable": "Centros de Educaci\u00f3n Parvularia", "Nombres": "HOGAR DE CRISTO", "POINT_X": -72.098837449, "POINT_Y": -36.630326594}}, {"type": "Feature", "geometry": {"type": "Point", "coordinates": [-72.10690599999995, -36.62974799999999]}, "properties": {"CUT_REG": "16", "CUT_PROV": "161", "CUT_COM": "16101", "REGION": "\u00d1uble", "PROVINCIA": "Diguill\u00edn", "COMUNA": "Chill\u00e1n", "variable": "Centros de Educaci\u00f3n Parvularia", "Nombres": "RIOS DEL SUR", "POINT_X": -72.106906, "POINT_Y": -36.629748}}, {"type": "Feature", "geometry": {"type": "Point", "coordinates": [-72.09234376899997, -36.629417741000026]}, "properties": {"CUT_REG": "16", "CUT_PROV": "161", "CUT_COM": "16101", "REGION": "\u00d1uble", "PROVINCIA": "Diguill\u00edn", "COMUNA": "Chill\u00e1n", "variable": "Centros de Educaci\u00f3n Parvularia", "Nombres": "LOS ALPES", "POINT_X": -72.092343769, "POINT_Y": -36.629417741}}, {"type": "Feature", "geometry": {"type": "Point", "coordinates": [-72.05339100000003, -36.62904000000003]}, "properties": {"CUT_REG": "16", "CUT_PROV": "161", "CUT_COM": "16101", "REGION": "\u00d1uble", "PROVINCIA": "Diguill\u00edn", "COMUNA": "Chill\u00e1n", "variable": "Centros de Educaci\u00f3n Parvularia", "Nombres": "COLEGIO ALC\u00c1ZARES DE \u00d1UBLE", "POINT_X": -72.053391, "POINT_Y": -36.62904}}, {"type": "Feature", "geometry": {"type": "Point", "coordinates": [-72.129433, -36.62879200000003]}, "properties": {"CUT_REG": "16", "CUT_PROV": "161", "CUT_COM": "16103", "REGION": "\u00d1uble", "PROVINCIA": "Diguill\u00edn", "COMUNA": "Chill\u00e1n Viejo", "variable": "Centros de Educaci\u00f3n Parvularia", "Nombres": "COLEGIO SAN FERNANDO CHILL\u00c1N VIEJO", "POINT_X": -72.129433, "POINT_Y": -36.628792}}, {"type": "Feature", "geometry": {"type": "Point", "coordinates": [-72.08537100000001, -36.62814499999997]}, "properties": {"CUT_REG": "16", "CUT_PROV": "161", "CUT_COM": "16101", "REGION": "\u00d1uble", "PROVINCIA": "Diguill\u00edn", "COMUNA": "Chill\u00e1n", "variable": "Centros de Educaci\u00f3n Parvularia", "Nombres": "LAS MARIPOSAS", "POINT_X": -72.085371, "POINT_Y": -36.628145}}, {"type": "Feature", "geometry": {"type": "Point", "coordinates": [-72.057327, -36.627940999999964]}, "properties": {"CUT_REG": "16", "CUT_PROV": "161", "CUT_COM": "16101", "REGION": "\u00d1uble", "PROVINCIA": "Diguill\u00edn", "COMUNA": "Chill\u00e1n", "variable": "Centros de Educaci\u00f3n Parvularia", "Nombres": "COLEGIO CIUDAD EDUCATIVA", "POINT_X": -72.057327, "POINT_Y": -36.627941}}, {"type": "Feature", "geometry": {"type": "Point", "coordinates": [-72.09342999999996, -36.62715099999997]}, "properties": {"CUT_REG": "16", "CUT_PROV": "161", "CUT_COM": "16101", "REGION": "\u00d1uble", "PROVINCIA": "Diguill\u00edn", "COMUNA": "Chill\u00e1n", "variable": "Centros de Educaci\u00f3n Parvularia", "Nombres": "LICEO LIBERTADOR BERNARDO O\u00b4HIGGINS RIQUELME", "POINT_X": -72.09343, "POINT_Y": -36.627151}}, {"type": "Feature", "geometry": {"type": "Point", "coordinates": [-72.08721200000001, -36.62714000000003]}, "properties": {"CUT_REG": "16", "CUT_PROV": "161", "CUT_COM": "16101", "REGION": "\u00d1uble", "PROVINCIA": "Diguill\u00edn", "COMUNA": "Chill\u00e1n", "variable": "Centros de Educaci\u00f3n Parvularia", "Nombres": "ESCUELA RAM\u00d3N VINAY SEP\u00daLVEDA", "POINT_X": -72.087212, "POINT_Y": -36.62714}}, {"type": "Feature", "geometry": {"type": "Point", "coordinates": [-72.13336999999997, -36.626880000000014]}, "properties": {"CUT_REG": "16", "CUT_PROV": "161", "CUT_COM": "16103", "REGION": "\u00d1uble", "PROVINCIA": "Diguill\u00edn", "COMUNA": "Chill\u00e1n Viejo", "variable": "Centros de Educaci\u00f3n Parvularia", "Nombres": "COLEGIO 20 DE AGOSTO", "POINT_X": -72.13337, "POINT_Y": -36.62688}}, {"type": "Feature", "geometry": {"type": "Point", "coordinates": [-71.99541978999999, -36.626679100000004]}, "properties": {"CUT_REG": "16", "CUT_PROV": "161", "CUT_COM": "16101", "REGION": "\u00d1uble", "PROVINCIA": "Diguill\u00edn", "COMUNA": "Chill\u00e1n", "variable": "Centros de Educaci\u00f3n Parvularia", "Nombres": "ESCUELA LEONARDO DA VINCI", "POINT_X": -71.99541979, "POINT_Y": -36.6266791}}, {"type": "Feature", "geometry": {"type": "Point", "coordinates": [-72.07811700000003, -36.62548099999999]}, "properties": {"CUT_REG": "16", "CUT_PROV": "161", "CUT_COM": "16101", "REGION": "\u00d1uble", "PROVINCIA": "Diguill\u00edn", "COMUNA": "Chill\u00e1n", "variable": "Centros de Educaci\u00f3n Parvularia", "Nombres": "COLEGIO SYDNEY COLLEGE", "POINT_X": -72.078117, "POINT_Y": -36.625481}}, {"type": "Feature", "geometry": {"type": "Point", "coordinates": [-72.11614299999995, -36.62499400000002]}, "properties": {"CUT_REG": "16", "CUT_PROV": "161", "CUT_COM": "16101", "REGION": "\u00d1uble", "PROVINCIA": "Diguill\u00edn", "COMUNA": "Chill\u00e1n", "variable": "Centros de Educaci\u00f3n Parvularia", "Nombres": "LUZ DE KERUBIEL", "POINT_X": -72.116143, "POINT_Y": -36.624994}}, {"type": "Feature", "geometry": {"type": "Point", "coordinates": [-72.12040699999997, -36.62457999999996]}, "properties": {"CUT_REG": "16", "CUT_PROV": "161", "CUT_COM": "16101", "REGION": "\u00d1uble", "PROVINCIA": "Diguill\u00edn", "COMUNA": "Chill\u00e1n", "variable": "Centros de Educaci\u00f3n Parvularia", "Nombres": "COLEGIO ANTAMARO", "POINT_X": -72.120407, "POINT_Y": -36.62458}}, {"type": "Feature", "geometry": {"type": "Point", "coordinates": [-72.102336727, -36.624517587000035]}, "properties": {"CUT_REG": "16", "CUT_PROV": "161", "CUT_COM": "16101", "REGION": "\u00d1uble", "PROVINCIA": "Diguill\u00edn", "COMUNA": "Chill\u00e1n", "variable": "Centros de Educaci\u00f3n Parvularia", "Nombres": "ROBLIN", "POINT_X": -72.102336727, "POINT_Y": -36.624517587}}, {"type": "Feature", "geometry": {"type": "Point", "coordinates": [-72.11636400000003, -36.62443199999997]}, "properties": {"CUT_REG": "16", "CUT_PROV": "161", "CUT_COM": "16101", "REGION": "\u00d1uble", "PROVINCIA": "Diguill\u00edn", "COMUNA": "Chill\u00e1n", "variable": "Centros de Educaci\u00f3n Parvularia", "Nombres": "ESCUELA BASICA LAS CANOAS", "POINT_X": -72.116364, "POINT_Y": -36.624432}}, {"type": "Feature", "geometry": {"type": "Point", "coordinates": [-72.08648699999998, -36.623619000000026]}, "properties": {"CUT_REG": "16", "CUT_PROV": "161", "CUT_COM": "16101", "REGION": "\u00d1uble", "PROVINCIA": "Diguill\u00edn", "COMUNA": "Chill\u00e1n", "variable": "Centros de Educaci\u00f3n Parvularia", "Nombres": "COLEGIO COYAM", "POINT_X": -72.086487, "POINT_Y": -36.623619}}, {"type": "Feature", "geometry": {"type": "Point", "coordinates": [-72.12512999999996, -36.62355]}, "properties": {"CUT_REG": "16", "CUT_PROV": "161", "CUT_COM": "16103", "REGION": "\u00d1uble", "PROVINCIA": "Diguill\u00edn", "COMUNA": "Chill\u00e1n Viejo", "variable": "Centros de Educaci\u00f3n Parvularia", "Nombres": "LICEO POLIVALENTE JUAN PACHECO ALTAMIRANO", "POINT_X": -72.12513, "POINT_Y": -36.62355}}, {"type": "Feature", "geometry": {"type": "Point", "coordinates": [-72.09081800000003, -36.62288499999996]}, "properties": {"CUT_REG": "16", "CUT_PROV": "161", "CUT_COM": "16101", "REGION": "\u00d1uble", "PROVINCIA": "Diguill\u00edn", "COMUNA": "Chill\u00e1n", "variable": "Centros de Educaci\u00f3n Parvularia", "Nombres": "EL OSITO", "POINT_X": -72.090818, "POINT_Y": -36.622885}}, {"type": "Feature", "geometry": {"type": "Point", "coordinates": [-72.13834400000002, -36.62276799999996]}, "properties": {"CUT_REG": "16", "CUT_PROV": "161", "CUT_COM": "16103", "REGION": "\u00d1uble", "PROVINCIA": "Diguill\u00edn", "COMUNA": "Chill\u00e1n Viejo", "variable": "Centros de Educaci\u00f3n Parvularia", "Nombres": "ESCUELA CHILLAN VIEJO", "POINT_X": -72.138344, "POINT_Y": -36.622768}}, {"type": "Feature", "geometry": {"type": "Point", "coordinates": [-72.12847, -36.62267999999996]}, "properties": {"CUT_REG": "16", "CUT_PROV": "161", "CUT_COM": "16103", "REGION": "\u00d1uble", "PROVINCIA": "Diguill\u00edn", "COMUNA": "Chill\u00e1n Viejo", "variable": "Centros de Educaci\u00f3n Parvularia", "Nombres": "ESCUELA ESPECIAL DE LENGUAJE SAN DAMIAN", "POINT_X": -72.12847, "POINT_Y": -36.62268}}, {"type": "Feature", "geometry": {"type": "Point", "coordinates": [-72.09923499999994, -36.622027000000024]}, "properties": {"CUT_REG": "16", "CUT_PROV": "161", "CUT_COM": "16101", "REGION": "\u00d1uble", "PROVINCIA": "Diguill\u00edn", "COMUNA": "Chill\u00e1n", "variable": "Centros de Educaci\u00f3n Parvularia", "Nombres": "ROSITA OHIGGINS", "POINT_X": -72.099235, "POINT_Y": -36.622027}}, {"type": "Feature", "geometry": {"type": "Point", "coordinates": [-72.11354600000001, -36.62202099999997]}, "properties": {"CUT_REG": "16", "CUT_PROV": "161", "CUT_COM": "16101", "REGION": "\u00d1uble", "PROVINCIA": "Diguill\u00edn", "COMUNA": "Chill\u00e1n", "variable": "Centros de Educaci\u00f3n Parvularia", "Nombres": "PUCHERITO", "POINT_X": -72.113546, "POINT_Y": -36.622021}}, {"type": "Feature", "geometry": {"type": "Point", "coordinates": [-72.06786799999998, -36.62123299999996]}, "properties": {"CUT_REG": "16", "CUT_PROV": "161", "CUT_COM": "16101", "REGION": "\u00d1uble", "PROVINCIA": "Diguill\u00edn", "COMUNA": "Chill\u00e1n", "variable": "Centros de Educaci\u00f3n Parvularia", "Nombres": "MIS PRIMEROS SUE\u00d1OS", "POINT_X": -72.067868, "POINT_Y": -36.621233}}, {"type": "Feature", "geometry": {"type": "Point", "coordinates": [-72.10252400000003, -36.62103999999998]}, "properties": {"CUT_REG": "16", "CUT_PROV": "161", "CUT_COM": "16101", "REGION": "\u00d1uble", "PROVINCIA": "Diguill\u00edn", "COMUNA": "Chill\u00e1n", "variable": "Centros de Educaci\u00f3n Parvularia", "Nombres": "ESCUELA B\u00c1SICA ROSITA O\u00b4HIGGINS RIQUELME", "POINT_X": -72.102524, "POINT_Y": -36.62104}}, {"type": "Feature", "geometry": {"type": "Point", "coordinates": [-72.10664400000005, -36.62102899999996]}, "properties": {"CUT_REG": "16", "CUT_PROV": "161", "CUT_COM": "16101", "REGION": "\u00d1uble", "PROVINCIA": "Diguill\u00edn", "COMUNA": "Chill\u00e1n", "variable": "Centros de Educaci\u00f3n Parvularia", "Nombres": "SEBASTIAN SCHOOL", "POINT_X": -72.106644, "POINT_Y": -36.621029}}, {"type": "Feature", "geometry": {"type": "Point", "coordinates": [-72.07714100000001, -36.62099100000001]}, "properties": {"CUT_REG": "16", "CUT_PROV": "161", "CUT_COM": "16101", "REGION": "\u00d1uble", "PROVINCIA": "Diguill\u00edn", "COMUNA": "Chill\u00e1n", "variable": "Centros de Educaci\u00f3n Parvularia", "Nombres": "COLEGIO PARROQUIAL SAN JOSE", "POINT_X": -72.077141, "POINT_Y": -36.620991}}, {"type": "Feature", "geometry": {"type": "Point", "coordinates": [-72.11321999999996, -36.61956000000001]}, "properties": {"CUT_REG": "16", "CUT_PROV": "161", "CUT_COM": "16101", "REGION": "\u00d1uble", "PROVINCIA": "Diguill\u00edn", "COMUNA": "Chill\u00e1n", "variable": "Centros de Educaci\u00f3n Parvularia", "Nombres": "ESCUELA ESP.DIF.CENTRO EDUCATIVO INTEGRAL LOS NARANJOS", "POINT_X": -72.11322, "POINT_Y": -36.61956}}, {"type": "Feature", "geometry": {"type": "Point", "coordinates": [-72.11366271999998, -36.61914443999999]}, "properties": {"CUT_REG": "16", "CUT_PROV": "161", "CUT_COM": "16101", "REGION": "\u00d1uble", "PROVINCIA": "Diguill\u00edn", "COMUNA": "Chill\u00e1n", "variable": "Centros de Educaci\u00f3n Parvularia", "Nombres": "ESCUELA ESPECIAL LAS ACACIAS", "POINT_X": -72.11366272, "POINT_Y": -36.61914444}}, {"type": "Feature", "geometry": {"type": "Point", "coordinates": [-72.07557555, -36.618767894000015]}, "properties": {"CUT_REG": "16", "CUT_PROV": "161", "CUT_COM": "16101", "REGION": "\u00d1uble", "PROVINCIA": "Diguill\u00edn", "COMUNA": "Chill\u00e1n", "variable": "Centros de Educaci\u00f3n Parvularia", "Nombres": "MARIA INES FULLER", "POINT_X": -72.07557555, "POINT_Y": -36.618767894}}, {"type": "Feature", "geometry": {"type": "Point", "coordinates": [-72.07921653899997, -36.61870186699997]}, "properties": {"CUT_REG": "16", "CUT_PROV": "161", "CUT_COM": "16101", "REGION": "\u00d1uble", "PROVINCIA": "Diguill\u00edn", "COMUNA": "Chill\u00e1n", "variable": "Centros de Educaci\u00f3n Parvularia", "Nombres": "ESTRELLITAS DE LUZ", "POINT_X": -72.079216539, "POINT_Y": -36.618701867}}, {"type": "Feature", "geometry": {"type": "Point", "coordinates": [-72.07865900000003, -36.618610000000004]}, "properties": {"CUT_REG": "16", "CUT_PROV": "161", "CUT_COM": "16101", "REGION": "\u00d1uble", "PROVINCIA": "Diguill\u00edn", "COMUNA": "Chill\u00e1n", "variable": "Centros de Educaci\u00f3n Parvularia", "Nombres": "COLEGIO PARTICULAR EVANG\u00c9LICO BETANIA", "POINT_X": -72.078659, "POINT_Y": -36.61861}}, {"type": "Feature", "geometry": {"type": "Point", "coordinates": [-72.07906299999996, -36.61811100000002]}, "properties": {"CUT_REG": "16", "CUT_PROV": "161", "CUT_COM": "16101", "REGION": "\u00d1uble", "PROVINCIA": "Diguill\u00edn", "COMUNA": "Chill\u00e1n", "variable": "Centros de Educaci\u00f3n Parvularia", "Nombres": "LICEO POLIVALENTE MARTA COLVIN ANDRADE", "POINT_X": -72.079063, "POINT_Y": -36.618111}}, {"type": "Feature", "geometry": {"type": "Point", "coordinates": [-72.120079, -36.617661]}, "properties": {"CUT_REG": "16", "CUT_PROV": "161", "CUT_COM": "16101", "REGION": "\u00d1uble", "PROVINCIA": "Diguill\u00edn", "COMUNA": "Chill\u00e1n", "variable": "Centros de Educaci\u00f3n Parvularia", "Nombres": "ESCUELA BASICA EL TEJAR", "POINT_X": -72.120079, "POINT_Y": -36.617661}}, {"type": "Feature", "geometry": {"type": "Point", "coordinates": [-72.12000295300003, -36.61693033800003]}, "properties": {"CUT_REG": "16", "CUT_PROV": "161", "CUT_COM": "16101", "REGION": "\u00d1uble", "PROVINCIA": "Diguill\u00edn", "COMUNA": "Chill\u00e1n", "variable": "Centros de Educaci\u00f3n Parvularia", "Nombres": "TEJITAS", "POINT_X": -72.120002953, "POINT_Y": -36.616930338}}, {"type": "Feature", "geometry": {"type": "Point", "coordinates": [-72.086848, -36.61656799999998]}, "properties": {"CUT_REG": "16", "CUT_PROV": "161", "CUT_COM": "16101", "REGION": "\u00d1uble", "PROVINCIA": "Diguill\u00edn", "COMUNA": "Chill\u00e1n", "variable": "Centros de Educaci\u00f3n Parvularia", "Nombres": "SARITA GAJARDO", "POINT_X": -72.086848, "POINT_Y": -36.616568}}, {"type": "Feature", "geometry": {"type": "Point", "coordinates": [-72.12247500000001, -36.61641700000001]}, "properties": {"CUT_REG": "16", "CUT_PROV": "161", "CUT_COM": "16101", "REGION": "\u00d1uble", "PROVINCIA": "Diguill\u00edn", "COMUNA": "Chill\u00e1n", "variable": "Centros de Educaci\u00f3n Parvularia", "Nombres": "ESCUELA DE PARVULOS Y ESC.ESP.LENG.DIVINO MAESTRO", "POINT_X": -72.122475, "POINT_Y": -36.616417}}, {"type": "Feature", "geometry": {"type": "Point", "coordinates": [-72.11451699999998, -36.616118999999955]}, "properties": {"CUT_REG": "16", "CUT_PROV": "161", "CUT_COM": "16101", "REGION": "\u00d1uble", "PROVINCIA": "Diguill\u00edn", "COMUNA": "Chill\u00e1n", "variable": "Centros de Educaci\u00f3n Parvularia", "Nombres": "ESCUELA BASICA JOSE MARIA CARO RODRIGUEZ", "POINT_X": -72.114517, "POINT_Y": -36.616119}}, {"type": "Feature", "geometry": {"type": "Point", "coordinates": [-72.08311181300004, -36.615394974000004]}, "properties": {"CUT_REG": "16", "CUT_PROV": "161", "CUT_COM": "16101", "REGION": "\u00d1uble", "PROVINCIA": "Diguill\u00edn", "COMUNA": "Chill\u00e1n", "variable": "Centros de Educaci\u00f3n Parvularia", "Nombres": "CASITA DEL SOL", "POINT_X": -72.083111813, "POINT_Y": -36.615394974}}, {"type": "Feature", "geometry": {"type": "Point", "coordinates": [-72.075684, -36.61518099999997]}, "properties": {"CUT_REG": "16", "CUT_PROV": "161", "CUT_COM": "16101", "REGION": "\u00d1uble", "PROVINCIA": "Diguill\u00edn", "COMUNA": "Chill\u00e1n", "variable": "Centros de Educaci\u00f3n Parvularia", "Nombres": "ESCUELA EVANG\u00c9LICA BETH-EL", "POINT_X": -72.075684, "POINT_Y": -36.615181}}, {"type": "Feature", "geometry": {"type": "Point", "coordinates": [-72.13166800000002, -36.614978999999956]}, "properties": {"CUT_REG": "16", "CUT_PROV": "161", "CUT_COM": "16101", "REGION": "\u00d1uble", "PROVINCIA": "Diguill\u00edn", "COMUNA": "Chill\u00e1n", "variable": "Centros de Educaci\u00f3n Parvularia", "Nombres": "ESCUELA BASICA PARTICULAR EL LIBERTADOR", "POINT_X": -72.131668, "POINT_Y": -36.614979}}, {"type": "Feature", "geometry": {"type": "Point", "coordinates": [-72.08421999999999, -36.61449399999997]}, "properties": {"CUT_REG": "16", "CUT_PROV": "161", "CUT_COM": "16101", "REGION": "\u00d1uble", "PROVINCIA": "Diguill\u00edn", "COMUNA": "Chill\u00e1n", "variable": "Centros de Educaci\u00f3n Parvularia", "Nombres": "JARD\u00cdN INFANTIL EBEN-EZER", "POINT_X": -72.08422, "POINT_Y": -36.614494}}, {"type": "Feature", "geometry": {"type": "Point", "coordinates": [-72.12885399999996, -36.61442099999997]}, "properties": {"CUT_REG": "16", "CUT_PROV": "161", "CUT_COM": "16101", "REGION": "\u00d1uble", "PROVINCIA": "Diguill\u00edn", "COMUNA": "Chill\u00e1n", "variable": "Centros de Educaci\u00f3n Parvularia", "Nombres": "MART\u00cdN RUIZ DE GAMBOA", "POINT_X": -72.128854, "POINT_Y": -36.614421}}, {"type": "Feature", "geometry": {"type": "Point", "coordinates": [-72.11665299999996, -36.61397200000004]}, "properties": {"CUT_REG": "16", "CUT_PROV": "161", "CUT_COM": "16101", "REGION": "\u00d1uble", "PROVINCIA": "Diguill\u00edn", "COMUNA": "Chill\u00e1n", "variable": "Centros de Educaci\u00f3n Parvularia", "Nombres": "COLEGIO SAGRADO CORAZ\u00d3N DE JES\u00daS", "POINT_X": -72.116653, "POINT_Y": -36.613972}}, {"type": "Feature", "geometry": {"type": "Point", "coordinates": [-72.12879699999996, -36.61356700000001]}, "properties": {"CUT_REG": "16", "CUT_PROV": "161", "CUT_COM": "16101", "REGION": "\u00d1uble", "PROVINCIA": "Diguill\u00edn", "COMUNA": "Chill\u00e1n", "variable": "Centros de Educaci\u00f3n Parvularia", "Nombres": "COLIBR\u00cd", "POINT_X": -72.128797, "POINT_Y": -36.613567}}, {"type": "Feature", "geometry": {"type": "Point", "coordinates": [-72.07222499999996, -36.61244699999998]}, "properties": {"CUT_REG": "16", "CUT_PROV": "161", "CUT_COM": "16101", "REGION": "\u00d1uble", "PROVINCIA": "Diguill\u00edn", "COMUNA": "Chill\u00e1n", "variable": "Centros de Educaci\u00f3n Parvularia", "Nombres": "PASITOS AL FUTURO", "POINT_X": -72.072225, "POINT_Y": -36.612447}}, {"type": "Feature", "geometry": {"type": "Point", "coordinates": [-72.11127499999995, -36.61224900000003]}, "properties": {"CUT_REG": "16", "CUT_PROV": "161", "CUT_COM": "16101", "REGION": "\u00d1uble", "PROVINCIA": "Diguill\u00edn", "COMUNA": "Chill\u00e1n", "variable": "Centros de Educaci\u00f3n Parvularia", "Nombres": "OHIGGINS 1145", "POINT_X": -72.111275, "POINT_Y": -36.612249}}, {"type": "Feature", "geometry": {"type": "Point", "coordinates": [-72.11914100000003, -36.61175200000003]}, "properties": {"CUT_REG": "16", "CUT_PROV": "161", "CUT_COM": "16101", "REGION": "\u00d1uble", "PROVINCIA": "Diguill\u00edn", "COMUNA": "Chill\u00e1n", "variable": "Centros de Educaci\u00f3n Parvularia", "Nombres": "ESCUELA BASICA LA CASTILLA", "POINT_X": -72.119141, "POINT_Y": -36.611752}}, {"type": "Feature", "geometry": {"type": "Point", "coordinates": [-72.11995441, -36.61155382999998]}, "properties": {"CUT_REG": "16", "CUT_PROV": "161", "CUT_COM": "16101", "REGION": "\u00d1uble", "PROVINCIA": "Diguill\u00edn", "COMUNA": "Chill\u00e1n", "variable": "Centros de Educaci\u00f3n Parvularia", "Nombres": "CASTILLITO ESPERANZA", "POINT_X": -72.11995441, "POINT_Y": -36.61155383}}, {"type": "Feature", "geometry": {"type": "Point", "coordinates": [-72.10567, -36.61126299999998]}, "properties": {"CUT_REG": "16", "CUT_PROV": "161", "CUT_COM": "16101", "REGION": "\u00d1uble", "PROVINCIA": "Diguill\u00edn", "COMUNA": "Chill\u00e1n", "variable": "Centros de Educaci\u00f3n Parvularia", "Nombres": "JARD\u00cdN INFANTIL PINTITAS", "POINT_X": -72.10567, "POINT_Y": -36.611263}}, {"type": "Feature", "geometry": {"type": "Point", "coordinates": [-72.10679400000001, -36.610756000000045]}, "properties": {"CUT_REG": "16", "CUT_PROV": "161", "CUT_COM": "16101", "REGION": "\u00d1uble", "PROVINCIA": "Diguill\u00edn", "COMUNA": "Chill\u00e1n", "variable": "Centros de Educaci\u00f3n Parvularia", "Nombres": "J.S.R. CONFLUENCIA", "POINT_X": -72.106794, "POINT_Y": -36.610756}}, {"type": "Feature", "geometry": {"type": "Point", "coordinates": [-72.10679400000001, -36.610756000000045]}, "properties": {"CUT_REG": "16", "CUT_PROV": "161", "CUT_COM": "16101", "REGION": "\u00d1uble", "PROVINCIA": "Diguill\u00edn", "COMUNA": "Chill\u00e1n", "variable": "Centros de Educaci\u00f3n Parvularia", "Nombres": "J.S.R. LA GREDA", "POINT_X": -72.106794, "POINT_Y": -36.610756}}, {"type": "Feature", "geometry": {"type": "Point", "coordinates": [-72.10679400000001, -36.610756000000045]}, "properties": {"CUT_REG": "16", "CUT_PROV": "161", "CUT_COM": "16101", "REGION": "\u00d1uble", "PROVINCIA": "Diguill\u00edn", "COMUNA": "Chill\u00e1n", "variable": "Centros de Educaci\u00f3n Parvularia", "Nombres": "J.S.R. LAS HORMIGAS", "POINT_X": -72.106794, "POINT_Y": -36.610756}}, {"type": "Feature", "geometry": {"type": "Point", "coordinates": [-72.10679400000001, -36.610756000000045]}, "properties": {"CUT_REG": "16", "CUT_PROV": "161", "CUT_COM": "16101", "REGION": "\u00d1uble", "PROVINCIA": "Diguill\u00edn", "COMUNA": "Chill\u00e1n", "variable": "Centros de Educaci\u00f3n Parvularia", "Nombres": "J.S.R. LAS TRANCAS", "POINT_X": -72.106794, "POINT_Y": -36.610756}}, {"type": "Feature", "geometry": {"type": "Point", "coordinates": [-72.06942100000003, -36.61021600000004]}, "properties": {"CUT_REG": "16", "CUT_PROV": "161", "CUT_COM": "16101", "REGION": "\u00d1uble", "PROVINCIA": "Diguill\u00edn", "COMUNA": "Chill\u00e1n", "variable": "Centros de Educaci\u00f3n Parvularia", "Nombres": "BRISAS DEL VOLCAN", "POINT_X": -72.069421, "POINT_Y": -36.610216}}, {"type": "Feature", "geometry": {"type": "Point", "coordinates": [-72.10671299999997, -36.609915]}, "properties": {"CUT_REG": "16", "CUT_PROV": "161", "CUT_COM": "16101", "REGION": "\u00d1uble", "PROVINCIA": "Diguill\u00edn", "COMUNA": "Chill\u00e1n", "variable": "Centros de Educaci\u00f3n Parvularia", "Nombres": "ESCUELA ESPECIAL DE LENGUAJE EXPRESIONES", "POINT_X": -72.106713, "POINT_Y": -36.609915}}, {"type": "Feature", "geometry": {"type": "Point", "coordinates": [-72.13990800000002, -36.60987899999996]}, "properties": {"CUT_REG": "16", "CUT_PROV": "161", "CUT_COM": "16101", "REGION": "\u00d1uble", "PROVINCIA": "Diguill\u00edn", "COMUNA": "Chill\u00e1n", "variable": "Centros de Educaci\u00f3n Parvularia", "Nombres": "ESCUELA MARIA AMALIA SAAVEDRA MARTINEZ", "POINT_X": -72.139908, "POINT_Y": -36.609879}}, {"type": "Feature", "geometry": {"type": "Point", "coordinates": [-72.08182, -36.60929500000004]}, "properties": {"CUT_REG": "16", "CUT_PROV": "161", "CUT_COM": "16101", "REGION": "\u00d1uble", "PROVINCIA": "Diguill\u00edn", "COMUNA": "Chill\u00e1n", "variable": "Centros de Educaci\u00f3n Parvularia", "Nombres": "ESCUELA ESPECIAL DE LENGUAJE TIEMPO NUEVO", "POINT_X": -72.08182, "POINT_Y": -36.609295}}, {"type": "Feature", "geometry": {"type": "Point", "coordinates": [-72.27411699999999, -36.60913099999997]}, "properties": {"CUT_REG": "16", "CUT_PROV": "161", "CUT_COM": "16101", "REGION": "\u00d1uble", "PROVINCIA": "Diguill\u00edn", "COMUNA": "Chill\u00e1n", "variable": "Centros de Educaci\u00f3n Parvularia", "Nombres": "ESCUELA 27 DE ABRIL", "POINT_X": -72.274117, "POINT_Y": -36.609131}}, {"type": "Feature", "geometry": {"type": "Point", "coordinates": [-72.11060299999995, -36.609009]}, "properties": {"CUT_REG": "16", "CUT_PROV": "161", "CUT_COM": "16101", "REGION": "\u00d1uble", "PROVINCIA": "Diguill\u00edn", "COMUNA": "Chill\u00e1n", "variable": "Centros de Educaci\u00f3n Parvularia", "Nombres": "ESCUELA BASICA JUAN MADRID AZOLA", "POINT_X": -72.110603, "POINT_Y": -36.609009}}, {"type": "Feature", "geometry": {"type": "Point", "coordinates": [-72.14034900000001, -36.609000999999964]}, "properties": {"CUT_REG": "16", "CUT_PROV": "161", "CUT_COM": "16101", "REGION": "\u00d1uble", "PROVINCIA": "Diguill\u00edn", "COMUNA": "Chill\u00e1n", "variable": "Centros de Educaci\u00f3n Parvularia", "Nombres": "EL MONITO", "POINT_X": -72.140349, "POINT_Y": -36.609001}}, {"type": "Feature", "geometry": {"type": "Point", "coordinates": [-72.14597300000003, -36.60886000000002]}, "properties": {"CUT_REG": "16", "CUT_PROV": "161", "CUT_COM": "16101", "REGION": "\u00d1uble", "PROVINCIA": "Diguill\u00edn", "COMUNA": "Chill\u00e1n", "variable": "Centros de Educaci\u00f3n Parvularia", "Nombres": "ANEXO COME WEALTH SCHOOL", "POINT_X": -72.145973, "POINT_Y": -36.60886}}, {"type": "Feature", "geometry": {"type": "Point", "coordinates": [-72.134666, -36.608598000000015]}, "properties": {"CUT_REG": "16", "CUT_PROV": "161", "CUT_COM": "16101", "REGION": "\u00d1uble", "PROVINCIA": "Diguill\u00edn", "COMUNA": "Chill\u00e1n", "variable": "Centros de Educaci\u00f3n Parvularia", "Nombres": "ESCUELA ESPECIAL DE LENGUAJE ANIDAPALABRAS", "POINT_X": -72.134666, "POINT_Y": -36.608598}}, {"type": "Feature", "geometry": {"type": "Point", "coordinates": [-72.08828550000001, -36.60854499999998]}, "properties": {"CUT_REG": "16", "CUT_PROV": "161", "CUT_COM": "16101", "REGION": "\u00d1uble", "PROVINCIA": "Diguill\u00edn", "COMUNA": "Chill\u00e1n", "variable": "Centros de Educaci\u00f3n Parvularia", "Nombres": "COLEGIO SAN FERNANDO", "POINT_X": -72.0882855, "POINT_Y": -36.608545}}, {"type": "Feature", "geometry": {"type": "Point", "coordinates": [-72.09827000000004, -36.60834500000004]}, "properties": {"CUT_REG": "16", "CUT_PROV": "161", "CUT_COM": "16101", "REGION": "\u00d1uble", "PROVINCIA": "Diguill\u00edn", "COMUNA": "Chill\u00e1n", "variable": "Centros de Educaci\u00f3n Parvularia", "Nombres": "ESCUELA ESPECIAL DIFERENCIAL CENTRO DE RECURSOS PERSEVERA", "POINT_X": -72.09827, "POINT_Y": -36.608345}}, {"type": "Feature", "geometry": {"type": "Point", "coordinates": [-72.10772700000003, -36.60805099999996]}, "properties": {"CUT_REG": "16", "CUT_PROV": "161", "CUT_COM": "16101", "REGION": "\u00d1uble", "PROVINCIA": "Diguill\u00edn", "COMUNA": "Chill\u00e1n", "variable": "Centros de Educaci\u00f3n Parvularia", "Nombres": "LICEO NARCISO TONDREAU", "POINT_X": -72.107727, "POINT_Y": -36.608051}}, {"type": "Feature", "geometry": {"type": "Point", "coordinates": [-72.097267, -36.60792899999999]}, "properties": {"CUT_REG": "16", "CUT_PROV": "161", "CUT_COM": "16101", "REGION": "\u00d1uble", "PROVINCIA": "Diguill\u00edn", "COMUNA": "Chill\u00e1n", "variable": "Centros de Educaci\u00f3n Parvularia", "Nombres": "COLEGIO DE LA PURISIMA CONCEPCION", "POINT_X": -72.097267, "POINT_Y": -36.607929}}, {"type": "Feature", "geometry": {"type": "Point", "coordinates": [-72.09699199999999, -36.607445000000006]}, "properties": {"CUT_REG": "16", "CUT_PROV": "161", "CUT_COM": "16101", "REGION": "\u00d1uble", "PROVINCIA": "Diguill\u00edn", "COMUNA": "Chill\u00e1n", "variable": "Centros de Educaci\u00f3n Parvularia", "Nombres": "COLEGIO CREACI\u00d3N CHILL\u00c1N", "POINT_X": -72.096992, "POINT_Y": -36.607445}}, {"type": "Feature", "geometry": {"type": "Point", "coordinates": [-72.13363299999997, -36.60707700000002]}, "properties": {"CUT_REG": "16", "CUT_PROV": "161", "CUT_COM": "16101", "REGION": "\u00d1uble", "PROVINCIA": "Diguill\u00edn", "COMUNA": "Chill\u00e1n", "variable": "Centros de Educaci\u00f3n Parvularia", "Nombres": "ZA\u00d1ARTU", "POINT_X": -72.133633, "POINT_Y": -36.607077}}, {"type": "Feature", "geometry": {"type": "Point", "coordinates": [-72.10102100000002, -36.60681899999999]}, "properties": {"CUT_REG": "16", "CUT_PROV": "161", "CUT_COM": "16101", "REGION": "\u00d1uble", "PROVINCIA": "Diguill\u00edn", "COMUNA": "Chill\u00e1n", "variable": "Centros de Educaci\u00f3n Parvularia", "Nombres": "COLEGIO POLIVALENTE PADRE ALBERTO HURTADO", "POINT_X": -72.101021, "POINT_Y": -36.606819}}, {"type": "Feature", "geometry": {"type": "Point", "coordinates": [-72.09889, -36.60646400000002]}, "properties": {"CUT_REG": "16", "CUT_PROV": "161", "CUT_COM": "16101", "REGION": "\u00d1uble", "PROVINCIA": "Diguill\u00edn", "COMUNA": "Chill\u00e1n", "variable": "Centros de Educaci\u00f3n Parvularia", "Nombres": "ESCUELA ESPECIAL DE LENGUAJE TORTUGUITA", "POINT_X": -72.09889, "POINT_Y": -36.606464}}, {"type": "Feature", "geometry": {"type": "Point", "coordinates": [-72.07736399999999, -36.606437]}, "properties": {"CUT_REG": "16", "CUT_PROV": "161", "CUT_COM": "16101", "REGION": "\u00d1uble", "PROVINCIA": "Diguill\u00edn", "COMUNA": "Chill\u00e1n", "variable": "Centros de Educaci\u00f3n Parvularia", "Nombres": "ROLAND KOCH", "POINT_X": -72.077364, "POINT_Y": -36.606437}}, {"type": "Feature", "geometry": {"type": "Point", "coordinates": [-72.07554600000003, -36.60617799999998]}, "properties": {"CUT_REG": "16", "CUT_PROV": "161", "CUT_COM": "16101", "REGION": "\u00d1uble", "PROVINCIA": "Diguill\u00edn", "COMUNA": "Chill\u00e1n", "variable": "Centros de Educaci\u00f3n Parvularia", "Nombres": "ESC. BASICA ARTURO MUTIZABAL SOTOMAYOR", "POINT_X": -72.075546, "POINT_Y": -36.606178}}, {"type": "Feature", "geometry": {"type": "Point", "coordinates": [-72.09760999999996, -36.60554100000003]}, "properties": {"CUT_REG": "16", "CUT_PROV": "161", "CUT_COM": "16101", "REGION": "\u00d1uble", "PROVINCIA": "Diguill\u00edn", "COMUNA": "Chill\u00e1n", "variable": "Centros de Educaci\u00f3n Parvularia", "Nombres": "COLEGIO CHILLAN", "POINT_X": -72.09761, "POINT_Y": -36.605541}}, {"type": "Feature", "geometry": {"type": "Point", "coordinates": [-72.11011999999997, -36.605297]}, "properties": {"CUT_REG": "16", "CUT_PROV": "161", "CUT_COM": "16101", "REGION": "\u00d1uble", "PROVINCIA": "Diguill\u00edn", "COMUNA": "Chill\u00e1n", "variable": "Centros de Educaci\u00f3n Parvularia", "Nombres": "JARDIN INFANTIL ADVENTISTA DE CHILLAN", "POINT_X": -72.11012, "POINT_Y": -36.605297}}, {"type": "Feature", "geometry": {"type": "Point", "coordinates": [-72.10530000000003, -36.60499199999999]}, "properties": {"CUT_REG": "16", "CUT_PROV": "161", "CUT_COM": "16101", "REGION": "\u00d1uble", "PROVINCIA": "Diguill\u00edn", "COMUNA": "Chill\u00e1n", "variable": "Centros de Educaci\u00f3n Parvularia", "Nombres": "ESC ESP DIF CENTRO ATENCION TEMPRANA Y BASICO ESPECIAL PASO A PASITO", "POINT_X": -72.1053, "POINT_Y": -36.604992}}, {"type": "Feature", "geometry": {"type": "Point", "coordinates": [-72.10581999999998, -36.60437999999998]}, "properties": {"CUT_REG": "16", "CUT_PROV": "161", "CUT_COM": "16101", "REGION": "\u00d1uble", "PROVINCIA": "Diguill\u00edn", "COMUNA": "Chill\u00e1n", "variable": "Centros de Educaci\u00f3n Parvularia", "Nombres": "JARDIN INFANTIL SEMILLA", "POINT_X": -72.10582, "POINT_Y": -36.60438}}, {"type": "Feature", "geometry": {"type": "Point", "coordinates": [-72.10452299999996, -36.604308999999965]}, "properties": {"CUT_REG": "16", "CUT_PROV": "161", "CUT_COM": "16101", "REGION": "\u00d1uble", "PROVINCIA": "Diguill\u00edn", "COMUNA": "Chill\u00e1n", "variable": "Centros de Educaci\u00f3n Parvularia", "Nombres": "INSTITUTO SANTA MARIA", "POINT_X": -72.104523, "POINT_Y": -36.604309}}, {"type": "Feature", "geometry": {"type": "Point", "coordinates": [-72.116791, -36.604012]}, "properties": {"CUT_REG": "16", "CUT_PROV": "161", "CUT_COM": "16101", "REGION": "\u00d1uble", "PROVINCIA": "Diguill\u00edn", "COMUNA": "Chill\u00e1n", "variable": "Centros de Educaci\u00f3n Parvularia", "Nombres": "LICEO REP\u00daBLICA DE ITALIA", "POINT_X": -72.116791, "POINT_Y": -36.604012}}, {"type": "Feature", "geometry": {"type": "Point", "coordinates": [-72.09664199999997, -36.60396999999998]}, "properties": {"CUT_REG": "16", "CUT_PROV": "161", "CUT_COM": "16101", "REGION": "\u00d1uble", "PROVINCIA": "Diguill\u00edn", "COMUNA": "Chill\u00e1n", "variable": "Centros de Educaci\u00f3n Parvularia", "Nombres": "COLEGIO SAN BUENAVENTURA", "POINT_X": -72.096642, "POINT_Y": -36.60397}}, {"type": "Feature", "geometry": {"type": "Point", "coordinates": [-72.09339100000003, -36.60335899999997]}, "properties": {"CUT_REG": "16", "CUT_PROV": "161", "CUT_COM": "16101", "REGION": "\u00d1uble", "PROVINCIA": "Diguill\u00edn", "COMUNA": "Chill\u00e1n", "variable": "Centros de Educaci\u00f3n Parvularia", "Nombres": "ESCUELA BASICA REYES DE ESPANA", "POINT_X": -72.093391, "POINT_Y": -36.603359}}, {"type": "Feature", "geometry": {"type": "Point", "coordinates": [-72.08825699999997, -36.60327099999997]}, "properties": {"CUT_REG": "16", "CUT_PROV": "161", "CUT_COM": "16101", "REGION": "\u00d1uble", "PROVINCIA": "Diguill\u00edn", "COMUNA": "Chill\u00e1n", "variable": "Centros de Educaci\u00f3n Parvularia", "Nombres": "ESCUELA ARTURO MERINO BENITEZ", "POINT_X": -72.088257, "POINT_Y": -36.603271}}, {"type": "Feature", "geometry": {"type": "Point", "coordinates": [-72.10313900000003, -36.602655999999975]}, "properties": {"CUT_REG": "16", "CUT_PROV": "161", "CUT_COM": "16101", "REGION": "\u00d1uble", "PROVINCIA": "Diguill\u00edn", "COMUNA": "Chill\u00e1n", "variable": "Centros de Educaci\u00f3n Parvularia", "Nombres": "ESCUELA ESPECIAL DIFERENCIAL CTRO.EDUC.DE DESARROLLO Y ESTIM ESP. PEQUE\u00d1O NAZARENO", "POINT_X": -72.103139, "POINT_Y": -36.602656}}, {"type": "Feature", "geometry": {"type": "Point", "coordinates": [-72.21903249999997, -36.60002699999997]}, "properties": {"CUT_REG": "16", "CUT_PROV": "161", "CUT_COM": "16101", "REGION": "\u00d1uble", "PROVINCIA": "Diguill\u00edn", "COMUNA": "Chill\u00e1n", "variable": "Centros de Educaci\u00f3n Parvularia", "Nombres": "COLEGIO AYELEN", "POINT_X": -72.2190325, "POINT_Y": -36.600027}}, {"type": "Feature", "geometry": {"type": "Point", "coordinates": [-72.08960700000002, -36.59873999999997]}, "properties": {"CUT_REG": "16", "CUT_PROV": "161", "CUT_COM": "16101", "REGION": "\u00d1uble", "PROVINCIA": "Diguill\u00edn", "COMUNA": "Chill\u00e1n", "variable": "Centros de Educaci\u00f3n Parvularia", "Nombres": "ESCUELA BASICA QUILAMAPU", "POINT_X": -72.089607, "POINT_Y": -36.59874}}, {"type": "Feature", "geometry": {"type": "Point", "coordinates": [-72.08339406100004, -36.59705277799999]}, "properties": {"CUT_REG": "16", "CUT_PROV": "161", "CUT_COM": "16101", "REGION": "\u00d1uble", "PROVINCIA": "Diguill\u00edn", "COMUNA": "Chill\u00e1n", "variable": "Centros de Educaci\u00f3n Parvularia", "Nombres": "PEQUE\u00d1ITOS UDEC", "POINT_X": -72.083394061, "POINT_Y": -36.597052778}}, {"type": "Feature", "geometry": {"type": "Point", "coordinates": [-72.09348150999996, -36.595091520999986]}, "properties": {"CUT_REG": "16", "CUT_PROV": "161", "CUT_COM": "16101", "REGION": "\u00d1uble", "PROVINCIA": "Diguill\u00edn", "COMUNA": "Chill\u00e1n", "variable": "Centros de Educaci\u00f3n Parvularia", "Nombres": "PEQUE\u00d1A LUNITA", "POINT_X": -72.09348151, "POINT_Y": -36.595091521}}, {"type": "Feature", "geometry": {"type": "Point", "coordinates": [-72.08734100000002, -36.59411999999998]}, "properties": {"CUT_REG": "16", "CUT_PROV": "161", "CUT_COM": "16101", "REGION": "\u00d1uble", "PROVINCIA": "Diguill\u00edn", "COMUNA": "Chill\u00e1n", "variable": "Centros de Educaci\u00f3n Parvularia", "Nombres": "COLEGIO CONCEPCION DE CHILLAN", "POINT_X": -72.087341, "POINT_Y": -36.59412}}, {"type": "Feature", "geometry": {"type": "Point", "coordinates": [-72.07048, -36.593070999999966]}, "properties": {"CUT_REG": "16", "CUT_PROV": "161", "CUT_COM": "16101", "REGION": "\u00d1uble", "PROVINCIA": "Diguill\u00edn", "COMUNA": "Chill\u00e1n", "variable": "Centros de Educaci\u00f3n Parvularia", "Nombres": "COLEGIO ALTURAS DE CHILL\u00c1N", "POINT_X": -72.07048, "POINT_Y": -36.593071}}, {"type": "Feature", "geometry": {"type": "Point", "coordinates": [-72.07062000000003, -36.59249000000003]}, "properties": {"CUT_REG": "16", "CUT_PROV": "161", "CUT_COM": "16101", "REGION": "\u00d1uble", "PROVINCIA": "Diguill\u00edn", "COMUNA": "Chill\u00e1n", "variable": "Centros de Educaci\u00f3n Parvularia", "Nombres": "COLEGIO THE WESSEX SCHOOL CHILL\u00c1N", "POINT_X": -72.07062, "POINT_Y": -36.59249}}, {"type": "Feature", "geometry": {"type": "Point", "coordinates": [-72.09494000000002, -36.58872999999997]}, "properties": {"CUT_REG": "16", "CUT_PROV": "161", "CUT_COM": "16101", "REGION": "\u00d1uble", "PROVINCIA": "Diguill\u00edn", "COMUNA": "Chill\u00e1n", "variable": "Centros de Educaci\u00f3n Parvularia", "Nombres": "COLEGIO SEMINARIO PADRE ALBERTO HURTADO", "POINT_X": -72.09494, "POINT_Y": -36.58873}}, {"type": "Feature", "geometry": {"type": "Point", "coordinates": [-72.09644489000001, -36.560733594999995]}, "properties": {"CUT_REG": "16", "CUT_PROV": "161", "CUT_COM": "16101", "REGION": "\u00d1uble", "PROVINCIA": "Diguill\u00edn", "COMUNA": "Chill\u00e1n", "variable": "Centros de Educaci\u00f3n Parvularia", "Nombres": "PEQUE\u00d1O EDEN", "POINT_X": -72.09644489, "POINT_Y": -36.560733595}}, {"type": "Feature", "geometry": {"type": "Point", "coordinates": [-72.04304868599996, -36.555344156000025]}, "properties": {"CUT_REG": "16", "CUT_PROV": "161", "CUT_COM": "16101", "REGION": "\u00d1uble", "PROVINCIA": "Diguill\u00edn", "COMUNA": "Chill\u00e1n", "variable": "Centros de Educaci\u00f3n Parvularia", "Nombres": "RINCONCITO ENCANTADO", "POINT_X": -72.043048686, "POINT_Y": -36.555344156}}, {"type": "Feature", "geometry": {"type": "Point", "coordinates": [-71.977417, -36.553928]}, "properties": {"CUT_REG": "16", "CUT_PROV": "161", "CUT_COM": "16101", "REGION": "\u00d1uble", "PROVINCIA": "Diguill\u00edn", "COMUNA": "Chill\u00e1n", "variable": "Centros de Educaci\u00f3n Parvularia", "Nombres": "ESCUELA BASICA CAPILLA COX", "POINT_X": -71.977417, "POINT_Y": -36.553928}}, {"type": "Feature", "geometry": {"type": "Point", "coordinates": [-72.04153949999997, -36.55278649999997]}, "properties": {"CUT_REG": "16", "CUT_PROV": "161", "CUT_COM": "16101", "REGION": "\u00d1uble", "PROVINCIA": "Diguill\u00edn", "COMUNA": "Chill\u00e1n", "variable": "Centros de Educaci\u00f3n Parvularia", "Nombres": "LOS CORAZONCITOS", "POINT_X": -72.0415395, "POINT_Y": -36.5527865}}, {"type": "Feature", "geometry": {"type": "Point", "coordinates": [-72.02752825000002, -36.54642700000002]}, "properties": {"CUT_REG": "16", "CUT_PROV": "161", "CUT_COM": "16101", "REGION": "\u00d1uble", "PROVINCIA": "Diguill\u00edn", "COMUNA": "Chill\u00e1n", "variable": "Centros de Educaci\u00f3n Parvularia", "Nombres": "PASITO SEGURO", "POINT_X": -72.02752825, "POINT_Y": -36.546427}}, {"type": "Feature", "geometry": {"type": "Point", "coordinates": [-71.88202700000001, -36.54357099999997]}, "properties": {"CUT_REG": "16", "CUT_PROV": "161", "CUT_COM": "16101", "REGION": "\u00d1uble", "PROVINCIA": "Diguill\u00edn", "COMUNA": "Chill\u00e1n", "variable": "Centros de Educaci\u00f3n Parvularia", "Nombres": "ESCUELA ANTONIO MACHADO", "POINT_X": -71.882027, "POINT_Y": -36.543571}}, {"type": "Feature", "geometry": {"type": "Point", "coordinates": [-72.02746311999996, -36.541273350000026]}, "properties": {"CUT_REG": "16", "CUT_PROV": "161", "CUT_COM": "16101", "REGION": "\u00d1uble", "PROVINCIA": "Diguill\u00edn", "COMUNA": "Chill\u00e1n", "variable": "Centros de Educaci\u00f3n Parvularia", "Nombres": "LICEO GABRIELA MISTRAL", "POINT_X": -72.02746312, "POINT_Y": -36.54127335}}]}