{"type": "FeatureCollection", "features": [{"type": "Feature", "geometry": {"type": "Point", "coordinates": [-69.97446846899996, -28.134579461999984]}, "properties": {"CUT_REG": "03", "CUT_PROV": "031", "CUT_COM": "03103", "REGION": "Atacama", "PROVINCIA": "Copiap\u00f3", "COMUNA": "Tierra Amarilla", "variable": "Centros de Educaci\u00f3n Parvularia", "Nombres": "OJITOS DE AGUA", "POINT_X": -69.974468469, "POINT_Y": -28.134579462}}, {"type": "Feature", "geometry": {"type": "Point", "coordinates": [-69.97604400000003, -28.133609999999976]}, "properties": {"CUT_REG": "03", "CUT_PROV": "031", "CUT_COM": "03103", "REGION": "Atacama", "PROVINCIA": "Copiap\u00f3", "COMUNA": "Tierra Amarilla", "variable": "Centros de Educaci\u00f3n Parvularia", "Nombres": "COLEGIO FELIX SUSAETA", "POINT_X": -69.976044, "POINT_Y": -28.13361}}, {"type": "Feature", "geometry": {"type": "Point", "coordinates": [-70.529812, -27.980885000000008]}, "properties": {"CUT_REG": "03", "CUT_PROV": "031", "CUT_COM": "03101", "REGION": "Atacama", "PROVINCIA": "Copiap\u00f3", "COMUNA": "Copiap\u00f3", "variable": "Centros de Educaci\u00f3n Parvularia", "Nombres": "ESCUELA LUIS CRUZ MART\u00cdNEZ", "POINT_X": -70.529812, "POINT_Y": -27.980885}}, {"type": "Feature", "geometry": {"type": "Point", "coordinates": [-70.00198399999994, -27.970689999999976]}, "properties": {"CUT_REG": "03", "CUT_PROV": "031", "CUT_COM": "03103", "REGION": "Atacama", "PROVINCIA": "Copiap\u00f3", "COMUNA": "Tierra Amarilla", "variable": "Centros de Educaci\u00f3n Parvularia", "Nombres": "ESCUELA AMOLANAS", "POINT_X": -70.001984, "POINT_Y": -27.97069}}, {"type": "Feature", "geometry": {"type": "Point", "coordinates": [-70.10308588900003, -27.83451307299999]}, "properties": {"CUT_REG": "03", "CUT_PROV": "031", "CUT_COM": "03103", "REGION": "Atacama", "PROVINCIA": "Copiap\u00f3", "COMUNA": "Tierra Amarilla", "variable": "Centros de Educaci\u00f3n Parvularia", "Nombres": "ZORZALITO", "POINT_X": -70.103085889, "POINT_Y": -27.834513073}}, {"type": "Feature", "geometry": {"type": "Point", "coordinates": [-70.90384549999999, -27.81580149999997]}, "properties": {"CUT_REG": "03", "CUT_PROV": "031", "CUT_COM": "03102", "REGION": "Atacama", "PROVINCIA": "Copiap\u00f3", "COMUNA": "Caldera", "variable": "Centros de Educaci\u00f3n Parvularia", "Nombres": "PAYASITO", "POINT_X": -70.9038455, "POINT_Y": -27.8158015}}, {"type": "Feature", "geometry": {"type": "Point", "coordinates": [-70.70879351499997, -27.667346795000014]}, "properties": {"CUT_REG": "03", "CUT_PROV": "031", "CUT_COM": "03101", "REGION": "Atacama", "PROVINCIA": "Copiap\u00f3", "COMUNA": "Copiap\u00f3", "variable": "Centros de Educaci\u00f3n Parvularia", "Nombres": "JARDIN INFANTIL MIS PRIMEROS PASOS", "POINT_X": -70.708793515, "POINT_Y": -27.667346795}}, {"type": "Feature", "geometry": {"type": "Point", "coordinates": [-70.89633444999998, -27.571368625499993]}, "properties": {"CUT_REG": "03", "CUT_PROV": "031", "CUT_COM": "03102", "REGION": "Atacama", "PROVINCIA": "Copiap\u00f3", "COMUNA": "Caldera", "variable": "Centros de Educaci\u00f3n Parvularia", "Nombres": "ARDILLITA", "POINT_X": -70.89633445, "POINT_Y": -27.5713686255}}, {"type": "Feature", "geometry": {"type": "Point", "coordinates": [-70.27057170099997, -27.54026102400003]}, "properties": {"CUT_REG": "03", "CUT_PROV": "031", "CUT_COM": "03103", "REGION": "Atacama", "PROVINCIA": "Copiap\u00f3", "COMUNA": "Tierra Amarilla", "variable": "Centros de Educaci\u00f3n Parvularia", "Nombres": "NANTOQUITOS DEL VALLE", "POINT_X": -70.270571701, "POINT_Y": -27.540261024}}, {"type": "Feature", "geometry": {"type": "Point", "coordinates": [-70.266144, -27.49749]}, "properties": {"CUT_REG": "03", "CUT_PROV": "031", "CUT_COM": "03103", "REGION": "Atacama", "PROVINCIA": "Copiap\u00f3", "COMUNA": "Tierra Amarilla", "variable": "Centros de Educaci\u00f3n Parvularia", "Nombres": "ESCUELA LUIS URIBE ORREGO", "POINT_X": -70.266144, "POINT_Y": -27.49749}}, {"type": "Feature", "geometry": {"type": "Point", "coordinates": [-70.26773202300002, -27.489598401000038]}, "properties": {"CUT_REG": "03", "CUT_PROV": "031", "CUT_COM": "03103", "REGION": "Atacama", "PROVINCIA": "Copiap\u00f3", "COMUNA": "Tierra Amarilla", "variable": "Centros de Educaci\u00f3n Parvularia", "Nombres": "PATRONCITO DEL VALLE", "POINT_X": -70.267732023, "POINT_Y": -27.489598401}}, {"type": "Feature", "geometry": {"type": "Point", "coordinates": [-70.26516565499995, -27.488342610999958]}, "properties": {"CUT_REG": "03", "CUT_PROV": "031", "CUT_COM": "03103", "REGION": "Atacama", "PROVINCIA": "Copiap\u00f3", "COMUNA": "Tierra Amarilla", "variable": "Centros de Educaci\u00f3n Parvularia", "Nombres": "LA CASITA DE GABRIELA", "POINT_X": -70.265165655, "POINT_Y": -27.488342611}}, {"type": "Feature", "geometry": {"type": "Point", "coordinates": [-70.26744799999997, -27.483000000000047]}, "properties": {"CUT_REG": "03", "CUT_PROV": "031", "CUT_COM": "03103", "REGION": "Atacama", "PROVINCIA": "Copiap\u00f3", "COMUNA": "Tierra Amarilla", "variable": "Centros de Educaci\u00f3n Parvularia", "Nombres": "ESCUELA VICTOR MANUEL S\u00c1NCHEZ CABA\u00d1AS", "POINT_X": -70.267448, "POINT_Y": -27.483}}, {"type": "Feature", "geometry": {"type": "Point", "coordinates": [-70.26762, -27.480398999999956]}, "properties": {"CUT_REG": "03", "CUT_PROV": "031", "CUT_COM": "03103", "REGION": "Atacama", "PROVINCIA": "Copiap\u00f3", "COMUNA": "Tierra Amarilla", "variable": "Centros de Educaci\u00f3n Parvularia", "Nombres": "ESCUELA ESP.TRAST.COMUNIC. AMANCAY", "POINT_X": -70.26762, "POINT_Y": -27.480399}}, {"type": "Feature", "geometry": {"type": "Point", "coordinates": [-70.26449299999999, -27.480032999999956]}, "properties": {"CUT_REG": "03", "CUT_PROV": "031", "CUT_COM": "03103", "REGION": "Atacama", "PROVINCIA": "Copiap\u00f3", "COMUNA": "Tierra Amarilla", "variable": "Centros de Educaci\u00f3n Parvularia", "Nombres": "AUQUI", "POINT_X": -70.264493, "POINT_Y": -27.480033}}, {"type": "Feature", "geometry": {"type": "Point", "coordinates": [-70.25319699999999, -27.477699000000023]}, "properties": {"CUT_REG": "03", "CUT_PROV": "031", "CUT_COM": "03103", "REGION": "Atacama", "PROVINCIA": "Copiap\u00f3", "COMUNA": "Tierra Amarilla", "variable": "Centros de Educaci\u00f3n Parvularia", "Nombres": "ESCUELA DE CONCENTRACI\u00d3N", "POINT_X": -70.253197, "POINT_Y": -27.477699}}, {"type": "Feature", "geometry": {"type": "Point", "coordinates": [-70.26506, -27.469179000000018]}, "properties": {"CUT_REG": "03", "CUT_PROV": "031", "CUT_COM": "03103", "REGION": "Atacama", "PROVINCIA": "Copiap\u00f3", "COMUNA": "Tierra Amarilla", "variable": "Centros de Educaci\u00f3n Parvularia", "Nombres": "ESCUELA B\u00c1SICA MARTA EMILIANA AGUILAR ZER\u00d3N", "POINT_X": -70.26506, "POINT_Y": -27.469179}}, {"type": "Feature", "geometry": {"type": "Point", "coordinates": [-70.28124, -27.414632999999967]}, "properties": {"CUT_REG": "03", "CUT_PROV": "031", "CUT_COM": "03101", "REGION": "Atacama", "PROVINCIA": "Copiap\u00f3", "COMUNA": "Copiap\u00f3", "variable": "Centros de Educaci\u00f3n Parvularia", "Nombres": "ESCUELA ESPECIAL DE LENGUAJE MI ESTACI\u00d3N", "POINT_X": -70.28124, "POINT_Y": -27.414633}}, {"type": "Feature", "geometry": {"type": "Point", "coordinates": [-70.27332299999998, -27.412719999999958]}, "properties": {"CUT_REG": "03", "CUT_PROV": "031", "CUT_COM": "03101", "REGION": "Atacama", "PROVINCIA": "Copiap\u00f3", "COMUNA": "Copiap\u00f3", "variable": "Centros de Educaci\u00f3n Parvularia", "Nombres": "ESCUELA HERN\u00c1N M\u00c1RQUEZ HUERTA", "POINT_X": -70.273323, "POINT_Y": -27.41272}}, {"type": "Feature", "geometry": {"type": "Point", "coordinates": [-70.28069300000004, -27.41205000000003]}, "properties": {"CUT_REG": "03", "CUT_PROV": "031", "CUT_COM": "03101", "REGION": "Atacama", "PROVINCIA": "Copiap\u00f3", "COMUNA": "Copiap\u00f3", "variable": "Centros de Educaci\u00f3n Parvularia", "Nombres": "COLEGIO ESTACI\u00d3N", "POINT_X": -70.280693, "POINT_Y": -27.41205}}, {"type": "Feature", "geometry": {"type": "Point", "coordinates": [-70.27223557599997, -27.410915341000027]}, "properties": {"CUT_REG": "03", "CUT_PROV": "031", "CUT_COM": "03101", "REGION": "Atacama", "PROVINCIA": "Copiap\u00f3", "COMUNA": "Copiap\u00f3", "variable": "Centros de Educaci\u00f3n Parvularia", "Nombres": "INTI-MARKA", "POINT_X": -70.272235576, "POINT_Y": -27.410915341}}, {"type": "Feature", "geometry": {"type": "Point", "coordinates": [-70.28433799999999, -27.408447999999986]}, "properties": {"CUT_REG": "03", "CUT_PROV": "031", "CUT_COM": "03101", "REGION": "Atacama", "PROVINCIA": "Copiap\u00f3", "COMUNA": "Copiap\u00f3", "variable": "Centros de Educaci\u00f3n Parvularia", "Nombres": "AGUAS BLANCAS", "POINT_X": -70.284338, "POINT_Y": -27.408448}}, {"type": "Feature", "geometry": {"type": "Point", "coordinates": [-70.27692785899998, -27.408283882999996]}, "properties": {"CUT_REG": "03", "CUT_PROV": "031", "CUT_COM": "03101", "REGION": "Atacama", "PROVINCIA": "Copiap\u00f3", "COMUNA": "Copiap\u00f3", "variable": "Centros de Educaci\u00f3n Parvularia", "Nombres": "OLLANTAY -  COPIAPO", "POINT_X": -70.276927859, "POINT_Y": -27.408283883}}, {"type": "Feature", "geometry": {"type": "Point", "coordinates": [-70.28991500000004, -27.408281000000024]}, "properties": {"CUT_REG": "03", "CUT_PROV": "031", "CUT_COM": "03101", "REGION": "Atacama", "PROVINCIA": "Copiap\u00f3", "COMUNA": "Copiap\u00f3", "variable": "Centros de Educaci\u00f3n Parvularia", "Nombres": "PUNTA NEGRA", "POINT_X": -70.289915, "POINT_Y": -27.408281}}, {"type": "Feature", "geometry": {"type": "Point", "coordinates": [-70.269547, -27.406820000000018]}, "properties": {"CUT_REG": "03", "CUT_PROV": "031", "CUT_COM": "03101", "REGION": "Atacama", "PROVINCIA": "Copiap\u00f3", "COMUNA": "Copiap\u00f3", "variable": "Centros de Educaci\u00f3n Parvularia", "Nombres": "LICEO FERNANDO ARIZT\u00cdA RUIZ", "POINT_X": -70.269547, "POINT_Y": -27.40682}}, {"type": "Feature", "geometry": {"type": "Point", "coordinates": [-70.28231111109999, -27.406175000000033]}, "properties": {"CUT_REG": "03", "CUT_PROV": "031", "CUT_COM": "03101", "REGION": "Atacama", "PROVINCIA": "Copiap\u00f3", "COMUNA": "Copiap\u00f3", "variable": "Centros de Educaci\u00f3n Parvularia", "Nombres": "SEMILLITAS DEL CHA\u00d1AR", "POINT_X": -70.2823111111, "POINT_Y": -27.406175}}, {"type": "Feature", "geometry": {"type": "Point", "coordinates": [-70.30001999999999, -27.394758999999958]}, "properties": {"CUT_REG": "03", "CUT_PROV": "031", "CUT_COM": "03101", "REGION": "Atacama", "PROVINCIA": "Copiap\u00f3", "COMUNA": "Copiap\u00f3", "variable": "Centros de Educaci\u00f3n Parvularia", "Nombres": "COLEGIO PARTICULAR SAN LORENZO", "POINT_X": -70.30002, "POINT_Y": -27.394759}}, {"type": "Feature", "geometry": {"type": "Point", "coordinates": [-70.29434999999998, -27.392908333299978]}, "properties": {"CUT_REG": "03", "CUT_PROV": "031", "CUT_COM": "03101", "REGION": "Atacama", "PROVINCIA": "Copiap\u00f3", "COMUNA": "Copiap\u00f3", "variable": "Centros de Educaci\u00f3n Parvularia", "Nombres": "PUEBLITO DE SAN FERNANDO", "POINT_X": -70.29435, "POINT_Y": -27.3929083333}}, {"type": "Feature", "geometry": {"type": "Point", "coordinates": [-70.30118999999999, -27.391759999999977]}, "properties": {"CUT_REG": "03", "CUT_PROV": "031", "CUT_COM": "03101", "REGION": "Atacama", "PROVINCIA": "Copiap\u00f3", "COMUNA": "Copiap\u00f3", "variable": "Centros de Educaci\u00f3n Parvularia", "Nombres": "JARDIN INFANTIL MANANTIAL", "POINT_X": -70.30119, "POINT_Y": -27.39176}}, {"type": "Feature", "geometry": {"type": "Point", "coordinates": [-70.29095999999998, -27.38956499999999]}, "properties": {"CUT_REG": "03", "CUT_PROV": "031", "CUT_COM": "03101", "REGION": "Atacama", "PROVINCIA": "Copiap\u00f3", "COMUNA": "Copiap\u00f3", "variable": "Centros de Educaci\u00f3n Parvularia", "Nombres": "CANTARITOS DE GREDA", "POINT_X": -70.29096, "POINT_Y": -27.389565}}, {"type": "Feature", "geometry": {"type": "Point", "coordinates": [-70.29605999999998, -27.387893000000027]}, "properties": {"CUT_REG": "03", "CUT_PROV": "031", "CUT_COM": "03101", "REGION": "Atacama", "PROVINCIA": "Copiap\u00f3", "COMUNA": "Copiap\u00f3", "variable": "Centros de Educaci\u00f3n Parvularia", "Nombres": "COLEGIO ALMENAR DE COPIAPO", "POINT_X": -70.29606, "POINT_Y": -27.387893}}, {"type": "Feature", "geometry": {"type": "Point", "coordinates": [-70.30504531000003, -27.387090449999974]}, "properties": {"CUT_REG": "03", "CUT_PROV": "031", "CUT_COM": "03101", "REGION": "Atacama", "PROVINCIA": "Copiap\u00f3", "COMUNA": "Copiap\u00f3", "variable": "Centros de Educaci\u00f3n Parvularia", "Nombres": "COLEGIO SAN FRANCISCO DE LA SELVA", "POINT_X": -70.30504531, "POINT_Y": -27.38709045}}, {"type": "Feature", "geometry": {"type": "Point", "coordinates": [-70.327989, -27.387042999999956]}, "properties": {"CUT_REG": "03", "CUT_PROV": "031", "CUT_COM": "03101", "REGION": "Atacama", "PROVINCIA": "Copiap\u00f3", "COMUNA": "Copiap\u00f3", "variable": "Centros de Educaci\u00f3n Parvularia", "Nombres": "VI\u00d1ITAS DEL PALOMAR", "POINT_X": -70.327989, "POINT_Y": -27.387043}}, {"type": "Feature", "geometry": {"type": "Point", "coordinates": [-70.31109599999999, -27.386788999999986]}, "properties": {"CUT_REG": "03", "CUT_PROV": "031", "CUT_COM": "03101", "REGION": "Atacama", "PROVINCIA": "Copiap\u00f3", "COMUNA": "Copiap\u00f3", "variable": "Centros de Educaci\u00f3n Parvularia", "Nombres": "COLEGIO SAN AGUST\u00cdN DE ATACAMA", "POINT_X": -70.311096, "POINT_Y": -27.386789}}, {"type": "Feature", "geometry": {"type": "Point", "coordinates": [-70.30836599999998, -27.386361000000015]}, "properties": {"CUT_REG": "03", "CUT_PROV": "031", "CUT_COM": "03101", "REGION": "Atacama", "PROVINCIA": "Copiap\u00f3", "COMUNA": "Copiap\u00f3", "variable": "Centros de Educaci\u00f3n Parvularia", "Nombres": "COLEGIO CAPIANNI", "POINT_X": -70.308366, "POINT_Y": -27.386361}}, {"type": "Feature", "geometry": {"type": "Point", "coordinates": [-70.307793, -27.38389999999996]}, "properties": {"CUT_REG": "03", "CUT_PROV": "031", "CUT_COM": "03101", "REGION": "Atacama", "PROVINCIA": "Copiap\u00f3", "COMUNA": "Copiap\u00f3", "variable": "Centros de Educaci\u00f3n Parvularia", "Nombres": "ESCUELA ISABEL PE\u00d1A MORALES", "POINT_X": -70.307793, "POINT_Y": -27.3839}}, {"type": "Feature", "geometry": {"type": "Point", "coordinates": [-70.33060300000002, -27.383569000000016]}, "properties": {"CUT_REG": "03", "CUT_PROV": "031", "CUT_COM": "03101", "REGION": "Atacama", "PROVINCIA": "Copiap\u00f3", "COMUNA": "Copiap\u00f3", "variable": "Centros de Educaci\u00f3n Parvularia", "Nombres": "GOTITAS DEL DESIERTO", "POINT_X": -70.330603, "POINT_Y": -27.383569}}, {"type": "Feature", "geometry": {"type": "Point", "coordinates": [-70.336129, -27.38317100000004]}, "properties": {"CUT_REG": "03", "CUT_PROV": "031", "CUT_COM": "03101", "REGION": "Atacama", "PROVINCIA": "Copiap\u00f3", "COMUNA": "Copiap\u00f3", "variable": "Centros de Educaci\u00f3n Parvularia", "Nombres": "EL RINCON DE LOS SUENOS", "POINT_X": -70.336129, "POINT_Y": -27.383171}}, {"type": "Feature", "geometry": {"type": "Point", "coordinates": [-70.333031, -27.382317999999984]}, "properties": {"CUT_REG": "03", "CUT_PROV": "031", "CUT_COM": "03101", "REGION": "Atacama", "PROVINCIA": "Copiap\u00f3", "COMUNA": "Copiap\u00f3", "variable": "Centros de Educaci\u00f3n Parvularia", "Nombres": "ALICANTO", "POINT_X": -70.333031, "POINT_Y": -27.382318}}, {"type": "Feature", "geometry": {"type": "Point", "coordinates": [-70.32141999999996, -27.381849999999986]}, "properties": {"CUT_REG": "03", "CUT_PROV": "031", "CUT_COM": "03101", "REGION": "Atacama", "PROVINCIA": "Copiap\u00f3", "COMUNA": "Copiap\u00f3", "variable": "Centros de Educaci\u00f3n Parvularia", "Nombres": "JARDIN INFANTIL PARTICULAR PEQUITAS", "POINT_X": -70.32142, "POINT_Y": -27.38185}}, {"type": "Feature", "geometry": {"type": "Point", "coordinates": [-70.30371899999997, -27.38088000000002]}, "properties": {"CUT_REG": "03", "CUT_PROV": "031", "CUT_COM": "03101", "REGION": "Atacama", "PROVINCIA": "Copiap\u00f3", "COMUNA": "Copiap\u00f3", "variable": "Centros de Educaci\u00f3n Parvularia", "Nombres": "ESCUELA MANUEL RODR\u00cdGUEZ", "POINT_X": -70.303719, "POINT_Y": -27.38088}}, {"type": "Feature", "geometry": {"type": "Point", "coordinates": [-70.30315732199996, -27.380711075999983]}, "properties": {"CUT_REG": "03", "CUT_PROV": "031", "CUT_COM": "03101", "REGION": "Atacama", "PROVINCIA": "Copiap\u00f3", "COMUNA": "Copiap\u00f3", "variable": "Centros de Educaci\u00f3n Parvularia", "Nombres": "S.CUNA MAYOR MANUEL RODRIGUEZ", "POINT_X": -70.303157322, "POINT_Y": -27.380711076}}, {"type": "Feature", "geometry": {"type": "Point", "coordinates": [-70.33072699999997, -27.380619000000003]}, "properties": {"CUT_REG": "03", "CUT_PROV": "031", "CUT_COM": "03101", "REGION": "Atacama", "PROVINCIA": "Copiap\u00f3", "COMUNA": "Copiap\u00f3", "variable": "Centros de Educaci\u00f3n Parvularia", "Nombres": "ESCUELA CARLOS MAR\u00cdA SAYAGO", "POINT_X": -70.330727, "POINT_Y": -27.380619}}, {"type": "Feature", "geometry": {"type": "Point", "coordinates": [-70.32267799999995, -27.380210999999996]}, "properties": {"CUT_REG": "03", "CUT_PROV": "031", "CUT_COM": "03101", "REGION": "Atacama", "PROVINCIA": "Copiap\u00f3", "COMUNA": "Copiap\u00f3", "variable": "Centros de Educaci\u00f3n Parvularia", "Nombres": "ESCUELA BRUNO ZAVALA FREDES", "POINT_X": -70.322678, "POINT_Y": -27.380211}}, {"type": "Feature", "geometry": {"type": "Point", "coordinates": [-70.34257526900002, -27.379786925999994]}, "properties": {"CUT_REG": "03", "CUT_PROV": "031", "CUT_COM": "03101", "REGION": "Atacama", "PROVINCIA": "Copiap\u00f3", "COMUNA": "Copiap\u00f3", "variable": "Centros de Educaci\u00f3n Parvularia", "Nombres": "LOS CERRITOS", "POINT_X": -70.342575269, "POINT_Y": -27.379786926}}, {"type": "Feature", "geometry": {"type": "Point", "coordinates": [-70.31498000000002, -27.379635000000036]}, "properties": {"CUT_REG": "03", "CUT_PROV": "031", "CUT_COM": "03101", "REGION": "Atacama", "PROVINCIA": "Copiap\u00f3", "COMUNA": "Copiap\u00f3", "variable": "Centros de Educaci\u00f3n Parvularia", "Nombres": "ESCUELA TRASTORNO LENGUAJE RAYITO DE SOL", "POINT_X": -70.31498, "POINT_Y": -27.379635}}, {"type": "Feature", "geometry": {"type": "Point", "coordinates": [-70.31499500000001, -27.37952999999996]}, "properties": {"CUT_REG": "03", "CUT_PROV": "031", "CUT_COM": "03101", "REGION": "Atacama", "PROVINCIA": "Copiap\u00f3", "COMUNA": "Copiap\u00f3", "variable": "Centros de Educaci\u00f3n Parvularia", "Nombres": "ESCUELA ESPECIAL DE LENGUAJE RAYITO DE SOL II", "POINT_X": -70.314995, "POINT_Y": -27.37953}}, {"type": "Feature", "geometry": {"type": "Point", "coordinates": [-70.31799999999996, -27.375172999999975]}, "properties": {"CUT_REG": "03", "CUT_PROV": "031", "CUT_COM": "03101", "REGION": "Atacama", "PROVINCIA": "Copiap\u00f3", "COMUNA": "Copiap\u00f3", "variable": "Centros de Educaci\u00f3n Parvularia", "Nombres": "JARDIN INFANTIL MI BEBE", "POINT_X": -70.318, "POINT_Y": -27.375173}}, {"type": "Feature", "geometry": {"type": "Point", "coordinates": [-70.33776899999998, -27.374940999999964]}, "properties": {"CUT_REG": "03", "CUT_PROV": "031", "CUT_COM": "03101", "REGION": "Atacama", "PROVINCIA": "Copiap\u00f3", "COMUNA": "Copiap\u00f3", "variable": "Centros de Educaci\u00f3n Parvularia", "Nombres": "ESCUELA JES\u00daS FERN\u00c1NDEZ HIDALGO", "POINT_X": -70.337769, "POINT_Y": -27.374941}}, {"type": "Feature", "geometry": {"type": "Point", "coordinates": [-70.30647300000004, -27.37371099999998]}, "properties": {"CUT_REG": "03", "CUT_PROV": "031", "CUT_COM": "03101", "REGION": "Atacama", "PROVINCIA": "Copiap\u00f3", "COMUNA": "Copiap\u00f3", "variable": "Centros de Educaci\u00f3n Parvularia", "Nombres": "ESCUELA LAURA ROBLES SILVA", "POINT_X": -70.306473, "POINT_Y": -27.373711}}, {"type": "Feature", "geometry": {"type": "Point", "coordinates": [-70.32195000000003, -27.37284999999997]}, "properties": {"CUT_REG": "03", "CUT_PROV": "031", "CUT_COM": "03101", "REGION": "Atacama", "PROVINCIA": "Copiap\u00f3", "COMUNA": "Copiap\u00f3", "variable": "Centros de Educaci\u00f3n Parvularia", "Nombres": "AULA HOSPITALARIA COPIAP\u00d3", "POINT_X": -70.32195, "POINT_Y": -27.37285}}, {"type": "Feature", "geometry": {"type": "Point", "coordinates": [-70.30717300000003, -27.372417000000027]}, "properties": {"CUT_REG": "03", "CUT_PROV": "031", "CUT_COM": "03101", "REGION": "Atacama", "PROVINCIA": "Copiap\u00f3", "COMUNA": "Copiap\u00f3", "variable": "Centros de Educaci\u00f3n Parvularia", "Nombres": "COPAYAPITO", "POINT_X": -70.307173, "POINT_Y": -27.372417}}, {"type": "Feature", "geometry": {"type": "Point", "coordinates": [-70.32041168000002, -27.37200356000001]}, "properties": {"CUT_REG": "03", "CUT_PROV": "031", "CUT_COM": "03101", "REGION": "Atacama", "PROVINCIA": "Copiap\u00f3", "COMUNA": "Copiap\u00f3", "variable": "Centros de Educaci\u00f3n Parvularia", "Nombres": "ESCUELA EDUCACI\u00d3N DIFERENCIAL MAR\u00cdA LUZ LANZA PIZARRO", "POINT_X": -70.32041168, "POINT_Y": -27.37200356}}, {"type": "Feature", "geometry": {"type": "Point", "coordinates": [-70.31361199999998, -27.37191099999999]}, "properties": {"CUT_REG": "03", "CUT_PROV": "031", "CUT_COM": "03101", "REGION": "Atacama", "PROVINCIA": "Copiap\u00f3", "COMUNA": "Copiap\u00f3", "variable": "Centros de Educaci\u00f3n Parvularia", "Nombres": "ESCUELA ESPECIAL DE TRASTORNOS DE LA COMUNICACI\u00d3N APIR", "POINT_X": -70.313612, "POINT_Y": -27.371911}}, {"type": "Feature", "geometry": {"type": "Point", "coordinates": [-70.32817800000001, -27.37130900000001]}, "properties": {"CUT_REG": "03", "CUT_PROV": "031", "CUT_COM": "03101", "REGION": "Atacama", "PROVINCIA": "Copiap\u00f3", "COMUNA": "Copiap\u00f3", "variable": "Centros de Educaci\u00f3n Parvularia", "Nombres": "COLEGIO BUEN PASTOR", "POINT_X": -70.328178, "POINT_Y": -27.371309}}, {"type": "Feature", "geometry": {"type": "Point", "coordinates": [-70.31359100000003, -27.369819999999997]}, "properties": {"CUT_REG": "03", "CUT_PROV": "031", "CUT_COM": "03101", "REGION": "Atacama", "PROVINCIA": "Copiap\u00f3", "COMUNA": "Copiap\u00f3", "variable": "Centros de Educaci\u00f3n Parvularia", "Nombres": "ESCUELA LOS ESTANDARTES", "POINT_X": -70.313591, "POINT_Y": -27.36982}}, {"type": "Feature", "geometry": {"type": "Point", "coordinates": [-70.32533299999999, -27.367969999999964]}, "properties": {"CUT_REG": "03", "CUT_PROV": "031", "CUT_COM": "03101", "REGION": "Atacama", "PROVINCIA": "Copiap\u00f3", "COMUNA": "Copiap\u00f3", "variable": "Centros de Educaci\u00f3n Parvularia", "Nombres": "COLEGIO FLORA NORMILLA", "POINT_X": -70.325333, "POINT_Y": -27.36797}}, {"type": "Feature", "geometry": {"type": "Point", "coordinates": [-70.31508600000001, -27.367359000000036]}, "properties": {"CUT_REG": "03", "CUT_PROV": "031", "CUT_COM": "03101", "REGION": "Atacama", "PROVINCIA": "Copiap\u00f3", "COMUNA": "Copiap\u00f3", "variable": "Centros de Educaci\u00f3n Parvularia", "Nombres": "ESCUELA SAN VICENTE DE PAUL", "POINT_X": -70.315086, "POINT_Y": -27.367359}}, {"type": "Feature", "geometry": {"type": "Point", "coordinates": [-70.331423, -27.367156000000023]}, "properties": {"CUT_REG": "03", "CUT_PROV": "031", "CUT_COM": "03101", "REGION": "Atacama", "PROVINCIA": "Copiap\u00f3", "COMUNA": "Copiap\u00f3", "variable": "Centros de Educaci\u00f3n Parvularia", "Nombres": "CORONA DEL INCA", "POINT_X": -70.331423, "POINT_Y": -27.367156}}, {"type": "Feature", "geometry": {"type": "Point", "coordinates": [-70.33680000000001, -27.366801999999957]}, "properties": {"CUT_REG": "03", "CUT_PROV": "031", "CUT_COM": "03101", "REGION": "Atacama", "PROVINCIA": "Copiap\u00f3", "COMUNA": "Copiap\u00f3", "variable": "Centros de Educaci\u00f3n Parvularia", "Nombres": "LICEO CAT\u00d3LICO ATACAMA", "POINT_X": -70.3368, "POINT_Y": -27.366802}}, {"type": "Feature", "geometry": {"type": "Point", "coordinates": [-70.337898, -27.36679100000002]}, "properties": {"CUT_REG": "03", "CUT_PROV": "031", "CUT_COM": "03101", "REGION": "Atacama", "PROVINCIA": "Copiap\u00f3", "COMUNA": "Copiap\u00f3", "variable": "Centros de Educaci\u00f3n Parvularia", "Nombres": "LICEO SAGRADO CORAZ\u00d3N", "POINT_X": -70.337898, "POINT_Y": -27.366791}}, {"type": "Feature", "geometry": {"type": "Point", "coordinates": [-70.30786185500001, -27.366332585000016]}, "properties": {"CUT_REG": "03", "CUT_PROV": "031", "CUT_COM": "03101", "REGION": "Atacama", "PROVINCIA": "Copiap\u00f3", "COMUNA": "Copiap\u00f3", "variable": "Centros de Educaci\u00f3n Parvularia", "Nombres": "SEMILLITAS DE PLATA", "POINT_X": -70.307861855, "POINT_Y": -27.366332585}}, {"type": "Feature", "geometry": {"type": "Point", "coordinates": [-70.335757437, -27.364775437999967]}, "properties": {"CUT_REG": "03", "CUT_PROV": "031", "CUT_COM": "03101", "REGION": "Atacama", "PROVINCIA": "Copiap\u00f3", "COMUNA": "Copiap\u00f3", "variable": "Centros de Educaci\u00f3n Parvularia", "Nombres": "J.S.R. COLONIAS EXTRENJERAS", "POINT_X": -70.335757437, "POINT_Y": -27.364775438}}, {"type": "Feature", "geometry": {"type": "Point", "coordinates": [-70.335757437, -27.364775437999967]}, "properties": {"CUT_REG": "03", "CUT_PROV": "031", "CUT_COM": "03101", "REGION": "Atacama", "PROVINCIA": "Copiap\u00f3", "COMUNA": "Copiap\u00f3", "variable": "Centros de Educaci\u00f3n Parvularia", "Nombres": "J.S.R. EL PALOMAR", "POINT_X": -70.335757437, "POINT_Y": -27.364775438}}, {"type": "Feature", "geometry": {"type": "Point", "coordinates": [-70.335757437, -27.364775437999967]}, "properties": {"CUT_REG": "03", "CUT_PROV": "031", "CUT_COM": "03101", "REGION": "Atacama", "PROVINCIA": "Copiap\u00f3", "COMUNA": "Copiap\u00f3", "variable": "Centros de Educaci\u00f3n Parvularia", "Nombres": "J.S.R. EL PRETIL", "POINT_X": -70.335757437, "POINT_Y": -27.364775438}}, {"type": "Feature", "geometry": {"type": "Point", "coordinates": [-70.335757437, -27.364775437999967]}, "properties": {"CUT_REG": "03", "CUT_PROV": "031", "CUT_COM": "03101", "REGION": "Atacama", "PROVINCIA": "Copiap\u00f3", "COMUNA": "Copiap\u00f3", "variable": "Centros de Educaci\u00f3n Parvularia", "Nombres": "J.S.R. VOLCAN DO\u00d1A INES", "POINT_X": -70.335757437, "POINT_Y": -27.364775438}}, {"type": "Feature", "geometry": {"type": "Point", "coordinates": [-70.33480799999995, -27.363868000000025]}, "properties": {"CUT_REG": "03", "CUT_PROV": "031", "CUT_COM": "03101", "REGION": "Atacama", "PROVINCIA": "Copiap\u00f3", "COMUNA": "Copiap\u00f3", "variable": "Centros de Educaci\u00f3n Parvularia", "Nombres": "APRENDIENDO JUNTOS - RADIAL", "POINT_X": -70.334808, "POINT_Y": -27.363868}}, {"type": "Feature", "geometry": {"type": "Point", "coordinates": [-70.31275071899995, -27.363570301999992]}, "properties": {"CUT_REG": "03", "CUT_PROV": "031", "CUT_COM": "03101", "REGION": "Atacama", "PROVINCIA": "Copiap\u00f3", "COMUNA": "Copiap\u00f3", "variable": "Centros de Educaci\u00f3n Parvularia", "Nombres": "GOTITAS", "POINT_X": -70.312750719, "POINT_Y": -27.363570302}}, {"type": "Feature", "geometry": {"type": "Point", "coordinates": [-70.318581, -27.363219999999963]}, "properties": {"CUT_REG": "03", "CUT_PROV": "031", "CUT_COM": "03101", "REGION": "Atacama", "PROVINCIA": "Copiap\u00f3", "COMUNA": "Copiap\u00f3", "variable": "Centros de Educaci\u00f3n Parvularia", "Nombres": "ESCUELA JOS\u00c9 MANSO DE VELASCO", "POINT_X": -70.318581, "POINT_Y": -27.36322}}, {"type": "Feature", "geometry": {"type": "Point", "coordinates": [-70.329453, -27.362458999999973]}, "properties": {"CUT_REG": "03", "CUT_PROV": "031", "CUT_COM": "03101", "REGION": "Atacama", "PROVINCIA": "Copiap\u00f3", "COMUNA": "Copiap\u00f3", "variable": "Centros de Educaci\u00f3n Parvularia", "Nombres": "ESCUELA BERNARDO O HIGGINS", "POINT_X": -70.329453, "POINT_Y": -27.362459}}, {"type": "Feature", "geometry": {"type": "Point", "coordinates": [-70.32742499999998, -27.362088999999997]}, "properties": {"CUT_REG": "03", "CUT_PROV": "031", "CUT_COM": "03101", "REGION": "Atacama", "PROVINCIA": "Copiap\u00f3", "COMUNA": "Copiap\u00f3", "variable": "Centros de Educaci\u00f3n Parvularia", "Nombres": "A\u00d1A\u00d1UCAS", "POINT_X": -70.327425, "POINT_Y": -27.362089}}, {"type": "Feature", "geometry": {"type": "Point", "coordinates": [-70.33335100000002, -27.36150899999997]}, "properties": {"CUT_REG": "03", "CUT_PROV": "031", "CUT_COM": "03101", "REGION": "Atacama", "PROVINCIA": "Copiap\u00f3", "COMUNA": "Copiap\u00f3", "variable": "Centros de Educaci\u00f3n Parvularia", "Nombres": "LICEO POLIT\u00c9CNICO BEL\u00c9N", "POINT_X": -70.333351, "POINT_Y": -27.361509}}, {"type": "Feature", "geometry": {"type": "Point", "coordinates": [-70.32494400000004, -27.361480999999962]}, "properties": {"CUT_REG": "03", "CUT_PROV": "031", "CUT_COM": "03101", "REGION": "Atacama", "PROVINCIA": "Copiap\u00f3", "COMUNA": "Copiap\u00f3", "variable": "Centros de Educaci\u00f3n Parvularia", "Nombres": "ESCUELA PEDRO LE\u00d3N GALLO", "POINT_X": -70.324944, "POINT_Y": -27.361481}}, {"type": "Feature", "geometry": {"type": "Point", "coordinates": [-70.35016, -27.360326999999963]}, "properties": {"CUT_REG": "03", "CUT_PROV": "031", "CUT_COM": "03101", "REGION": "Atacama", "PROVINCIA": "Copiap\u00f3", "COMUNA": "Copiap\u00f3", "variable": "Centros de Educaci\u00f3n Parvularia", "Nombres": "UNIVERSIDAD DE ATACAMA", "POINT_X": -70.35016, "POINT_Y": -27.360327}}, {"type": "Feature", "geometry": {"type": "Point", "coordinates": [-70.32652500000003, -27.35988100000001]}, "properties": {"CUT_REG": "03", "CUT_PROV": "031", "CUT_COM": "03101", "REGION": "Atacama", "PROVINCIA": "Copiap\u00f3", "COMUNA": "Copiap\u00f3", "variable": "Centros de Educaci\u00f3n Parvularia", "Nombres": "LOS CHANARES", "POINT_X": -70.326525, "POINT_Y": -27.359881}}, {"type": "Feature", "geometry": {"type": "Point", "coordinates": [-70.31465627699997, -27.359369977]}, "properties": {"CUT_REG": "03", "CUT_PROV": "031", "CUT_COM": "03101", "REGION": "Atacama", "PROVINCIA": "Copiap\u00f3", "COMUNA": "Copiap\u00f3", "variable": "Centros de Educaci\u00f3n Parvularia", "Nombres": "LA CASITA DE ANITA", "POINT_X": -70.314656277, "POINT_Y": -27.359369977}}, {"type": "Feature", "geometry": {"type": "Point", "coordinates": [-70.31018400000004, -27.359112999999965]}, "properties": {"CUT_REG": "03", "CUT_PROV": "031", "CUT_COM": "03101", "REGION": "Atacama", "PROVINCIA": "Copiap\u00f3", "COMUNA": "Copiap\u00f3", "variable": "Centros de Educaci\u00f3n Parvularia", "Nombres": "COLONIAS EXTRANJERAS", "POINT_X": -70.310184, "POINT_Y": -27.359113}}, {"type": "Feature", "geometry": {"type": "Point", "coordinates": [-70.34868899999998, -27.358656999999987]}, "properties": {"CUT_REG": "03", "CUT_PROV": "031", "CUT_COM": "03101", "REGION": "Atacama", "PROVINCIA": "Copiap\u00f3", "COMUNA": "Copiap\u00f3", "variable": "Centros de Educaci\u00f3n Parvularia", "Nombres": "ESCUELA DIFERENCIAL PUKAR\u00c1", "POINT_X": -70.348689, "POINT_Y": -27.358657}}, {"type": "Feature", "geometry": {"type": "Point", "coordinates": [-70.310966, -27.357571000000014]}, "properties": {"CUT_REG": "03", "CUT_PROV": "031", "CUT_COM": "03101", "REGION": "Atacama", "PROVINCIA": "Copiap\u00f3", "COMUNA": "Copiap\u00f3", "variable": "Centros de Educaci\u00f3n Parvularia", "Nombres": "ESCUELA EL CHA\u00d1AR", "POINT_X": -70.310966, "POINT_Y": -27.357571}}, {"type": "Feature", "geometry": {"type": "Point", "coordinates": [-70.347443, -27.35736999999999]}, "properties": {"CUT_REG": "03", "CUT_PROV": "031", "CUT_COM": "03101", "REGION": "Atacama", "PROVINCIA": "Copiap\u00f3", "COMUNA": "Copiap\u00f3", "variable": "Centros de Educaci\u00f3n Parvularia", "Nombres": "ESCUELA ABRAHAM SEP\u00daLVEDA PIZARRO", "POINT_X": -70.347443, "POINT_Y": -27.35737}}, {"type": "Feature", "geometry": {"type": "Point", "coordinates": [-70.32212800000002, -27.356850000000044]}, "properties": {"CUT_REG": "03", "CUT_PROV": "031", "CUT_COM": "03101", "REGION": "Atacama", "PROVINCIA": "Copiap\u00f3", "COMUNA": "Copiap\u00f3", "variable": "Centros de Educaci\u00f3n Parvularia", "Nombres": "ESCUELA VICENTE SEP\u00daLVEDA ROJO", "POINT_X": -70.322128, "POINT_Y": -27.35685}}, {"type": "Feature", "geometry": {"type": "Point", "coordinates": [-70.34770000000003, -27.356639999999985]}, "properties": {"CUT_REG": "03", "CUT_PROV": "031", "CUT_COM": "03101", "REGION": "Atacama", "PROVINCIA": "Copiap\u00f3", "COMUNA": "Copiap\u00f3", "variable": "Centros de Educaci\u00f3n Parvularia", "Nombres": "ECO ESCUELA QUPA YAPU DE TRASTORNOS ESPEC\u00cdFICOS DEL LENGUAJE", "POINT_X": -70.3477, "POINT_Y": -27.35664}}, {"type": "Feature", "geometry": {"type": "Point", "coordinates": [-70.31324999999997, -27.356462999999998]}, "properties": {"CUT_REG": "03", "CUT_PROV": "031", "CUT_COM": "03101", "REGION": "Atacama", "PROVINCIA": "Copiap\u00f3", "COMUNA": "Copiap\u00f3", "variable": "Centros de Educaci\u00f3n Parvularia", "Nombres": "ATACAMITA", "POINT_X": -70.31325, "POINT_Y": -27.356463}}, {"type": "Feature", "geometry": {"type": "Point", "coordinates": [-70.33103179999998, -27.355731959999993]}, "properties": {"CUT_REG": "03", "CUT_PROV": "031", "CUT_COM": "03101", "REGION": "Atacama", "PROVINCIA": "Copiap\u00f3", "COMUNA": "Copiap\u00f3", "variable": "Centros de Educaci\u00f3n Parvularia", "Nombres": "ESCUELA LAS BRISAS", "POINT_X": -70.3310318, "POINT_Y": -27.35573196}}, {"type": "Feature", "geometry": {"type": "Point", "coordinates": [-70.34807, -27.355293000000003]}, "properties": {"CUT_REG": "03", "CUT_PROV": "031", "CUT_COM": "03101", "REGION": "Atacama", "PROVINCIA": "Copiap\u00f3", "COMUNA": "Copiap\u00f3", "variable": "Centros de Educaci\u00f3n Parvularia", "Nombres": "ESCUELA DE TRASTORNO DEL LENGUAJE STELLA MARIS COPIAP\u00d3", "POINT_X": -70.34807, "POINT_Y": -27.355293}}, {"type": "Feature", "geometry": {"type": "Point", "coordinates": [-70.31466, -27.355276000000018]}, "properties": {"CUT_REG": "03", "CUT_PROV": "031", "CUT_COM": "03101", "REGION": "Atacama", "PROVINCIA": "Copiap\u00f3", "COMUNA": "Copiap\u00f3", "variable": "Centros de Educaci\u00f3n Parvularia", "Nombres": "ESCUELA ESPECIAL DE LENGUAJE DE COLORES", "POINT_X": -70.31466, "POINT_Y": -27.355276}}, {"type": "Feature", "geometry": {"type": "Point", "coordinates": [-70.55760805549997, -27.35372905549996]}, "properties": {"CUT_REG": "03", "CUT_PROV": "031", "CUT_COM": "03101", "REGION": "Atacama", "PROVINCIA": "Copiap\u00f3", "COMUNA": "Copiap\u00f3", "variable": "Centros de Educaci\u00f3n Parvularia", "Nombres": "EL TAMBITO", "POINT_X": -70.5576080555, "POINT_Y": -27.3537290555}}, {"type": "Feature", "geometry": {"type": "Point", "coordinates": [-70.53858899999996, -27.324381000000017]}, "properties": {"CUT_REG": "03", "CUT_PROV": "031", "CUT_COM": "03101", "REGION": "Atacama", "PROVINCIA": "Copiap\u00f3", "COMUNA": "Copiap\u00f3", "variable": "Centros de Educaci\u00f3n Parvularia", "Nombres": "ESCUELA SAN PEDRO", "POINT_X": -70.538589, "POINT_Y": -27.324381}}, {"type": "Feature", "geometry": {"type": "Point", "coordinates": [-70.53603549699997, -27.322900472]}, "properties": {"CUT_REG": "03", "CUT_PROV": "031", "CUT_COM": "03101", "REGION": "Atacama", "PROVINCIA": "Copiap\u00f3", "COMUNA": "Copiap\u00f3", "variable": "Centros de Educaci\u00f3n Parvularia", "Nombres": "LICKANANTAY", "POINT_X": -70.536035497, "POINT_Y": -27.322900472}}, {"type": "Feature", "geometry": {"type": "Point", "coordinates": [-70.8680075, -27.208879500000002]}, "properties": {"CUT_REG": "03", "CUT_PROV": "031", "CUT_COM": "03102", "REGION": "Atacama", "PROVINCIA": "Copiap\u00f3", "COMUNA": "Caldera", "variable": "Centros de Educaci\u00f3n Parvularia", "Nombres": "COLEGIO ESPANA", "POINT_X": -70.8680075, "POINT_Y": -27.2088795}}, {"type": "Feature", "geometry": {"type": "Point", "coordinates": [-70.81086599999998, -27.077969000000024]}, "properties": {"CUT_REG": "03", "CUT_PROV": "031", "CUT_COM": "03102", "REGION": "Atacama", "PROVINCIA": "Copiap\u00f3", "COMUNA": "Caldera", "variable": "Centros de Educaci\u00f3n Parvularia", "Nombres": "PECEZUELOS", "POINT_X": -70.810866, "POINT_Y": -27.077969}}, {"type": "Feature", "geometry": {"type": "Point", "coordinates": [-70.81046300000003, -27.075911000000005]}, "properties": {"CUT_REG": "03", "CUT_PROV": "031", "CUT_COM": "03102", "REGION": "Atacama", "PROVINCIA": "Copiap\u00f3", "COMUNA": "Caldera", "variable": "Centros de Educaci\u00f3n Parvularia", "Nombres": "ESCUELA DE DESARROLLO ART\u00cdSTICO CALDERA", "POINT_X": -70.810463, "POINT_Y": -27.075911}}, {"type": "Feature", "geometry": {"type": "Point", "coordinates": [-70.808909484, -27.073777790999983]}, "properties": {"CUT_REG": "03", "CUT_PROV": "031", "CUT_COM": "03102", "REGION": "Atacama", "PROVINCIA": "Copiap\u00f3", "COMUNA": "Caldera", "variable": "Centros de Educaci\u00f3n Parvularia", "Nombres": "DESIERTO FLORIDO", "POINT_X": -70.808909484, "POINT_Y": -27.073777791}}, {"type": "Feature", "geometry": {"type": "Point", "coordinates": [-70.81548499999997, -27.072394999999972]}, "properties": {"CUT_REG": "03", "CUT_PROV": "031", "CUT_COM": "03102", "REGION": "Atacama", "PROVINCIA": "Copiap\u00f3", "COMUNA": "Caldera", "variable": "Centros de Educaci\u00f3n Parvularia", "Nombres": "ARENITAS DE ATACAMA", "POINT_X": -70.815485, "POINT_Y": -27.072395}}, {"type": "Feature", "geometry": {"type": "Point", "coordinates": [-70.81378899999996, -27.07191099999998]}, "properties": {"CUT_REG": "03", "CUT_PROV": "031", "CUT_COM": "03102", "REGION": "Atacama", "PROVINCIA": "Copiap\u00f3", "COMUNA": "Caldera", "variable": "Centros de Educaci\u00f3n Parvularia", "Nombres": "ESCUELA BYRON GIGOUX JAMES", "POINT_X": -70.813789, "POINT_Y": -27.071911}}, {"type": "Feature", "geometry": {"type": "Point", "coordinates": [-70.810699, -27.069499999999977]}, "properties": {"CUT_REG": "03", "CUT_PROV": "031", "CUT_COM": "03102", "REGION": "Atacama", "PROVINCIA": "Copiap\u00f3", "COMUNA": "Caldera", "variable": "Centros de Educaci\u00f3n Parvularia", "Nombres": "COLEGIO PARROQUIAL PADRE NEGRO", "POINT_X": -70.810699, "POINT_Y": -27.0695}}, {"type": "Feature", "geometry": {"type": "Point", "coordinates": [-70.82185399999997, -27.068630000000027]}, "properties": {"CUT_REG": "03", "CUT_PROV": "031", "CUT_COM": "03102", "REGION": "Atacama", "PROVINCIA": "Copiap\u00f3", "COMUNA": "Caldera", "variable": "Centros de Educaci\u00f3n Parvularia", "Nombres": "ESCUELA MANUEL ORELLA ECHANEZ", "POINT_X": -70.821854, "POINT_Y": -27.06863}}, {"type": "Feature", "geometry": {"type": "Point", "coordinates": [-70.819424, -27.067813000000015]}, "properties": {"CUT_REG": "03", "CUT_PROV": "031", "CUT_COM": "03102", "REGION": "Atacama", "PROVINCIA": "Copiap\u00f3", "COMUNA": "Caldera", "variable": "Centros de Educaci\u00f3n Parvularia", "Nombres": "PALOMITA BLANCA", "POINT_X": -70.819424, "POINT_Y": -27.067813}}, {"type": "Feature", "geometry": {"type": "Point", "coordinates": [-70.82136500000001, -27.066389999999963]}, "properties": {"CUT_REG": "03", "CUT_PROV": "031", "CUT_COM": "03102", "REGION": "Atacama", "PROVINCIA": "Copiap\u00f3", "COMUNA": "Caldera", "variable": "Centros de Educaci\u00f3n Parvularia", "Nombres": "ESCUELA ESPECIAL DE TRASTORNO DEL LENGUAJE FLOR DEL DESIERTO", "POINT_X": -70.821365, "POINT_Y": -27.06639}}, {"type": "Feature", "geometry": {"type": "Point", "coordinates": [-70.82150299999998, -27.065241000000015]}, "properties": {"CUT_REG": "03", "CUT_PROV": "031", "CUT_COM": "03102", "REGION": "Atacama", "PROVINCIA": "Copiap\u00f3", "COMUNA": "Caldera", "variable": "Centros de Educaci\u00f3n Parvularia", "Nombres": "COLEGIO PARTICULAR CALDERA", "POINT_X": -70.821503, "POINT_Y": -27.065241}}, {"type": "Feature", "geometry": {"type": "Point", "coordinates": [-70.67240149999998, -26.93942107499997]}, "properties": {"CUT_REG": "03", "CUT_PROV": "031", "CUT_COM": "03102", "REGION": "Atacama", "PROVINCIA": "Copiap\u00f3", "COMUNA": "Caldera", "variable": "Centros de Educaci\u00f3n Parvularia", "Nombres": "COLEGIO SIMON BOLIVAR", "POINT_X": -70.6724015, "POINT_Y": -26.939421075}}, {"type": "Feature", "geometry": {"type": "Point", "coordinates": [-70.4485006135, -26.83468806949997]}, "properties": {"CUT_REG": "03", "CUT_PROV": "031", "CUT_COM": "03102", "REGION": "Atacama", "PROVINCIA": "Copiap\u00f3", "COMUNA": "Caldera", "variable": "Centros de Educaci\u00f3n Parvularia", "Nombres": "LOS PATITOS", "POINT_X": -70.4485006135, "POINT_Y": -26.8346880695}}]}