{"type": "FeatureCollection", "features": [{"type": "Feature", "geometry": {"type": "Point", "coordinates": [-71.50327097499999, -35.19832797899996]}, "properties": {"CUT_REG": "07", "CUT_PROV": "073", "CUT_COM": "07307", "REGION": "Maule", "PROVINCIA": "Curic\u00f3", "COMUNA": "Sagrada Familia", "variable": "Centros de Educaci\u00f3n Parvularia", "Nombres": "ACUARELA", "POINT_X": -71.503270975, "POINT_Y": -35.198327979}}, {"type": "Feature", "geometry": {"type": "Point", "coordinates": [-71.21074299999995, -35.19766699999999]}, "properties": {"CUT_REG": "07", "CUT_PROV": "073", "CUT_COM": "07304", "REGION": "Maule", "PROVINCIA": "Curic\u00f3", "COMUNA": "Molina", "variable": "Centros de Educaci\u00f3n Parvularia", "Nombres": "LAGUNITA", "POINT_X": -71.210743, "POINT_Y": -35.197667}}, {"type": "Feature", "geometry": {"type": "Point", "coordinates": [-71.11558399999998, -35.194347]}, "properties": {"CUT_REG": "07", "CUT_PROV": "073", "CUT_COM": "07304", "REGION": "Maule", "PROVINCIA": "Curic\u00f3", "COMUNA": "Molina", "variable": "Centros de Educaci\u00f3n Parvularia", "Nombres": "LUCIERNAGA", "POINT_X": -71.115584, "POINT_Y": -35.194347}}, {"type": "Feature", "geometry": {"type": "Point", "coordinates": [-71.10563699999996, -35.180949999999974]}, "properties": {"CUT_REG": "07", "CUT_PROV": "073", "CUT_COM": "07301", "REGION": "Maule", "PROVINCIA": "Curic\u00f3", "COMUNA": "Curic\u00f3", "variable": "Centros de Educaci\u00f3n Parvularia", "Nombres": "ESCUELA INTERNADO POTRERO GRANDE", "POINT_X": -71.105637, "POINT_Y": -35.18095}}, {"type": "Feature", "geometry": {"type": "Point", "coordinates": [-71.21539300000003, -35.16920099999997]}, "properties": {"CUT_REG": "07", "CUT_PROV": "073", "CUT_COM": "07304", "REGION": "Maule", "PROVINCIA": "Curic\u00f3", "COMUNA": "Molina", "variable": "Centros de Educaci\u00f3n Parvularia", "Nombres": "ESC.INTERN.LAS PALMAS TRES ESQUINAS", "POINT_X": -71.215393, "POINT_Y": -35.169201}}, {"type": "Feature", "geometry": {"type": "Point", "coordinates": [-71.17498700000002, -35.157125]}, "properties": {"CUT_REG": "07", "CUT_PROV": "073", "CUT_COM": "07304", "REGION": "Maule", "PROVINCIA": "Curic\u00f3", "COMUNA": "Molina", "variable": "Centros de Educaci\u00f3n Parvularia", "Nombres": "BUENA PAZ", "POINT_X": -71.174987, "POINT_Y": -35.157125}}, {"type": "Feature", "geometry": {"type": "Point", "coordinates": [-71.240929, -35.14809000000002]}, "properties": {"CUT_REG": "07", "CUT_PROV": "073", "CUT_COM": "07304", "REGION": "Maule", "PROVINCIA": "Curic\u00f3", "COMUNA": "Molina", "variable": "Centros de Educaci\u00f3n Parvularia", "Nombres": "ESCUELA BAJO LOS ROMEROS", "POINT_X": -71.240929, "POINT_Y": -35.14809}}, {"type": "Feature", "geometry": {"type": "Point", "coordinates": [-71.35780299999999, -35.13473899999998]}, "properties": {"CUT_REG": "07", "CUT_PROV": "073", "CUT_COM": "07304", "REGION": "Maule", "PROVINCIA": "Curic\u00f3", "COMUNA": "Molina", "variable": "Centros de Educaci\u00f3n Parvularia", "Nombres": "LUIS MALDONADO BOGGIANO", "POINT_X": -71.357803, "POINT_Y": -35.134739}}, {"type": "Feature", "geometry": {"type": "Point", "coordinates": [-71.14775099999999, -35.12466799999999]}, "properties": {"CUT_REG": "07", "CUT_PROV": "073", "CUT_COM": "07301", "REGION": "Maule", "PROVINCIA": "Curic\u00f3", "COMUNA": "Curic\u00f3", "variable": "Centros de Educaci\u00f3n Parvularia", "Nombres": "ESCUELA DIEGO PORTALES P.", "POINT_X": -71.147751, "POINT_Y": -35.124668}}, {"type": "Feature", "geometry": {"type": "Point", "coordinates": [-71.28647900000001, -35.12078599999996]}, "properties": {"CUT_REG": "07", "CUT_PROV": "073", "CUT_COM": "07304", "REGION": "Maule", "PROVINCIA": "Curic\u00f3", "COMUNA": "Molina", "variable": "Centros de Educaci\u00f3n Parvularia", "Nombres": "TRIGALITOS", "POINT_X": -71.286479, "POINT_Y": -35.120786}}, {"type": "Feature", "geometry": {"type": "Point", "coordinates": [-71.209846, -35.119029999999974]}, "properties": {"CUT_REG": "07", "CUT_PROV": "073", "CUT_COM": "07304", "REGION": "Maule", "PROVINCIA": "Curic\u00f3", "COMUNA": "Molina", "variable": "Centros de Educaci\u00f3n Parvularia", "Nombres": "ESCUELA QUECHEREGUAS DE PICHINGAL", "POINT_X": -71.209846, "POINT_Y": -35.11903}}, {"type": "Feature", "geometry": {"type": "Point", "coordinates": [-71.21420900000004, -35.11692000000001]}, "properties": {"CUT_REG": "07", "CUT_PROV": "073", "CUT_COM": "07304", "REGION": "Maule", "PROVINCIA": "Curic\u00f3", "COMUNA": "Molina", "variable": "Centros de Educaci\u00f3n Parvularia", "Nombres": "TUTTI-FRUTTI", "POINT_X": -71.214209, "POINT_Y": -35.11692}}, {"type": "Feature", "geometry": {"type": "Point", "coordinates": [-71.28374500000002, -35.116249999999994]}, "properties": {"CUT_REG": "07", "CUT_PROV": "073", "CUT_COM": "07304", "REGION": "Maule", "PROVINCIA": "Curic\u00f3", "COMUNA": "Molina", "variable": "Centros de Educaci\u00f3n Parvularia", "Nombres": "ESCUELA DIFERENCIAL ESPERANZA", "POINT_X": -71.283745, "POINT_Y": -35.11625}}, {"type": "Feature", "geometry": {"type": "Point", "coordinates": [-71.28263099999995, -35.11489900000003]}, "properties": {"CUT_REG": "07", "CUT_PROV": "073", "CUT_COM": "07304", "REGION": "Maule", "PROVINCIA": "Curic\u00f3", "COMUNA": "Molina", "variable": "Centros de Educaci\u00f3n Parvularia", "Nombres": "COLEGIO ADVENTISTA DE MOLINA", "POINT_X": -71.282631, "POINT_Y": -35.114899}}, {"type": "Feature", "geometry": {"type": "Point", "coordinates": [-71.27561199999998, -35.11288100000004]}, "properties": {"CUT_REG": "07", "CUT_PROV": "073", "CUT_COM": "07304", "REGION": "Maule", "PROVINCIA": "Curic\u00f3", "COMUNA": "Molina", "variable": "Centros de Educaci\u00f3n Parvularia", "Nombres": "COLEGIO HENRI CETTY", "POINT_X": -71.275612, "POINT_Y": -35.112881}}, {"type": "Feature", "geometry": {"type": "Point", "coordinates": [-71.27216, -35.11277599999997]}, "properties": {"CUT_REG": "07", "CUT_PROV": "073", "CUT_COM": "07304", "REGION": "Maule", "PROVINCIA": "Curic\u00f3", "COMUNA": "Molina", "variable": "Centros de Educaci\u00f3n Parvularia", "Nombres": "ORUGUITAS DE PIEDRA AZUL", "POINT_X": -71.27216, "POINT_Y": -35.112776}}, {"type": "Feature", "geometry": {"type": "Point", "coordinates": [-71.285561, -35.11214100000001]}, "properties": {"CUT_REG": "07", "CUT_PROV": "073", "CUT_COM": "07304", "REGION": "Maule", "PROVINCIA": "Curic\u00f3", "COMUNA": "Molina", "variable": "Centros de Educaci\u00f3n Parvularia", "Nombres": "COLEGIO MIS IDEAS", "POINT_X": -71.285561, "POINT_Y": -35.112141}}, {"type": "Feature", "geometry": {"type": "Point", "coordinates": [-71.27935799999995, -35.111790000000006]}, "properties": {"CUT_REG": "07", "CUT_PROV": "073", "CUT_COM": "07304", "REGION": "Maule", "PROVINCIA": "Curic\u00f3", "COMUNA": "Molina", "variable": "Centros de Educaci\u00f3n Parvularia", "Nombres": "ESCUELA SUPERIOR DE MOLINA", "POINT_X": -71.279358, "POINT_Y": -35.11179}}, {"type": "Feature", "geometry": {"type": "Point", "coordinates": [-71.278137, -35.10966099999998]}, "properties": {"CUT_REG": "07", "CUT_PROV": "073", "CUT_COM": "07304", "REGION": "Maule", "PROVINCIA": "Curic\u00f3", "COMUNA": "Molina", "variable": "Centros de Educaci\u00f3n Parvularia", "Nombres": "ESCUELA PARTICULAR NTRA.SRA.DEL TRANSITO", "POINT_X": -71.278137, "POINT_Y": -35.109661}}, {"type": "Feature", "geometry": {"type": "Point", "coordinates": [-71.28706700000001, -35.107132999999976]}, "properties": {"CUT_REG": "07", "CUT_PROV": "073", "CUT_COM": "07304", "REGION": "Maule", "PROVINCIA": "Curic\u00f3", "COMUNA": "Molina", "variable": "Centros de Educaci\u00f3n Parvularia", "Nombres": "TRENCITO DE MIS TESOROS", "POINT_X": -71.287067, "POINT_Y": -35.107133}}, {"type": "Feature", "geometry": {"type": "Point", "coordinates": [-71.29451800000001, -35.10679999999996]}, "properties": {"CUT_REG": "07", "CUT_PROV": "073", "CUT_COM": "07304", "REGION": "Maule", "PROVINCIA": "Curic\u00f3", "COMUNA": "Molina", "variable": "Centros de Educaci\u00f3n Parvularia", "Nombres": "ESCUELA SAN PEDRO DE MOLINA", "POINT_X": -71.294518, "POINT_Y": -35.1068}}, {"type": "Feature", "geometry": {"type": "Point", "coordinates": [-71.302763, -35.10582200000004]}, "properties": {"CUT_REG": "07", "CUT_PROV": "073", "CUT_COM": "07304", "REGION": "Maule", "PROVINCIA": "Curic\u00f3", "COMUNA": "Molina", "variable": "Centros de Educaci\u00f3n Parvularia", "Nombres": "RAYUN", "POINT_X": -71.302763, "POINT_Y": -35.105822}}, {"type": "Feature", "geometry": {"type": "Point", "coordinates": [-71.34982687549999, -35.10019189599996]}, "properties": {"CUT_REG": "07", "CUT_PROV": "073", "CUT_COM": "07304", "REGION": "Maule", "PROVINCIA": "Curic\u00f3", "COMUNA": "Molina", "variable": "Centros de Educaci\u00f3n Parvularia", "Nombres": "BUEN PASTOR", "POINT_X": -71.3498268755, "POINT_Y": -35.100191896}}, {"type": "Feature", "geometry": {"type": "Point", "coordinates": [-71.61279199999998, -35.09555300000001]}, "properties": {"CUT_REG": "07", "CUT_PROV": "073", "CUT_COM": "07307", "REGION": "Maule", "PROVINCIA": "Curic\u00f3", "COMUNA": "Sagrada Familia", "variable": "Centros de Educaci\u00f3n Parvularia", "Nombres": "LOS PEQUENCITOS", "POINT_X": -71.612792, "POINT_Y": -35.095553}}, {"type": "Feature", "geometry": {"type": "Point", "coordinates": [-71.613113, -35.094970999999994]}, "properties": {"CUT_REG": "07", "CUT_PROV": "073", "CUT_COM": "07307", "REGION": "Maule", "PROVINCIA": "Curic\u00f3", "COMUNA": "Sagrada Familia", "variable": "Centros de Educaci\u00f3n Parvularia", "Nombres": "ESCUELA VILLA PRAT", "POINT_X": -71.613113, "POINT_Y": -35.094971}}, {"type": "Feature", "geometry": {"type": "Point", "coordinates": [-71.61184499999996, -35.09415699999997]}, "properties": {"CUT_REG": "07", "CUT_PROV": "073", "CUT_COM": "07307", "REGION": "Maule", "PROVINCIA": "Curic\u00f3", "COMUNA": "Sagrada Familia", "variable": "Centros de Educaci\u00f3n Parvularia", "Nombres": "EL RINCONCITO", "POINT_X": -71.611845, "POINT_Y": -35.094157}}, {"type": "Feature", "geometry": {"type": "Point", "coordinates": [-71.66171999999999, -35.09048799999997]}, "properties": {"CUT_REG": "07", "CUT_PROV": "073", "CUT_COM": "07302", "REGION": "Maule", "PROVINCIA": "Curic\u00f3", "COMUNA": "Huala\u00f1\u00e9", "variable": "Centros de Educaci\u00f3n Parvularia", "Nombres": "ESCUELA LA HUERTA DE MATAQUITO", "POINT_X": -71.66172, "POINT_Y": -35.090488}}, {"type": "Feature", "geometry": {"type": "Point", "coordinates": [-71.38210331000002, -35.08213938500003]}, "properties": {"CUT_REG": "07", "CUT_PROV": "073", "CUT_COM": "07304", "REGION": "Maule", "PROVINCIA": "Curic\u00f3", "COMUNA": "Molina", "variable": "Centros de Educaci\u00f3n Parvularia", "Nombres": "ESCUELA PARTICULAR HISPANO AMERICANO", "POINT_X": -71.38210331, "POINT_Y": -35.082139385}}, {"type": "Feature", "geometry": {"type": "Point", "coordinates": [-71.10065449999999, -35.08188400000004]}, "properties": {"CUT_REG": "07", "CUT_PROV": "073", "CUT_COM": "07301", "REGION": "Maule", "PROVINCIA": "Curic\u00f3", "COMUNA": "Curic\u00f3", "variable": "Centros de Educaci\u00f3n Parvularia", "Nombres": "ESCUELA RAMON FREIRE", "POINT_X": -71.1006545, "POINT_Y": -35.081884}}, {"type": "Feature", "geometry": {"type": "Point", "coordinates": [-71.25550299999998, -35.07522500000001]}, "properties": {"CUT_REG": "07", "CUT_PROV": "073", "CUT_COM": "07304", "REGION": "Maule", "PROVINCIA": "Curic\u00f3", "COMUNA": "Molina", "variable": "Centros de Educaci\u00f3n Parvularia", "Nombres": "S.C. CASA BLANCA", "POINT_X": -71.255503, "POINT_Y": -35.075225}}, {"type": "Feature", "geometry": {"type": "Point", "coordinates": [-71.43582571450003, -35.07338586550003]}, "properties": {"CUT_REG": "07", "CUT_PROV": "073", "CUT_COM": "07307", "REGION": "Maule", "PROVINCIA": "Curic\u00f3", "COMUNA": "Sagrada Familia", "variable": "Centros de Educaci\u00f3n Parvularia", "Nombres": "SAN JOSE", "POINT_X": -71.4358257145, "POINT_Y": -35.0733858655}}, {"type": "Feature", "geometry": {"type": "Point", "coordinates": [-71.256363, -35.07244099999996]}, "properties": {"CUT_REG": "07", "CUT_PROV": "073", "CUT_COM": "07304", "REGION": "Maule", "PROVINCIA": "Curic\u00f3", "COMUNA": "Molina", "variable": "Centros de Educaci\u00f3n Parvularia", "Nombres": "ESCUELA CASA BLANCA", "POINT_X": -71.256363, "POINT_Y": -35.072441}}, {"type": "Feature", "geometry": {"type": "Point", "coordinates": [-71.15571999999996, -35.07207]}, "properties": {"CUT_REG": "07", "CUT_PROV": "073", "CUT_COM": "07301", "REGION": "Maule", "PROVINCIA": "Curic\u00f3", "COMUNA": "Curic\u00f3", "variable": "Centros de Educaci\u00f3n Parvularia", "Nombres": "CENTRO EDUCATIVO DE LENGUAJE ANDALEN", "POINT_X": -71.15572, "POINT_Y": -35.07207}}, {"type": "Feature", "geometry": {"type": "Point", "coordinates": [-71.47495299999997, -35.07115900000003]}, "properties": {"CUT_REG": "07", "CUT_PROV": "073", "CUT_COM": "07307", "REGION": "Maule", "PROVINCIA": "Curic\u00f3", "COMUNA": "Sagrada Familia", "variable": "Centros de Educaci\u00f3n Parvularia", "Nombres": "ESCUELA EUGENIO TAGLE VALDES", "POINT_X": -71.474953, "POINT_Y": -35.071159}}, {"type": "Feature", "geometry": {"type": "Point", "coordinates": [-71.16973099999998, -35.064547999999974]}, "properties": {"CUT_REG": "07", "CUT_PROV": "073", "CUT_COM": "07301", "REGION": "Maule", "PROVINCIA": "Curic\u00f3", "COMUNA": "Curic\u00f3", "variable": "Centros de Educaci\u00f3n Parvularia", "Nombres": "ESCUELA REPUBLICA ESTADOS UNIDOS", "POINT_X": -71.169731, "POINT_Y": -35.064548}}, {"type": "Feature", "geometry": {"type": "Point", "coordinates": [-71.17417599999997, -35.06393599999996]}, "properties": {"CUT_REG": "07", "CUT_PROV": "073", "CUT_COM": "07301", "REGION": "Maule", "PROVINCIA": "Curic\u00f3", "COMUNA": "Curic\u00f3", "variable": "Centros de Educaci\u00f3n Parvularia", "Nombres": "RISITAS DE ANGELES", "POINT_X": -71.174176, "POINT_Y": -35.063936}}, {"type": "Feature", "geometry": {"type": "Point", "coordinates": [-71.36959999999996, -35.06171700000004]}, "properties": {"CUT_REG": "07", "CUT_PROV": "073", "CUT_COM": "07307", "REGION": "Maule", "PROVINCIA": "Curic\u00f3", "COMUNA": "Sagrada Familia", "variable": "Centros de Educaci\u00f3n Parvularia", "Nombres": "ESCUELA ESPECIAL DE LENGUAJE RAYUN", "POINT_X": -71.3696, "POINT_Y": -35.061717}}, {"type": "Feature", "geometry": {"type": "Point", "coordinates": [-71.26360299999996, -35.06000900000002]}, "properties": {"CUT_REG": "07", "CUT_PROV": "073", "CUT_COM": "07304", "REGION": "Maule", "PROVINCIA": "Curic\u00f3", "COMUNA": "Molina", "variable": "Centros de Educaci\u00f3n Parvularia", "Nombres": "COLEGIO ANTILHUE", "POINT_X": -71.263603, "POINT_Y": -35.060009}}, {"type": "Feature", "geometry": {"type": "Point", "coordinates": [-71.26240099999998, -35.05977099999996]}, "properties": {"CUT_REG": "07", "CUT_PROV": "073", "CUT_COM": "07304", "REGION": "Maule", "PROVINCIA": "Curic\u00f3", "COMUNA": "Molina", "variable": "Centros de Educaci\u00f3n Parvularia", "Nombres": "PEPITA DE UVA", "POINT_X": -71.262401, "POINT_Y": -35.059771}}, {"type": "Feature", "geometry": {"type": "Point", "coordinates": [-71.26885999999999, -35.05678999999996]}, "properties": {"CUT_REG": "07", "CUT_PROV": "073", "CUT_COM": "07304", "REGION": "Maule", "PROVINCIA": "Curic\u00f3", "COMUNA": "Molina", "variable": "Centros de Educaci\u00f3n Parvularia", "Nombres": "ESCUELA ESPECIAL DE LENGUAJE PALABRAS DULCES", "POINT_X": -71.26886, "POINT_Y": -35.05679}}, {"type": "Feature", "geometry": {"type": "Point", "coordinates": [-71.27428800000004, -35.056322999999956]}, "properties": {"CUT_REG": "07", "CUT_PROV": "073", "CUT_COM": "07304", "REGION": "Maule", "PROVINCIA": "Curic\u00f3", "COMUNA": "Molina", "variable": "Centros de Educaci\u00f3n Parvularia", "Nombres": "LOS PARRONCITOS", "POINT_X": -71.274288, "POINT_Y": -35.056323}}, {"type": "Feature", "geometry": {"type": "Point", "coordinates": [-71.27211999999997, -35.05510699999997]}, "properties": {"CUT_REG": "07", "CUT_PROV": "073", "CUT_COM": "07304", "REGION": "Maule", "PROVINCIA": "Curic\u00f3", "COMUNA": "Molina", "variable": "Centros de Educaci\u00f3n Parvularia", "Nombres": "ESCUELA DE LENGUAJE PRINCIPITO", "POINT_X": -71.27212, "POINT_Y": -35.055107}}, {"type": "Feature", "geometry": {"type": "Point", "coordinates": [-71.48562600000002, -35.053539]}, "properties": {"CUT_REG": "07", "CUT_PROV": "073", "CUT_COM": "07307", "REGION": "Maule", "PROVINCIA": "Curic\u00f3", "COMUNA": "Sagrada Familia", "variable": "Centros de Educaci\u00f3n Parvularia", "Nombres": "ESCUELA SANTA EMILIA", "POINT_X": -71.485626, "POINT_Y": -35.053539}}, {"type": "Feature", "geometry": {"type": "Point", "coordinates": [-71.163546895, -35.05239197100004]}, "properties": {"CUT_REG": "07", "CUT_PROV": "073", "CUT_COM": "07301", "REGION": "Maule", "PROVINCIA": "Curic\u00f3", "COMUNA": "Curic\u00f3", "variable": "Centros de Educaci\u00f3n Parvularia", "Nombres": "LOS CASTORCITOS", "POINT_X": -71.163546895, "POINT_Y": -35.052391971}}, {"type": "Feature", "geometry": {"type": "Point", "coordinates": [-71.30973000000003, -35.04325]}, "properties": {"CUT_REG": "07", "CUT_PROV": "073", "CUT_COM": "07307", "REGION": "Maule", "PROVINCIA": "Curic\u00f3", "COMUNA": "Sagrada Familia", "variable": "Centros de Educaci\u00f3n Parvularia", "Nombres": "ESCUELA DE LENGUAJE ESTRELLITA FUGAZ", "POINT_X": -71.30973, "POINT_Y": -35.04325}}, {"type": "Feature", "geometry": {"type": "Point", "coordinates": [-71.25307449999995, -35.042628999999955]}, "properties": {"CUT_REG": "07", "CUT_PROV": "073", "CUT_COM": "07304", "REGION": "Maule", "PROVINCIA": "Curic\u00f3", "COMUNA": "Molina", "variable": "Centros de Educaci\u00f3n Parvularia", "Nombres": "ESCUELA DE LENGUAJE CEL", "POINT_X": -71.2530745, "POINT_Y": -35.042629}}, {"type": "Feature", "geometry": {"type": "Point", "coordinates": [-71.45774999999998, -35.042479999999976]}, "properties": {"CUT_REG": "07", "CUT_PROV": "073", "CUT_COM": "07307", "REGION": "Maule", "PROVINCIA": "Curic\u00f3", "COMUNA": "Sagrada Familia", "variable": "Centros de Educaci\u00f3n Parvularia", "Nombres": "ESCUELA DE PARVULOS PRINCIPITO DE SANTA ANA", "POINT_X": -71.45775, "POINT_Y": -35.04248}}, {"type": "Feature", "geometry": {"type": "Point", "coordinates": [-71.30531700000002, -35.03957299999997]}, "properties": {"CUT_REG": "07", "CUT_PROV": "073", "CUT_COM": "07307", "REGION": "Maule", "PROVINCIA": "Curic\u00f3", "COMUNA": "Sagrada Familia", "variable": "Centros de Educaci\u00f3n Parvularia", "Nombres": "PETALOS DE NI\u00d1OS Y NI\u00d1AS", "POINT_X": -71.305317, "POINT_Y": -35.039573}}, {"type": "Feature", "geometry": {"type": "Point", "coordinates": [-71.45310800000004, -35.03951099999999]}, "properties": {"CUT_REG": "07", "CUT_PROV": "073", "CUT_COM": "07307", "REGION": "Maule", "PROVINCIA": "Curic\u00f3", "COMUNA": "Sagrada Familia", "variable": "Centros de Educaci\u00f3n Parvularia", "Nombres": "PASITOS Y RAYAS", "POINT_X": -71.453108, "POINT_Y": -35.039511}}, {"type": "Feature", "geometry": {"type": "Point", "coordinates": [-71.54273199999997, -35.033342]}, "properties": {"CUT_REG": "07", "CUT_PROV": "073", "CUT_COM": "07305", "REGION": "Maule", "PROVINCIA": "Curic\u00f3", "COMUNA": "Rauco", "variable": "Centros de Educaci\u00f3n Parvularia", "Nombres": "PEPITAS", "POINT_X": -71.542732, "POINT_Y": -35.033342}}, {"type": "Feature", "geometry": {"type": "Point", "coordinates": [-72.07235267999997, -35.030716266999995]}, "properties": {"CUT_REG": "07", "CUT_PROV": "073", "CUT_COM": "07303", "REGION": "Maule", "PROVINCIA": "Curic\u00f3", "COMUNA": "Licant\u00e9n", "variable": "Centros de Educaci\u00f3n Parvularia", "Nombres": "SEMILLITAS DE AMOR", "POINT_X": -72.07235268, "POINT_Y": -35.030716267}}, {"type": "Feature", "geometry": {"type": "Point", "coordinates": [-71.29696699999997, -35.029838999999974]}, "properties": {"CUT_REG": "07", "CUT_PROV": "073", "CUT_COM": "07307", "REGION": "Maule", "PROVINCIA": "Curic\u00f3", "COMUNA": "Sagrada Familia", "variable": "Centros de Educaci\u00f3n Parvularia", "Nombres": "ESCUELA LA ISLA", "POINT_X": -71.296967, "POINT_Y": -35.029839}}, {"type": "Feature", "geometry": {"type": "Point", "coordinates": [-71.29630999999995, -35.02980000000003]}, "properties": {"CUT_REG": "07", "CUT_PROV": "073", "CUT_COM": "07307", "REGION": "Maule", "PROVINCIA": "Curic\u00f3", "COMUNA": "Sagrada Familia", "variable": "Centros de Educaci\u00f3n Parvularia", "Nombres": "TRES PASITOS", "POINT_X": -71.29631, "POINT_Y": -35.0298}}, {"type": "Feature", "geometry": {"type": "Point", "coordinates": [-71.72463999999997, -35.02693199999997]}, "properties": {"CUT_REG": "07", "CUT_PROV": "073", "CUT_COM": "07302", "REGION": "Maule", "PROVINCIA": "Curic\u00f3", "COMUNA": "Huala\u00f1\u00e9", "variable": "Centros de Educaci\u00f3n Parvularia", "Nombres": "ESCUELA AMELIA VIAL DE CONCHA", "POINT_X": -71.72464, "POINT_Y": -35.026932}}, {"type": "Feature", "geometry": {"type": "Point", "coordinates": [-71.72476000000003, -35.026277000000036]}, "properties": {"CUT_REG": "07", "CUT_PROV": "073", "CUT_COM": "07302", "REGION": "Maule", "PROVINCIA": "Curic\u00f3", "COMUNA": "Huala\u00f1\u00e9", "variable": "Centros de Educaci\u00f3n Parvularia", "Nombres": "DIENTECITO DE LECHE", "POINT_X": -71.72476, "POINT_Y": -35.026277}}, {"type": "Feature", "geometry": {"type": "Point", "coordinates": [-71.3222, -35.02344300000003]}, "properties": {"CUT_REG": "07", "CUT_PROV": "073", "CUT_COM": "07307", "REGION": "Maule", "PROVINCIA": "Curic\u00f3", "COMUNA": "Sagrada Familia", "variable": "Centros de Educaci\u00f3n Parvularia", "Nombres": "LA HIGUERILLA", "POINT_X": -71.3222, "POINT_Y": -35.023443}}, {"type": "Feature", "geometry": {"type": "Point", "coordinates": [-71.21938300000002, -35.02320900000003]}, "properties": {"CUT_REG": "07", "CUT_PROV": "073", "CUT_COM": "07301", "REGION": "Maule", "PROVINCIA": "Curic\u00f3", "COMUNA": "Curic\u00f3", "variable": "Centros de Educaci\u00f3n Parvularia", "Nombres": "ESCUELA LA OBRA", "POINT_X": -71.219383, "POINT_Y": -35.023209}}, {"type": "Feature", "geometry": {"type": "Point", "coordinates": [-71.33176243, -35.02308856000001]}, "properties": {"CUT_REG": "07", "CUT_PROV": "073", "CUT_COM": "07307", "REGION": "Maule", "PROVINCIA": "Curic\u00f3", "COMUNA": "Sagrada Familia", "variable": "Centros de Educaci\u00f3n Parvularia", "Nombres": "ESCUELA PALESTINA", "POINT_X": -71.33176243, "POINT_Y": -35.02308856}}, {"type": "Feature", "geometry": {"type": "Point", "coordinates": [-71.43409700000002, -35.02024100000004]}, "properties": {"CUT_REG": "07", "CUT_PROV": "073", "CUT_COM": "07307", "REGION": "Maule", "PROVINCIA": "Curic\u00f3", "COMUNA": "Sagrada Familia", "variable": "Centros de Educaci\u00f3n Parvularia", "Nombres": "ESCUELA JOSE CANEPA VACCAREZZA", "POINT_X": -71.434097, "POINT_Y": -35.020241}}, {"type": "Feature", "geometry": {"type": "Point", "coordinates": [-72.13914930499996, -35.01617582800004]}, "properties": {"CUT_REG": "07", "CUT_PROV": "073", "CUT_COM": "07303", "REGION": "Maule", "PROVINCIA": "Curic\u00f3", "COMUNA": "Licant\u00e9n", "variable": "Centros de Educaci\u00f3n Parvularia", "Nombres": "LOS ARRAYANES", "POINT_X": -72.139149305, "POINT_Y": -35.016175828}}, {"type": "Feature", "geometry": {"type": "Point", "coordinates": [-71.15524650000003, -35.01304799999997]}, "properties": {"CUT_REG": "07", "CUT_PROV": "073", "CUT_COM": "07301", "REGION": "Maule", "PROVINCIA": "Curic\u00f3", "COMUNA": "Curic\u00f3", "variable": "Centros de Educaci\u00f3n Parvularia", "Nombres": "COLEGIO SAN MIGUEL ARCANGEL", "POINT_X": -71.1552465, "POINT_Y": -35.013048}}, {"type": "Feature", "geometry": {"type": "Point", "coordinates": [-71.34807796500002, -35.01160922500003]}, "properties": {"CUT_REG": "07", "CUT_PROV": "073", "CUT_COM": "07307", "REGION": "Maule", "PROVINCIA": "Curic\u00f3", "COMUNA": "Sagrada Familia", "variable": "Centros de Educaci\u00f3n Parvularia", "Nombres": "ESCUELA CAMILO HENRIQUEZ", "POINT_X": -71.348077965, "POINT_Y": -35.011609225}}, {"type": "Feature", "geometry": {"type": "Point", "coordinates": [-71.05671699999999, -35.00988000000004]}, "properties": {"CUT_REG": "07", "CUT_PROV": "073", "CUT_COM": "07306", "REGION": "Maule", "PROVINCIA": "Curic\u00f3", "COMUNA": "Romeral", "variable": "Centros de Educaci\u00f3n Parvularia", "Nombres": "ESCUELA BASICA GISLLEN E. BERNUCCI GIUSTACORI", "POINT_X": -71.056717, "POINT_Y": -35.00988}}, {"type": "Feature", "geometry": {"type": "Point", "coordinates": [-71.18991900000003, -35.002911000000026]}, "properties": {"CUT_REG": "07", "CUT_PROV": "073", "CUT_COM": "07301", "REGION": "Maule", "PROVINCIA": "Curic\u00f3", "COMUNA": "Curic\u00f3", "variable": "Centros de Educaci\u00f3n Parvularia", "Nombres": "ESCUELA EL PORVENIR", "POINT_X": -71.189919, "POINT_Y": -35.002911}}, {"type": "Feature", "geometry": {"type": "Point", "coordinates": [-70.812163, -34.99979299999997]}, "properties": {"CUT_REG": "07", "CUT_PROV": "073", "CUT_COM": "07306", "REGION": "Maule", "PROVINCIA": "Curic\u00f3", "COMUNA": "Romeral", "variable": "Centros de Educaci\u00f3n Parvularia", "Nombres": "LOS PALOMOS", "POINT_X": -70.812163, "POINT_Y": -34.999793}}, {"type": "Feature", "geometry": {"type": "Point", "coordinates": [-71.38526899999994, -34.998600000000025]}, "properties": {"CUT_REG": "07", "CUT_PROV": "073", "CUT_COM": "07307", "REGION": "Maule", "PROVINCIA": "Curic\u00f3", "COMUNA": "Sagrada Familia", "variable": "Centros de Educaci\u00f3n Parvularia", "Nombres": "ESC.DE EDUC.GRAL. BASICA MONSENOR ENRIQUE COR", "POINT_X": -71.385269, "POINT_Y": -34.9986}}, {"type": "Feature", "geometry": {"type": "Point", "coordinates": [-71.38520599999998, -34.99825000000002]}, "properties": {"CUT_REG": "07", "CUT_PROV": "073", "CUT_COM": "07307", "REGION": "Maule", "PROVINCIA": "Curic\u00f3", "COMUNA": "Sagrada Familia", "variable": "Centros de Educaci\u00f3n Parvularia", "Nombres": "VALLE DE NI\u00d1OS", "POINT_X": -71.385206, "POINT_Y": -34.99825}}, {"type": "Feature", "geometry": {"type": "Point", "coordinates": [-71.38228, -34.998214999999966]}, "properties": {"CUT_REG": "07", "CUT_PROV": "073", "CUT_COM": "07307", "REGION": "Maule", "PROVINCIA": "Curic\u00f3", "COMUNA": "Sagrada Familia", "variable": "Centros de Educaci\u00f3n Parvularia", "Nombres": "ESCUELA DE LENGUAJE EDUCAR", "POINT_X": -71.38228, "POINT_Y": -34.998215}}, {"type": "Feature", "geometry": {"type": "Point", "coordinates": [-71.34855199999998, -34.99807600000001]}, "properties": {"CUT_REG": "07", "CUT_PROV": "073", "CUT_COM": "07307", "REGION": "Maule", "PROVINCIA": "Curic\u00f3", "COMUNA": "Sagrada Familia", "variable": "Centros de Educaci\u00f3n Parvularia", "Nombres": "ALMA DE NI\u00d1OS", "POINT_X": -71.348552, "POINT_Y": -34.998076}}, {"type": "Feature", "geometry": {"type": "Point", "coordinates": [-71.38526199999998, -34.99795900000001]}, "properties": {"CUT_REG": "07", "CUT_PROV": "073", "CUT_COM": "07307", "REGION": "Maule", "PROVINCIA": "Curic\u00f3", "COMUNA": "Sagrada Familia", "variable": "Centros de Educaci\u00f3n Parvularia", "Nombres": "RACIMITO DE NINOS", "POINT_X": -71.385262, "POINT_Y": -34.997959}}, {"type": "Feature", "geometry": {"type": "Point", "coordinates": [-71.25367000000003, -34.99778400000001]}, "properties": {"CUT_REG": "07", "CUT_PROV": "073", "CUT_COM": "07301", "REGION": "Maule", "PROVINCIA": "Curic\u00f3", "COMUNA": "Curic\u00f3", "variable": "Centros de Educaci\u00f3n Parvularia", "Nombres": "ESCUELA DE LENGUAJE EL CASTILLO INFANTIL", "POINT_X": -71.25367, "POINT_Y": -34.997784}}, {"type": "Feature", "geometry": {"type": "Point", "coordinates": [-71.25504300000003, -34.99591000000003]}, "properties": {"CUT_REG": "07", "CUT_PROV": "073", "CUT_COM": "07301", "REGION": "Maule", "PROVINCIA": "Curic\u00f3", "COMUNA": "Curic\u00f3", "variable": "Centros de Educaci\u00f3n Parvularia", "Nombres": "LOS INTEGRITOS", "POINT_X": -71.255043, "POINT_Y": -34.99591}}, {"type": "Feature", "geometry": {"type": "Point", "coordinates": [-71.24418639999996, -34.99466323999999]}, "properties": {"CUT_REG": "07", "CUT_PROV": "073", "CUT_COM": "07301", "REGION": "Maule", "PROVINCIA": "Curic\u00f3", "COMUNA": "Curic\u00f3", "variable": "Centros de Educaci\u00f3n Parvularia", "Nombres": "CENTRO EDUCATIVO INTEGRAL DE CURICO (CEIC)", "POINT_X": -71.2441864, "POINT_Y": -34.99466324}}, {"type": "Feature", "geometry": {"type": "Point", "coordinates": [-71.348679, -34.99445000000002]}, "properties": {"CUT_REG": "07", "CUT_PROV": "073", "CUT_COM": "07307", "REGION": "Maule", "PROVINCIA": "Curic\u00f3", "COMUNA": "Sagrada Familia", "variable": "Centros de Educaci\u00f3n Parvularia", "Nombres": "ESCUELA LO VALDIVIA", "POINT_X": -71.348679, "POINT_Y": -34.99445}}, {"type": "Feature", "geometry": {"type": "Point", "coordinates": [-71.4415200835, -34.993408092999964]}, "properties": {"CUT_REG": "07", "CUT_PROV": "073", "CUT_COM": "07305", "REGION": "Maule", "PROVINCIA": "Curic\u00f3", "COMUNA": "Rauco", "variable": "Centros de Educaci\u00f3n Parvularia", "Nombres": "INFANCIA FELIZ", "POINT_X": -71.4415200835, "POINT_Y": -34.993408093}}, {"type": "Feature", "geometry": {"type": "Point", "coordinates": [-71.23680999999999, -34.99310300000003]}, "properties": {"CUT_REG": "07", "CUT_PROV": "073", "CUT_COM": "07301", "REGION": "Maule", "PROVINCIA": "Curic\u00f3", "COMUNA": "Curic\u00f3", "variable": "Centros de Educaci\u00f3n Parvularia", "Nombres": "COLEGIO ESPECIAL DE MARIA", "POINT_X": -71.23681, "POINT_Y": -34.993103}}, {"type": "Feature", "geometry": {"type": "Point", "coordinates": [-71.23658800000001, -34.99208100000003]}, "properties": {"CUT_REG": "07", "CUT_PROV": "073", "CUT_COM": "07301", "REGION": "Maule", "PROVINCIA": "Curic\u00f3", "COMUNA": "Curic\u00f3", "variable": "Centros de Educaci\u00f3n Parvularia", "Nombres": "ESCUELA CATALUNA", "POINT_X": -71.236588, "POINT_Y": -34.992081}}, {"type": "Feature", "geometry": {"type": "Point", "coordinates": [-71.210297, -34.992069000000015]}, "properties": {"CUT_REG": "07", "CUT_PROV": "073", "CUT_COM": "07301", "REGION": "Maule", "PROVINCIA": "Curic\u00f3", "COMUNA": "Curic\u00f3", "variable": "Centros de Educaci\u00f3n Parvularia", "Nombres": "COLEGIO CENTRO EDUCACIONAL VYGOTSKY", "POINT_X": -71.210297, "POINT_Y": -34.992069}}, {"type": "Feature", "geometry": {"type": "Point", "coordinates": [-71.24993, -34.991497000000024]}, "properties": {"CUT_REG": "07", "CUT_PROV": "073", "CUT_COM": "07301", "REGION": "Maule", "PROVINCIA": "Curic\u00f3", "COMUNA": "Curic\u00f3", "variable": "Centros de Educaci\u00f3n Parvularia", "Nombres": "AROMITOS", "POINT_X": -71.24993, "POINT_Y": -34.991497}}, {"type": "Feature", "geometry": {"type": "Point", "coordinates": [-71.25462300000001, -34.991298999999984]}, "properties": {"CUT_REG": "07", "CUT_PROV": "073", "CUT_COM": "07301", "REGION": "Maule", "PROVINCIA": "Curic\u00f3", "COMUNA": "Curic\u00f3", "variable": "Centros de Educaci\u00f3n Parvularia", "Nombres": "COLEGIO EL QUILLAY", "POINT_X": -71.254623, "POINT_Y": -34.991299}}, {"type": "Feature", "geometry": {"type": "Point", "coordinates": [-71.24887099999997, -34.990822000000044]}, "properties": {"CUT_REG": "07", "CUT_PROV": "073", "CUT_COM": "07301", "REGION": "Maule", "PROVINCIA": "Curic\u00f3", "COMUNA": "Curic\u00f3", "variable": "Centros de Educaci\u00f3n Parvularia", "Nombres": "COLEGIO POLIVALENTE JAP\u00d3N", "POINT_X": -71.248871, "POINT_Y": -34.990822}}, {"type": "Feature", "geometry": {"type": "Point", "coordinates": [-71.24137900000002, -34.989791999999994]}, "properties": {"CUT_REG": "07", "CUT_PROV": "073", "CUT_COM": "07301", "REGION": "Maule", "PROVINCIA": "Curic\u00f3", "COMUNA": "Curic\u00f3", "variable": "Centros de Educaci\u00f3n Parvularia", "Nombres": "COLEGIO SAN RAMON NONATO", "POINT_X": -71.241379, "POINT_Y": -34.989792}}, {"type": "Feature", "geometry": {"type": "Point", "coordinates": [-71.23132323999997, -34.98978423999998]}, "properties": {"CUT_REG": "07", "CUT_PROV": "073", "CUT_COM": "07301", "REGION": "Maule", "PROVINCIA": "Curic\u00f3", "COMUNA": "Curic\u00f3", "variable": "Centros de Educaci\u00f3n Parvularia", "Nombres": "COLEGIO DE ARTE Y CULTURA SAN ANTONIO", "POINT_X": -71.23132324, "POINT_Y": -34.98978424}}, {"type": "Feature", "geometry": {"type": "Point", "coordinates": [-71.23841999999998, -34.98872899999997]}, "properties": {"CUT_REG": "07", "CUT_PROV": "073", "CUT_COM": "07301", "REGION": "Maule", "PROVINCIA": "Curic\u00f3", "COMUNA": "Curic\u00f3", "variable": "Centros de Educaci\u00f3n Parvularia", "Nombres": "INSTITUTO SAN MARTIN", "POINT_X": -71.23842, "POINT_Y": -34.988729}}, {"type": "Feature", "geometry": {"type": "Point", "coordinates": [-71.77420899999997, -34.988051000000006]}, "properties": {"CUT_REG": "07", "CUT_PROV": "073", "CUT_COM": "07302", "REGION": "Maule", "PROVINCIA": "Curic\u00f3", "COMUNA": "Huala\u00f1\u00e9", "variable": "Centros de Educaci\u00f3n Parvularia", "Nombres": "PORVENIR", "POINT_X": -71.774209, "POINT_Y": -34.988051}}, {"type": "Feature", "geometry": {"type": "Point", "coordinates": [-71.23980699999998, -34.98802899999996]}, "properties": {"CUT_REG": "07", "CUT_PROV": "073", "CUT_COM": "07301", "REGION": "Maule", "PROVINCIA": "Curic\u00f3", "COMUNA": "Curic\u00f3", "variable": "Centros de Educaci\u00f3n Parvularia", "Nombres": "COLEGIO SANTO TOMAS DE CURICO", "POINT_X": -71.239807, "POINT_Y": -34.988029}}, {"type": "Feature", "geometry": {"type": "Point", "coordinates": [-71.21247999999997, -34.987697000000026]}, "properties": {"CUT_REG": "07", "CUT_PROV": "073", "CUT_COM": "07301", "REGION": "Maule", "PROVINCIA": "Curic\u00f3", "COMUNA": "Curic\u00f3", "variable": "Centros de Educaci\u00f3n Parvularia", "Nombres": "COLEGIO ORCHARD COLLEGE", "POINT_X": -71.21248, "POINT_Y": -34.987697}}, {"type": "Feature", "geometry": {"type": "Point", "coordinates": [-71.98288899999996, -34.98732000000001]}, "properties": {"CUT_REG": "07", "CUT_PROV": "073", "CUT_COM": "07303", "REGION": "Maule", "PROVINCIA": "Curic\u00f3", "COMUNA": "Licant\u00e9n", "variable": "Centros de Educaci\u00f3n Parvularia", "Nombres": "S.C. CAPULLITO", "POINT_X": -71.982889, "POINT_Y": -34.98732}}, {"type": "Feature", "geometry": {"type": "Point", "coordinates": [-71.21203999999997, -34.98731199999997]}, "properties": {"CUT_REG": "07", "CUT_PROV": "073", "CUT_COM": "07301", "REGION": "Maule", "PROVINCIA": "Curic\u00f3", "COMUNA": "Curic\u00f3", "variable": "Centros de Educaci\u00f3n Parvularia", "Nombres": "ESCUELA DIFERENCIAL LAS ILUSIONES", "POINT_X": -71.21204, "POINT_Y": -34.987312}}, {"type": "Feature", "geometry": {"type": "Point", "coordinates": [-71.25445908000003, -34.98579719999996]}, "properties": {"CUT_REG": "07", "CUT_PROV": "073", "CUT_COM": "07301", "REGION": "Maule", "PROVINCIA": "Curic\u00f3", "COMUNA": "Curic\u00f3", "variable": "Centros de Educaci\u00f3n Parvularia", "Nombres": "COLEGIO VERBUM", "POINT_X": -71.25445908, "POINT_Y": -34.9857972}}, {"type": "Feature", "geometry": {"type": "Point", "coordinates": [-71.22365000000003, -34.984654999999954]}, "properties": {"CUT_REG": "07", "CUT_PROV": "073", "CUT_COM": "07301", "REGION": "Maule", "PROVINCIA": "Curic\u00f3", "COMUNA": "Curic\u00f3", "variable": "Centros de Educaci\u00f3n Parvularia", "Nombres": "ALIANZA FRANCESA JEAN MERMOZ", "POINT_X": -71.22365, "POINT_Y": -34.984655}}, {"type": "Feature", "geometry": {"type": "Point", "coordinates": [-71.98594700000002, -34.984058000000026]}, "properties": {"CUT_REG": "07", "CUT_PROV": "073", "CUT_COM": "07303", "REGION": "Maule", "PROVINCIA": "Curic\u00f3", "COMUNA": "Licant\u00e9n", "variable": "Centros de Educaci\u00f3n Parvularia", "Nombres": "LICEO AUGUSTO SANTELICES VALENZUELA", "POINT_X": -71.985947, "POINT_Y": -34.984058}}, {"type": "Feature", "geometry": {"type": "Point", "coordinates": [-71.21861000000001, -34.98334100000003]}, "properties": {"CUT_REG": "07", "CUT_PROV": "073", "CUT_COM": "07301", "REGION": "Maule", "PROVINCIA": "Curic\u00f3", "COMUNA": "Curic\u00f3", "variable": "Centros de Educaci\u00f3n Parvularia", "Nombres": "COLEGIO VICHUQUEN", "POINT_X": -71.21861, "POINT_Y": -34.983341}}, {"type": "Feature", "geometry": {"type": "Point", "coordinates": [-71.98537399999995, -34.98306300000004]}, "properties": {"CUT_REG": "07", "CUT_PROV": "073", "CUT_COM": "07303", "REGION": "Maule", "PROVINCIA": "Curic\u00f3", "COMUNA": "Licant\u00e9n", "variable": "Centros de Educaci\u00f3n Parvularia", "Nombres": "ESCUELA DE LENGUAJE Y JARDIN INFANTIL PEQUE\u00d1O", "POINT_X": -71.985374, "POINT_Y": -34.983063}}, {"type": "Feature", "geometry": {"type": "Point", "coordinates": [-71.22773699999998, -34.98175799999997]}, "properties": {"CUT_REG": "07", "CUT_PROV": "073", "CUT_COM": "07301", "REGION": "Maule", "PROVINCIA": "Curic\u00f3", "COMUNA": "Curic\u00f3", "variable": "Centros de Educaci\u00f3n Parvularia", "Nombres": "C.EDUC.MONS.MANUEL LARRAIN ERRAZURIZ.", "POINT_X": -71.227737, "POINT_Y": -34.981758}}, {"type": "Feature", "geometry": {"type": "Point", "coordinates": [-71.25193799999997, -34.981040999999976]}, "properties": {"CUT_REG": "07", "CUT_PROV": "073", "CUT_COM": "07301", "REGION": "Maule", "PROVINCIA": "Curic\u00f3", "COMUNA": "Curic\u00f3", "variable": "Centros de Educaci\u00f3n Parvularia", "Nombres": "CENTRO EDUCATIVO PEUMAYEN", "POINT_X": -71.251938, "POINT_Y": -34.981041}}, {"type": "Feature", "geometry": {"type": "Point", "coordinates": [-71.98950999999995, -34.981013999999966]}, "properties": {"CUT_REG": "07", "CUT_PROV": "073", "CUT_COM": "07303", "REGION": "Maule", "PROVINCIA": "Curic\u00f3", "COMUNA": "Licant\u00e9n", "variable": "Centros de Educaci\u00f3n Parvularia", "Nombres": "KUMELEN", "POINT_X": -71.98951, "POINT_Y": -34.981014}}, {"type": "Feature", "geometry": {"type": "Point", "coordinates": [-71.25791299999999, -34.98074200000002]}, "properties": {"CUT_REG": "07", "CUT_PROV": "073", "CUT_COM": "07301", "REGION": "Maule", "PROVINCIA": "Curic\u00f3", "COMUNA": "Curic\u00f3", "variable": "Centros de Educaci\u00f3n Parvularia", "Nombres": "CASTILLO MAGICO", "POINT_X": -71.257913, "POINT_Y": -34.980742}}, {"type": "Feature", "geometry": {"type": "Point", "coordinates": [-71.23625200000001, -34.98062099999996]}, "properties": {"CUT_REG": "07", "CUT_PROV": "073", "CUT_COM": "07301", "REGION": "Maule", "PROVINCIA": "Curic\u00f3", "COMUNA": "Curic\u00f3", "variable": "Centros de Educaci\u00f3n Parvularia", "Nombres": "INSTITUTO SANTA MARTA", "POINT_X": -71.236252, "POINT_Y": -34.980621}}, {"type": "Feature", "geometry": {"type": "Point", "coordinates": [-71.24236299999998, -34.98012900000001]}, "properties": {"CUT_REG": "07", "CUT_PROV": "073", "CUT_COM": "07301", "REGION": "Maule", "PROVINCIA": "Curic\u00f3", "COMUNA": "Curic\u00f3", "variable": "Centros de Educaci\u00f3n Parvularia", "Nombres": "COLEGIO KAIROS", "POINT_X": -71.242363, "POINT_Y": -34.980129}}, {"type": "Feature", "geometry": {"type": "Point", "coordinates": [-70.98368099999996, -34.97979000000003]}, "properties": {"CUT_REG": "07", "CUT_PROV": "073", "CUT_COM": "07306", "REGION": "Maule", "PROVINCIA": "Curic\u00f3", "COMUNA": "Romeral", "variable": "Centros de Educaci\u00f3n Parvularia", "Nombres": "ESCUELA GERARDO RODRIGUEZ ORTUZAR", "POINT_X": -70.983681, "POINT_Y": -34.97979}}, {"type": "Feature", "geometry": {"type": "Point", "coordinates": [-71.19483200000002, -34.979752]}, "properties": {"CUT_REG": "07", "CUT_PROV": "073", "CUT_COM": "07301", "REGION": "Maule", "PROVINCIA": "Curic\u00f3", "COMUNA": "Curic\u00f3", "variable": "Centros de Educaci\u00f3n Parvularia", "Nombres": "ESCUELA LOS CRISTALES", "POINT_X": -71.194832, "POINT_Y": -34.979752}}, {"type": "Feature", "geometry": {"type": "Point", "coordinates": [-71.23914300000001, -34.979340000000015]}, "properties": {"CUT_REG": "07", "CUT_PROV": "073", "CUT_COM": "07301", "REGION": "Maule", "PROVINCIA": "Curic\u00f3", "COMUNA": "Curic\u00f3", "variable": "Centros de Educaci\u00f3n Parvularia", "Nombres": "ESCUELA ERNESTO CASTRO ARELLANO", "POINT_X": -71.239143, "POINT_Y": -34.97934}}, {"type": "Feature", "geometry": {"type": "Point", "coordinates": [-71.34046899999998, -34.97909200000001]}, "properties": {"CUT_REG": "07", "CUT_PROV": "073", "CUT_COM": "07301", "REGION": "Maule", "PROVINCIA": "Curic\u00f3", "COMUNA": "Curic\u00f3", "variable": "Centros de Educaci\u00f3n Parvularia", "Nombres": "COLEGIO MULTICULTURAL RAYEN MAPU", "POINT_X": -71.340469, "POINT_Y": -34.979092}}, {"type": "Feature", "geometry": {"type": "Point", "coordinates": [-71.23948699999997, -34.97869099999996]}, "properties": {"CUT_REG": "07", "CUT_PROV": "073", "CUT_COM": "07301", "REGION": "Maule", "PROVINCIA": "Curic\u00f3", "COMUNA": "Curic\u00f3", "variable": "Centros de Educaci\u00f3n Parvularia", "Nombres": "ESCUELA REPUBLICA DE BRASIL", "POINT_X": -71.239487, "POINT_Y": -34.978691}}, {"type": "Feature", "geometry": {"type": "Point", "coordinates": [-71.23708899999998, -34.977834000000016]}, "properties": {"CUT_REG": "07", "CUT_PROV": "073", "CUT_COM": "07301", "REGION": "Maule", "PROVINCIA": "Curic\u00f3", "COMUNA": "Curic\u00f3", "variable": "Centros de Educaci\u00f3n Parvularia", "Nombres": "GLOBITO", "POINT_X": -71.237089, "POINT_Y": -34.977834}}, {"type": "Feature", "geometry": {"type": "Point", "coordinates": [-71.21346300000005, -34.97737900000003]}, "properties": {"CUT_REG": "07", "CUT_PROV": "073", "CUT_COM": "07301", "REGION": "Maule", "PROVINCIA": "Curic\u00f3", "COMUNA": "Curic\u00f3", "variable": "Centros de Educaci\u00f3n Parvularia", "Nombres": "COLEGIO PALENCIA SC.", "POINT_X": -71.213463, "POINT_Y": -34.977379}}, {"type": "Feature", "geometry": {"type": "Point", "coordinates": [-71.25345599999999, -34.977060000000016]}, "properties": {"CUT_REG": "07", "CUT_PROV": "073", "CUT_COM": "07301", "REGION": "Maule", "PROVINCIA": "Curic\u00f3", "COMUNA": "Curic\u00f3", "variable": "Centros de Educaci\u00f3n Parvularia", "Nombres": "ESCUELA DE LENGUAJE MAZAPAN", "POINT_X": -71.253456, "POINT_Y": -34.97706}}, {"type": "Feature", "geometry": {"type": "Point", "coordinates": [-71.21911399999998, -34.97657199999996]}, "properties": {"CUT_REG": "07", "CUT_PROV": "073", "CUT_COM": "07301", "REGION": "Maule", "PROVINCIA": "Curic\u00f3", "COMUNA": "Curic\u00f3", "variable": "Centros de Educaci\u00f3n Parvularia", "Nombres": "BETTY", "POINT_X": -71.219114, "POINT_Y": -34.976572}}, {"type": "Feature", "geometry": {"type": "Point", "coordinates": [-71.25266999999997, -34.97629900000002]}, "properties": {"CUT_REG": "07", "CUT_PROV": "073", "CUT_COM": "07301", "REGION": "Maule", "PROVINCIA": "Curic\u00f3", "COMUNA": "Curic\u00f3", "variable": "Centros de Educaci\u00f3n Parvularia", "Nombres": "COLEGIO URUGUAY", "POINT_X": -71.25267, "POINT_Y": -34.976299}}, {"type": "Feature", "geometry": {"type": "Point", "coordinates": [-71.26124999999996, -34.97599000000003]}, "properties": {"CUT_REG": "07", "CUT_PROV": "073", "CUT_COM": "07301", "REGION": "Maule", "PROVINCIA": "Curic\u00f3", "COMUNA": "Curic\u00f3", "variable": "Centros de Educaci\u00f3n Parvularia", "Nombres": "CENTRO EDUCACIONAL KIMEL", "POINT_X": -71.26125, "POINT_Y": -34.97599}}, {"type": "Feature", "geometry": {"type": "Point", "coordinates": [-71.222633, -34.97523100000003]}, "properties": {"CUT_REG": "07", "CUT_PROV": "073", "CUT_COM": "07301", "REGION": "Maule", "PROVINCIA": "Curic\u00f3", "COMUNA": "Curic\u00f3", "variable": "Centros de Educaci\u00f3n Parvularia", "Nombres": "COLEGIO ALESSANDRI", "POINT_X": -71.222633, "POINT_Y": -34.975231}}, {"type": "Feature", "geometry": {"type": "Point", "coordinates": [-71.26026200000001, -34.97513999999996]}, "properties": {"CUT_REG": "07", "CUT_PROV": "073", "CUT_COM": "07301", "REGION": "Maule", "PROVINCIA": "Curic\u00f3", "COMUNA": "Curic\u00f3", "variable": "Centros de Educaci\u00f3n Parvularia", "Nombres": "ESCUELA ADMINISTRACION Y COMERCIO HUMANISTA C", "POINT_X": -71.260262, "POINT_Y": -34.97514}}, {"type": "Feature", "geometry": {"type": "Point", "coordinates": [-71.22127999999995, -34.97447999999997]}, "properties": {"CUT_REG": "07", "CUT_PROV": "073", "CUT_COM": "07301", "REGION": "Maule", "PROVINCIA": "Curic\u00f3", "COMUNA": "Curic\u00f3", "variable": "Centros de Educaci\u00f3n Parvularia", "Nombres": "PEQUE\u00d1OS EXPLORADORES", "POINT_X": -71.22128, "POINT_Y": -34.97448}}, {"type": "Feature", "geometry": {"type": "Point", "coordinates": [-71.21683, -34.97443399999999]}, "properties": {"CUT_REG": "07", "CUT_PROV": "073", "CUT_COM": "07301", "REGION": "Maule", "PROVINCIA": "Curic\u00f3", "COMUNA": "Curic\u00f3", "variable": "Centros de Educaci\u00f3n Parvularia", "Nombres": "ESCUEA ESPECIAL DE LENGUAJE MILLARAY", "POINT_X": -71.21683, "POINT_Y": -34.974434}}, {"type": "Feature", "geometry": {"type": "Point", "coordinates": [-71.80432100000002, -34.97406000000004]}, "properties": {"CUT_REG": "07", "CUT_PROV": "073", "CUT_COM": "07302", "REGION": "Maule", "PROVINCIA": "Curic\u00f3", "COMUNA": "Huala\u00f1\u00e9", "variable": "Centros de Educaci\u00f3n Parvularia", "Nombres": "ESC. MONSENOR MANUEL LARRAIN ERRAZURIZ", "POINT_X": -71.804321, "POINT_Y": -34.97406}}, {"type": "Feature", "geometry": {"type": "Point", "coordinates": [-71.21163599999994, -34.973655000000015]}, "properties": {"CUT_REG": "07", "CUT_PROV": "073", "CUT_COM": "07301", "REGION": "Maule", "PROVINCIA": "Curic\u00f3", "COMUNA": "Curic\u00f3", "variable": "Centros de Educaci\u00f3n Parvularia", "Nombres": "JARD\u00cdN INFANTIL Y SALA CUNA PIN Y PON", "POINT_X": -71.211636, "POINT_Y": -34.973655}}, {"type": "Feature", "geometry": {"type": "Point", "coordinates": [-71.25629399999997, -34.973615999999986]}, "properties": {"CUT_REG": "07", "CUT_PROV": "073", "CUT_COM": "07301", "REGION": "Maule", "PROVINCIA": "Curic\u00f3", "COMUNA": "Curic\u00f3", "variable": "Centros de Educaci\u00f3n Parvularia", "Nombres": "MARCELA", "POINT_X": -71.256294, "POINT_Y": -34.973616}}, {"type": "Feature", "geometry": {"type": "Point", "coordinates": [-71.24171999999999, -34.97321300000004]}, "properties": {"CUT_REG": "07", "CUT_PROV": "073", "CUT_COM": "07301", "REGION": "Maule", "PROVINCIA": "Curic\u00f3", "COMUNA": "Curic\u00f3", "variable": "Centros de Educaci\u00f3n Parvularia", "Nombres": "ESC.TRASTORNOS DE LENGUAJE HANS CHRISTIAN AND", "POINT_X": -71.24172, "POINT_Y": -34.973213}}, {"type": "Feature", "geometry": {"type": "Point", "coordinates": [-71.25258599999995, -34.972969000000006]}, "properties": {"CUT_REG": "07", "CUT_PROV": "073", "CUT_COM": "07301", "REGION": "Maule", "PROVINCIA": "Curic\u00f3", "COMUNA": "Curic\u00f3", "variable": "Centros de Educaci\u00f3n Parvularia", "Nombres": "COLEGIO ALTA CUMBRE", "POINT_X": -71.252586, "POINT_Y": -34.972969}}, {"type": "Feature", "geometry": {"type": "Point", "coordinates": [-71.23081999999998, -34.972649]}, "properties": {"CUT_REG": "07", "CUT_PROV": "073", "CUT_COM": "07301", "REGION": "Maule", "PROVINCIA": "Curic\u00f3", "COMUNA": "Curic\u00f3", "variable": "Centros de Educaci\u00f3n Parvularia", "Nombres": "ESCUELA PRESIDENTE J.M.BALMACEDA", "POINT_X": -71.23082, "POINT_Y": -34.972649}}, {"type": "Feature", "geometry": {"type": "Point", "coordinates": [-71.80426300000002, -34.97251200000003]}, "properties": {"CUT_REG": "07", "CUT_PROV": "073", "CUT_COM": "07302", "REGION": "Maule", "PROVINCIA": "Curic\u00f3", "COMUNA": "Huala\u00f1\u00e9", "variable": "Centros de Educaci\u00f3n Parvularia", "Nombres": "CASTILLO DE SUE\u00d1OS", "POINT_X": -71.804263, "POINT_Y": -34.972512}}, {"type": "Feature", "geometry": {"type": "Point", "coordinates": [-71.20534000000002, -34.97197000000004]}, "properties": {"CUT_REG": "07", "CUT_PROV": "073", "CUT_COM": "07301", "REGION": "Maule", "PROVINCIA": "Curic\u00f3", "COMUNA": "Curic\u00f3", "variable": "Centros de Educaci\u00f3n Parvularia", "Nombres": "ESCUELA DE LENGUAJE HABLA PALABRA", "POINT_X": -71.20534, "POINT_Y": -34.97197}}, {"type": "Feature", "geometry": {"type": "Point", "coordinates": [-71.25363199999998, -34.971629999999976]}, "properties": {"CUT_REG": "07", "CUT_PROV": "073", "CUT_COM": "07301", "REGION": "Maule", "PROVINCIA": "Curic\u00f3", "COMUNA": "Curic\u00f3", "variable": "Centros de Educaci\u00f3n Parvularia", "Nombres": "CENTRO EDUCATIVO MACHU PICCHU", "POINT_X": -71.253632, "POINT_Y": -34.97163}}, {"type": "Feature", "geometry": {"type": "Point", "coordinates": [-71.20989199999998, -34.971611]}, "properties": {"CUT_REG": "07", "CUT_PROV": "073", "CUT_COM": "07301", "REGION": "Maule", "PROVINCIA": "Curic\u00f3", "COMUNA": "Curic\u00f3", "variable": "Centros de Educaci\u00f3n Parvularia", "Nombres": "COLEGIO RAUQUEN", "POINT_X": -71.209892, "POINT_Y": -34.971611}}, {"type": "Feature", "geometry": {"type": "Point", "coordinates": [-71.25935099999995, -34.971596000000005]}, "properties": {"CUT_REG": "07", "CUT_PROV": "073", "CUT_COM": "07301", "REGION": "Maule", "PROVINCIA": "Curic\u00f3", "COMUNA": "Curic\u00f3", "variable": "Centros de Educaci\u00f3n Parvularia", "Nombres": "PASITOS DE GALILEA", "POINT_X": -71.259351, "POINT_Y": -34.971596}}, {"type": "Feature", "geometry": {"type": "Point", "coordinates": [-71.23190299999996, -34.96976099999996]}, "properties": {"CUT_REG": "07", "CUT_PROV": "073", "CUT_COM": "07301", "REGION": "Maule", "PROVINCIA": "Curic\u00f3", "COMUNA": "Curic\u00f3", "variable": "Centros de Educaci\u00f3n Parvularia", "Nombres": "COLEGIO HISPANOCHILENO EL PILAR", "POINT_X": -71.231903, "POINT_Y": -34.969761}}, {"type": "Feature", "geometry": {"type": "Point", "coordinates": [-71.01336499999994, -34.96954400000004]}, "properties": {"CUT_REG": "07", "CUT_PROV": "073", "CUT_COM": "07306", "REGION": "Maule", "PROVINCIA": "Curic\u00f3", "COMUNA": "Romeral", "variable": "Centros de Educaci\u00f3n Parvularia", "Nombres": "CECI", "POINT_X": -71.013365, "POINT_Y": -34.969544}}, {"type": "Feature", "geometry": {"type": "Point", "coordinates": [-71.01273299999997, -34.969157999999986]}, "properties": {"CUT_REG": "07", "CUT_PROV": "073", "CUT_COM": "07306", "REGION": "Maule", "PROVINCIA": "Curic\u00f3", "COMUNA": "Romeral", "variable": "Centros de Educaci\u00f3n Parvularia", "Nombres": "ESCUELA CARLOS LAZCANO ALFONSO", "POINT_X": -71.012733, "POINT_Y": -34.969158}}, {"type": "Feature", "geometry": {"type": "Point", "coordinates": [-71.23024699999999, -34.96665999999998]}, "properties": {"CUT_REG": "07", "CUT_PROV": "073", "CUT_COM": "07301", "REGION": "Maule", "PROVINCIA": "Curic\u00f3", "COMUNA": "Curic\u00f3", "variable": "Centros de Educaci\u00f3n Parvularia", "Nombres": "COLEGIO SAN ALFONSO DE EL BOLDO", "POINT_X": -71.230247, "POINT_Y": -34.96666}}, {"type": "Feature", "geometry": {"type": "Point", "coordinates": [-71.63292999999999, -34.96652999999997]}, "properties": {"CUT_REG": "07", "CUT_PROV": "073", "CUT_COM": "07302", "REGION": "Maule", "PROVINCIA": "Curic\u00f3", "COMUNA": "Huala\u00f1\u00e9", "variable": "Centros de Educaci\u00f3n Parvularia", "Nombres": "LOS PICAPIEDRAS", "POINT_X": -71.63293, "POINT_Y": -34.96653}}, {"type": "Feature", "geometry": {"type": "Point", "coordinates": [-71.24350799999996, -34.96622099999998]}, "properties": {"CUT_REG": "07", "CUT_PROV": "073", "CUT_COM": "07301", "REGION": "Maule", "PROVINCIA": "Curic\u00f3", "COMUNA": "Curic\u00f3", "variable": "Centros de Educaci\u00f3n Parvularia", "Nombres": "CADENITA", "POINT_X": -71.243508, "POINT_Y": -34.966221}}, {"type": "Feature", "geometry": {"type": "Point", "coordinates": [-71.245913, -34.966086000000004]}, "properties": {"CUT_REG": "07", "CUT_PROV": "073", "CUT_COM": "07301", "REGION": "Maule", "PROVINCIA": "Curic\u00f3", "COMUNA": "Curic\u00f3", "variable": "Centros de Educaci\u00f3n Parvularia", "Nombres": "BIG BANG", "POINT_X": -71.245913, "POINT_Y": -34.966086}}, {"type": "Feature", "geometry": {"type": "Point", "coordinates": [-71.23775400000002, -34.965678]}, "properties": {"CUT_REG": "07", "CUT_PROV": "073", "CUT_COM": "07301", "REGION": "Maule", "PROVINCIA": "Curic\u00f3", "COMUNA": "Curic\u00f3", "variable": "Centros de Educaci\u00f3n Parvularia", "Nombres": "MINIMUNDO", "POINT_X": -71.237754, "POINT_Y": -34.965678}}, {"type": "Feature", "geometry": {"type": "Point", "coordinates": [-71.20173599999998, -34.96501199999996]}, "properties": {"CUT_REG": "07", "CUT_PROV": "073", "CUT_COM": "07301", "REGION": "Maule", "PROVINCIA": "Curic\u00f3", "COMUNA": "Curic\u00f3", "variable": "Centros de Educaci\u00f3n Parvularia", "Nombres": "CENTRO EDUCACIONAL ADONAY", "POINT_X": -71.201736, "POINT_Y": -34.965012}}, {"type": "Feature", "geometry": {"type": "Point", "coordinates": [-71.22984299999996, -34.96461900000004]}, "properties": {"CUT_REG": "07", "CUT_PROV": "073", "CUT_COM": "07301", "REGION": "Maule", "PROVINCIA": "Curic\u00f3", "COMUNA": "Curic\u00f3", "variable": "Centros de Educaci\u00f3n Parvularia", "Nombres": "COLEGIO CRISTIANO DE CURICO", "POINT_X": -71.229843, "POINT_Y": -34.964619}}, {"type": "Feature", "geometry": {"type": "Point", "coordinates": [-71.961456, -34.96424100000003]}, "properties": {"CUT_REG": "07", "CUT_PROV": "073", "CUT_COM": "07303", "REGION": "Maule", "PROVINCIA": "Curic\u00f3", "COMUNA": "Licant\u00e9n", "variable": "Centros de Educaci\u00f3n Parvularia", "Nombres": "ESCUELA LOS COPIHUES", "POINT_X": -71.961456, "POINT_Y": -34.964241}}, {"type": "Feature", "geometry": {"type": "Point", "coordinates": [-71.23835500000001, -34.963619999999985]}, "properties": {"CUT_REG": "07", "CUT_PROV": "073", "CUT_COM": "07301", "REGION": "Maule", "PROVINCIA": "Curic\u00f3", "COMUNA": "Curic\u00f3", "variable": "Centros de Educaci\u00f3n Parvularia", "Nombres": "GOTITAS DE COLORES", "POINT_X": -71.238355, "POINT_Y": -34.96362}}, {"type": "Feature", "geometry": {"type": "Point", "coordinates": [-71.04917899999998, -34.96256999999997]}, "properties": {"CUT_REG": "07", "CUT_PROV": "073", "CUT_COM": "07306", "REGION": "Maule", "PROVINCIA": "Curic\u00f3", "COMUNA": "Romeral", "variable": "Centros de Educaci\u00f3n Parvularia", "Nombres": "ESCUELA GUAICO CENTRO", "POINT_X": -71.049179, "POINT_Y": -34.96257}}, {"type": "Feature", "geometry": {"type": "Point", "coordinates": [-71.22949199999996, -34.962521]}, "properties": {"CUT_REG": "07", "CUT_PROV": "073", "CUT_COM": "07301", "REGION": "Maule", "PROVINCIA": "Curic\u00f3", "COMUNA": "Curic\u00f3", "variable": "Centros de Educaci\u00f3n Parvularia", "Nombres": "COLEGIO EL BOLDO", "POINT_X": -71.229492, "POINT_Y": -34.962521}}, {"type": "Feature", "geometry": {"type": "Point", "coordinates": [-71.17247799999998, -34.96215799999999]}, "properties": {"CUT_REG": "07", "CUT_PROV": "073", "CUT_COM": "07306", "REGION": "Maule", "PROVINCIA": "Curic\u00f3", "COMUNA": "Romeral", "variable": "Centros de Educaci\u00f3n Parvularia", "Nombres": "ESCUELA AMERICA LATINA", "POINT_X": -71.172478, "POINT_Y": -34.962158}}, {"type": "Feature", "geometry": {"type": "Point", "coordinates": [-71.13318599999995, -34.962090000000046]}, "properties": {"CUT_REG": "07", "CUT_PROV": "073", "CUT_COM": "07306", "REGION": "Maule", "PROVINCIA": "Curic\u00f3", "COMUNA": "Romeral", "variable": "Centros de Educaci\u00f3n Parvularia", "Nombres": "ESCUELA DE LENGUAJE RAYENCO", "POINT_X": -71.133186, "POINT_Y": -34.96209}}, {"type": "Feature", "geometry": {"type": "Point", "coordinates": [-71.21253000000002, -34.961177]}, "properties": {"CUT_REG": "07", "CUT_PROV": "073", "CUT_COM": "07301", "REGION": "Maule", "PROVINCIA": "Curic\u00f3", "COMUNA": "Curic\u00f3", "variable": "Centros de Educaci\u00f3n Parvularia", "Nombres": "SEMILLITAS DE RAUQUEN", "POINT_X": -71.21253, "POINT_Y": -34.961177}}, {"type": "Feature", "geometry": {"type": "Point", "coordinates": [-72.184647, -34.96091100000002]}, "properties": {"CUT_REG": "07", "CUT_PROV": "073", "CUT_COM": "07303", "REGION": "Maule", "PROVINCIA": "Curic\u00f3", "COMUNA": "Licant\u00e9n", "variable": "Centros de Educaci\u00f3n Parvularia", "Nombres": "COLEGIO DR. MANUEL AVILES INOSTROZA", "POINT_X": -72.184647, "POINT_Y": -34.960911}}, {"type": "Feature", "geometry": {"type": "Point", "coordinates": [-70.97116100000002, -34.959220999999985]}, "properties": {"CUT_REG": "07", "CUT_PROV": "073", "CUT_COM": "07308", "REGION": "Maule", "PROVINCIA": "Curic\u00f3", "COMUNA": "Teno", "variable": "Centros de Educaci\u00f3n Parvularia", "Nombres": "ESC. MANUEL RODRIGUEZ ERDOIZA", "POINT_X": -70.971161, "POINT_Y": -34.959221}}, {"type": "Feature", "geometry": {"type": "Point", "coordinates": [-71.34571799999998, -34.956229999999955]}, "properties": {"CUT_REG": "07", "CUT_PROV": "073", "CUT_COM": "07305", "REGION": "Maule", "PROVINCIA": "Curic\u00f3", "COMUNA": "Rauco", "variable": "Centros de Educaci\u00f3n Parvularia", "Nombres": "ESCUELA LUIS LEYTON RUBIO", "POINT_X": -71.345718, "POINT_Y": -34.95623}}, {"type": "Feature", "geometry": {"type": "Point", "coordinates": [-71.12283999999994, -34.955869000000014]}, "properties": {"CUT_REG": "07", "CUT_PROV": "073", "CUT_COM": "07306", "REGION": "Maule", "PROVINCIA": "Curic\u00f3", "COMUNA": "Romeral", "variable": "Centros de Educaci\u00f3n Parvularia", "Nombres": "LUXEMBURGO", "POINT_X": -71.12284, "POINT_Y": -34.955869}}, {"type": "Feature", "geometry": {"type": "Point", "coordinates": [-71.29241200000001, -34.95478099999997]}, "properties": {"CUT_REG": "07", "CUT_PROV": "073", "CUT_COM": "07301", "REGION": "Maule", "PROVINCIA": "Curic\u00f3", "COMUNA": "Curic\u00f3", "variable": "Centros de Educaci\u00f3n Parvularia", "Nombres": "ESCUELA EL MAITENAL", "POINT_X": -71.292412, "POINT_Y": -34.954781}}, {"type": "Feature", "geometry": {"type": "Point", "coordinates": [-71.12538099999996, -34.95392400000002]}, "properties": {"CUT_REG": "07", "CUT_PROV": "073", "CUT_COM": "07306", "REGION": "Maule", "PROVINCIA": "Curic\u00f3", "COMUNA": "Romeral", "variable": "Centros de Educaci\u00f3n Parvularia", "Nombres": "\u00d1UKE MAPU", "POINT_X": -71.125381, "POINT_Y": -34.953924}}, {"type": "Feature", "geometry": {"type": "Point", "coordinates": [-71.19509099999996, -34.95144999999996]}, "properties": {"CUT_REG": "07", "CUT_PROV": "073", "CUT_COM": "07301", "REGION": "Maule", "PROVINCIA": "Curic\u00f3", "COMUNA": "Curic\u00f3", "variable": "Centros de Educaci\u00f3n Parvularia", "Nombres": "COLEGIO RAUQUEN CAMPO", "POINT_X": -71.195091, "POINT_Y": -34.95145}}, {"type": "Feature", "geometry": {"type": "Point", "coordinates": [-71.12281899999999, -34.948211000000015]}, "properties": {"CUT_REG": "07", "CUT_PROV": "073", "CUT_COM": "07306", "REGION": "Maule", "PROVINCIA": "Curic\u00f3", "COMUNA": "Romeral", "variable": "Centros de Educaci\u00f3n Parvularia", "Nombres": "PEQUE\u00d1OS CORAZONES", "POINT_X": -71.122819, "POINT_Y": -34.948211}}, {"type": "Feature", "geometry": {"type": "Point", "coordinates": [-71.19627399999996, -34.94466000000001]}, "properties": {"CUT_REG": "07", "CUT_PROV": "073", "CUT_COM": "07301", "REGION": "Maule", "PROVINCIA": "Curic\u00f3", "COMUNA": "Curic\u00f3", "variable": "Centros de Educaci\u00f3n Parvularia", "Nombres": "LICEO TECNICO PROFESIONAL SIMON BOLIVAR", "POINT_X": -71.196274, "POINT_Y": -34.94466}}, {"type": "Feature", "geometry": {"type": "Point", "coordinates": [-71.20320099999996, -34.942760000000014]}, "properties": {"CUT_REG": "07", "CUT_PROV": "073", "CUT_COM": "07301", "REGION": "Maule", "PROVINCIA": "Curic\u00f3", "COMUNA": "Curic\u00f3", "variable": "Centros de Educaci\u00f3n Parvularia", "Nombres": "ESCUELA BASICA DE ADMINISTRACION Y COMERCIO", "POINT_X": -71.203201, "POINT_Y": -34.94276}}, {"type": "Feature", "geometry": {"type": "Point", "coordinates": [-71.20063999999999, -34.94257999999996]}, "properties": {"CUT_REG": "07", "CUT_PROV": "073", "CUT_COM": "07301", "REGION": "Maule", "PROVINCIA": "Curic\u00f3", "COMUNA": "Curic\u00f3", "variable": "Centros de Educaci\u00f3n Parvularia", "Nombres": "RABITO, SUE\u00d1O DE ARTISTAS", "POINT_X": -71.20064, "POINT_Y": -34.94258}}, {"type": "Feature", "geometry": {"type": "Point", "coordinates": [-71.202713, -34.942291000000026]}, "properties": {"CUT_REG": "07", "CUT_PROV": "073", "CUT_COM": "07301", "REGION": "Maule", "PROVINCIA": "Curic\u00f3", "COMUNA": "Curic\u00f3", "variable": "Centros de Educaci\u00f3n Parvularia", "Nombres": "COLEGIO LOS HEROES", "POINT_X": -71.202713, "POINT_Y": -34.942291}}, {"type": "Feature", "geometry": {"type": "Point", "coordinates": [-71.26357299999997, -34.939240000000005]}, "properties": {"CUT_REG": "07", "CUT_PROV": "073", "CUT_COM": "07301", "REGION": "Maule", "PROVINCIA": "Curic\u00f3", "COMUNA": "Curic\u00f3", "variable": "Centros de Educaci\u00f3n Parvularia", "Nombres": "ESCUELA ISLA DE MARCHANT", "POINT_X": -71.263573, "POINT_Y": -34.93924}}, {"type": "Feature", "geometry": {"type": "Point", "coordinates": [-72.17352300000002, -34.93504500000001]}, "properties": {"CUT_REG": "07", "CUT_PROV": "073", "CUT_COM": "07303", "REGION": "Maule", "PROVINCIA": "Curic\u00f3", "COMUNA": "Licant\u00e9n", "variable": "Centros de Educaci\u00f3n Parvularia", "Nombres": "COLEGIO ADVENTISTA", "POINT_X": -72.173523, "POINT_Y": -34.935045}}, {"type": "Feature", "geometry": {"type": "Point", "coordinates": [-71.19671600000004, -34.93497100000001]}, "properties": {"CUT_REG": "07", "CUT_PROV": "073", "CUT_COM": "07301", "REGION": "Maule", "PROVINCIA": "Curic\u00f3", "COMUNA": "Curic\u00f3", "variable": "Centros de Educaci\u00f3n Parvularia", "Nombres": "ESCUELA MARIA OLGA FIGUEROA LEYTON", "POINT_X": -71.196716, "POINT_Y": -34.934971}}, {"type": "Feature", "geometry": {"type": "Point", "coordinates": [-71.31655099999995, -34.925700999999954]}, "properties": {"CUT_REG": "07", "CUT_PROV": "073", "CUT_COM": "07305", "REGION": "Maule", "PROVINCIA": "Curic\u00f3", "COMUNA": "Rauco", "variable": "Centros de Educaci\u00f3n Parvularia", "Nombres": "ESCUELA RAUCO", "POINT_X": -71.316551, "POINT_Y": -34.925701}}, {"type": "Feature", "geometry": {"type": "Point", "coordinates": [-71.19395549999999, -34.92403099999998]}, "properties": {"CUT_REG": "07", "CUT_PROV": "073", "CUT_COM": "07301", "REGION": "Maule", "PROVINCIA": "Curic\u00f3", "COMUNA": "Curic\u00f3", "variable": "Centros de Educaci\u00f3n Parvularia", "Nombres": "LOS NARANJITOS", "POINT_X": -71.1939555, "POINT_Y": -34.924031}}, {"type": "Feature", "geometry": {"type": "Point", "coordinates": [-71.02839699999998, -34.92105099999997]}, "properties": {"CUT_REG": "07", "CUT_PROV": "073", "CUT_COM": "07308", "REGION": "Maule", "PROVINCIA": "Curic\u00f3", "COMUNA": "Teno", "variable": "Centros de Educaci\u00f3n Parvularia", "Nombres": "ESCUELA SUSANA MONTES VELASCO", "POINT_X": -71.028397, "POINT_Y": -34.921051}}, {"type": "Feature", "geometry": {"type": "Point", "coordinates": [-71.23667899999998, -34.918448999999974]}, "properties": {"CUT_REG": "07", "CUT_PROV": "073", "CUT_COM": "07301", "REGION": "Maule", "PROVINCIA": "Curic\u00f3", "COMUNA": "Curic\u00f3", "variable": "Centros de Educaci\u00f3n Parvularia", "Nombres": "ESCUELA HOLANDA", "POINT_X": -71.236679, "POINT_Y": -34.918449}}, {"type": "Feature", "geometry": {"type": "Point", "coordinates": [-71.07422599999998, -34.91813999999999]}, "properties": {"CUT_REG": "07", "CUT_PROV": "073", "CUT_COM": "07308", "REGION": "Maule", "PROVINCIA": "Curic\u00f3", "COMUNA": "Teno", "variable": "Centros de Educaci\u00f3n Parvularia", "Nombres": "ESCUELA ALBORADA VENTANA DEL BAJO", "POINT_X": -71.074226, "POINT_Y": -34.91814}}, {"type": "Feature", "geometry": {"type": "Point", "coordinates": [-71.30072199999996, -34.91537000000003]}, "properties": {"CUT_REG": "07", "CUT_PROV": "073", "CUT_COM": "07305", "REGION": "Maule", "PROVINCIA": "Curic\u00f3", "COMUNA": "Rauco", "variable": "Centros de Educaci\u00f3n Parvularia", "Nombres": "NUESTRAS RAICES", "POINT_X": -71.300722, "POINT_Y": -34.91537}}, {"type": "Feature", "geometry": {"type": "Point", "coordinates": [-72.07787000000002, -34.915349999999975]}, "properties": {"CUT_REG": "07", "CUT_PROV": "073", "CUT_COM": "07309", "REGION": "Maule", "PROVINCIA": "Curic\u00f3", "COMUNA": "Vichuqu\u00e9n", "variable": "Centros de Educaci\u00f3n Parvularia", "Nombres": "ESCUELA ESPECIAL DE LENGUAJE PEUMAYEN", "POINT_X": -72.07787, "POINT_Y": -34.91535}}, {"type": "Feature", "geometry": {"type": "Point", "coordinates": [-71.04503700000001, -34.91173000000004]}, "properties": {"CUT_REG": "07", "CUT_PROV": "073", "CUT_COM": "07308", "REGION": "Maule", "PROVINCIA": "Curic\u00f3", "COMUNA": "Teno", "variable": "Centros de Educaci\u00f3n Parvularia", "Nombres": "BENNY", "POINT_X": -71.045037, "POINT_Y": -34.91173}}, {"type": "Feature", "geometry": {"type": "Point", "coordinates": [-71.00116700000001, -34.91165900000003]}, "properties": {"CUT_REG": "07", "CUT_PROV": "073", "CUT_COM": "07308", "REGION": "Maule", "PROVINCIA": "Curic\u00f3", "COMUNA": "Teno", "variable": "Centros de Educaci\u00f3n Parvularia", "Nombres": "ESCUELA MORZA", "POINT_X": -71.001167, "POINT_Y": -34.911659}}, {"type": "Feature", "geometry": {"type": "Point", "coordinates": [-71.38773686349998, -34.90685273599999]}, "properties": {"CUT_REG": "07", "CUT_PROV": "073", "CUT_COM": "07305", "REGION": "Maule", "PROVINCIA": "Curic\u00f3", "COMUNA": "Rauco", "variable": "Centros de Educaci\u00f3n Parvularia", "Nombres": "HAPPY DAY", "POINT_X": -71.3877368635, "POINT_Y": -34.906852736}}, {"type": "Feature", "geometry": {"type": "Point", "coordinates": [-71.19608299999997, -34.90095900000004]}, "properties": {"CUT_REG": "07", "CUT_PROV": "073", "CUT_COM": "07301", "REGION": "Maule", "PROVINCIA": "Curic\u00f3", "COMUNA": "Curic\u00f3", "variable": "Centros de Educaci\u00f3n Parvularia", "Nombres": "ESCUELA VICTOR VERGARA CAMPOS", "POINT_X": -71.196083, "POINT_Y": -34.900959}}, {"type": "Feature", "geometry": {"type": "Point", "coordinates": [-71.25888099999997, -34.900279999999995]}, "properties": {"CUT_REG": "07", "CUT_PROV": "073", "CUT_COM": "07308", "REGION": "Maule", "PROVINCIA": "Curic\u00f3", "COMUNA": "Teno", "variable": "Centros de Educaci\u00f3n Parvularia", "Nombres": "ESCUELA LOS ALISOS", "POINT_X": -71.258881, "POINT_Y": -34.90028}}, {"type": "Feature", "geometry": {"type": "Point", "coordinates": [-72.168375613, -34.89710615249998]}, "properties": {"CUT_REG": "07", "CUT_PROV": "073", "CUT_COM": "07303", "REGION": "Maule", "PROVINCIA": "Curic\u00f3", "COMUNA": "Licant\u00e9n", "variable": "Centros de Educaci\u00f3n Parvularia", "Nombres": "BURBUJITAS", "POINT_X": -72.168375613, "POINT_Y": -34.8971061525}}, {"type": "Feature", "geometry": {"type": "Point", "coordinates": [-71.84126547999998, -34.89086549999997]}, "properties": {"CUT_REG": "07", "CUT_PROV": "073", "CUT_COM": "07302", "REGION": "Maule", "PROVINCIA": "Curic\u00f3", "COMUNA": "Huala\u00f1\u00e9", "variable": "Centros de Educaci\u00f3n Parvularia", "Nombres": "ESCUELA VILLA INDEPENDENCIA", "POINT_X": -71.84126548, "POINT_Y": -34.8908655}}, {"type": "Feature", "geometry": {"type": "Point", "coordinates": [-71.138295, -34.889362]}, "properties": {"CUT_REG": "07", "CUT_PROV": "073", "CUT_COM": "07308", "REGION": "Maule", "PROVINCIA": "Curic\u00f3", "COMUNA": "Teno", "variable": "Centros de Educaci\u00f3n Parvularia", "Nombres": "DOMINGO MANSILLA", "POINT_X": -71.138295, "POINT_Y": -34.889362}}, {"type": "Feature", "geometry": {"type": "Point", "coordinates": [-70.99233900000002, -34.88448]}, "properties": {"CUT_REG": "07", "CUT_PROV": "073", "CUT_COM": "07308", "REGION": "Maule", "PROVINCIA": "Curic\u00f3", "COMUNA": "Teno", "variable": "Centros de Educaci\u00f3n Parvularia", "Nombres": "LA HORMIGUITA CANTORA", "POINT_X": -70.992339, "POINT_Y": -34.88448}}, {"type": "Feature", "geometry": {"type": "Point", "coordinates": [-71.14758300000003, -34.882099]}, "properties": {"CUT_REG": "07", "CUT_PROV": "073", "CUT_COM": "07308", "REGION": "Maule", "PROVINCIA": "Curic\u00f3", "COMUNA": "Teno", "variable": "Centros de Educaci\u00f3n Parvularia", "Nombres": "ESCUELA SAN CRISTOBAL", "POINT_X": -71.147583, "POINT_Y": -34.882099}}, {"type": "Feature", "geometry": {"type": "Point", "coordinates": [-71.266518, -34.881499999999996]}, "properties": {"CUT_REG": "07", "CUT_PROV": "073", "CUT_COM": "07305", "REGION": "Maule", "PROVINCIA": "Curic\u00f3", "COMUNA": "Rauco", "variable": "Centros de Educaci\u00f3n Parvularia", "Nombres": "ESCUELA EL PLUMERO", "POINT_X": -71.266518, "POINT_Y": -34.8815}}, {"type": "Feature", "geometry": {"type": "Point", "coordinates": [-71.99263800000003, -34.881351000000016]}, "properties": {"CUT_REG": "07", "CUT_PROV": "073", "CUT_COM": "07309", "REGION": "Maule", "PROVINCIA": "Curic\u00f3", "COMUNA": "Vichuqu\u00e9n", "variable": "Centros de Educaci\u00f3n Parvularia", "Nombres": "LICEO NUEVO HORIZONTE", "POINT_X": -71.992638, "POINT_Y": -34.881351}}, {"type": "Feature", "geometry": {"type": "Point", "coordinates": [-70.953686, -34.87748900000004]}, "properties": {"CUT_REG": "07", "CUT_PROV": "073", "CUT_COM": "07308", "REGION": "Maule", "PROVINCIA": "Curic\u00f3", "COMUNA": "Teno", "variable": "Centros de Educaci\u00f3n Parvularia", "Nombres": "SIEMBRA SONRISA", "POINT_X": -70.953686, "POINT_Y": -34.877489}}, {"type": "Feature", "geometry": {"type": "Point", "coordinates": [-71.15841999999998, -34.87613200000003]}, "properties": {"CUT_REG": "07", "CUT_PROV": "073", "CUT_COM": "07308", "REGION": "Maule", "PROVINCIA": "Curic\u00f3", "COMUNA": "Teno", "variable": "Centros de Educaci\u00f3n Parvularia", "Nombres": "ABEJITAS I", "POINT_X": -71.15842, "POINT_Y": -34.876132}}, {"type": "Feature", "geometry": {"type": "Point", "coordinates": [-71.08518999999997, -34.87319200000004]}, "properties": {"CUT_REG": "07", "CUT_PROV": "073", "CUT_COM": "07308", "REGION": "Maule", "PROVINCIA": "Curic\u00f3", "COMUNA": "Teno", "variable": "Centros de Educaci\u00f3n Parvularia", "Nombres": "ESCUELA LA PURISIMA", "POINT_X": -71.08519, "POINT_Y": -34.873192}}, {"type": "Feature", "geometry": {"type": "Point", "coordinates": [-71.15737300000004, -34.872349000000014]}, "properties": {"CUT_REG": "07", "CUT_PROV": "073", "CUT_COM": "07308", "REGION": "Maule", "PROVINCIA": "Curic\u00f3", "COMUNA": "Teno", "variable": "Centros de Educaci\u00f3n Parvularia", "Nombres": "ABEJITAS II", "POINT_X": -71.157373, "POINT_Y": -34.872349}}, {"type": "Feature", "geometry": {"type": "Point", "coordinates": [-71.16648899999997, -34.87199800000001]}, "properties": {"CUT_REG": "07", "CUT_PROV": "073", "CUT_COM": "07308", "REGION": "Maule", "PROVINCIA": "Curic\u00f3", "COMUNA": "Teno", "variable": "Centros de Educaci\u00f3n Parvularia", "Nombres": "ESCUELA TENO", "POINT_X": -71.166489, "POINT_Y": -34.871998}}, {"type": "Feature", "geometry": {"type": "Point", "coordinates": [-71.85739900000003, -34.87125300000001]}, "properties": {"CUT_REG": "07", "CUT_PROV": "073", "CUT_COM": "07302", "REGION": "Maule", "PROVINCIA": "Curic\u00f3", "COMUNA": "Huala\u00f1\u00e9", "variable": "Centros de Educaci\u00f3n Parvularia", "Nombres": "MUNDO MAGICO", "POINT_X": -71.857399, "POINT_Y": -34.871253}}, {"type": "Feature", "geometry": {"type": "Point", "coordinates": [-71.15976, -34.86979699999998]}, "properties": {"CUT_REG": "07", "CUT_PROV": "073", "CUT_COM": "07308", "REGION": "Maule", "PROVINCIA": "Curic\u00f3", "COMUNA": "Teno", "variable": "Centros de Educaci\u00f3n Parvularia", "Nombres": "JARDIN INFANTIL MIS TESOROS", "POINT_X": -71.15976, "POINT_Y": -34.869797}}, {"type": "Feature", "geometry": {"type": "Point", "coordinates": [-71.16069999999999, -34.86922499999999]}, "properties": {"CUT_REG": "07", "CUT_PROV": "073", "CUT_COM": "07308", "REGION": "Maule", "PROVINCIA": "Curic\u00f3", "COMUNA": "Teno", "variable": "Centros de Educaci\u00f3n Parvularia", "Nombres": "ESCUELA DE LENGUAJE PAUL HARRIS", "POINT_X": -71.1607, "POINT_Y": -34.869225}}, {"type": "Feature", "geometry": {"type": "Point", "coordinates": [-71.16154000000003, -34.868843000000005]}, "properties": {"CUT_REG": "07", "CUT_PROV": "073", "CUT_COM": "07308", "REGION": "Maule", "PROVINCIA": "Curic\u00f3", "COMUNA": "Teno", "variable": "Centros de Educaci\u00f3n Parvularia", "Nombres": "JARDIN INFANTIL MAGIC CASTLE", "POINT_X": -71.16154, "POINT_Y": -34.868843}}, {"type": "Feature", "geometry": {"type": "Point", "coordinates": [-71.15815000000003, -34.86736999999999]}, "properties": {"CUT_REG": "07", "CUT_PROV": "073", "CUT_COM": "07308", "REGION": "Maule", "PROVINCIA": "Curic\u00f3", "COMUNA": "Teno", "variable": "Centros de Educaci\u00f3n Parvularia", "Nombres": "CENTRO EDUCACIONAL BUBI", "POINT_X": -71.15815, "POINT_Y": -34.86737}}, {"type": "Feature", "geometry": {"type": "Point", "coordinates": [-71.174755, -34.86672999999997]}, "properties": {"CUT_REG": "07", "CUT_PROV": "073", "CUT_COM": "07308", "REGION": "Maule", "PROVINCIA": "Curic\u00f3", "COMUNA": "Teno", "variable": "Centros de Educaci\u00f3n Parvularia", "Nombres": "DON SEBASTIAN II", "POINT_X": -71.174755, "POINT_Y": -34.86673}}, {"type": "Feature", "geometry": {"type": "Point", "coordinates": [-71.06784800000003, -34.86666100000003]}, "properties": {"CUT_REG": "07", "CUT_PROV": "073", "CUT_COM": "07308", "REGION": "Maule", "PROVINCIA": "Curic\u00f3", "COMUNA": "Teno", "variable": "Centros de Educaci\u00f3n Parvularia", "Nombres": "ESCUELA PDTE CARLOS IBANEZ DEL CAMPO", "POINT_X": -71.067848, "POINT_Y": -34.866661}}, {"type": "Feature", "geometry": {"type": "Point", "coordinates": [-71.02115600000002, -34.866439999999955]}, "properties": {"CUT_REG": "07", "CUT_PROV": "073", "CUT_COM": "07308", "REGION": "Maule", "PROVINCIA": "Curic\u00f3", "COMUNA": "Teno", "variable": "Centros de Educaci\u00f3n Parvularia", "Nombres": "ESCUELA LAS LIRAS", "POINT_X": -71.021156, "POINT_Y": -34.86644}}, {"type": "Feature", "geometry": {"type": "Point", "coordinates": [-71.33791399999998, -34.85950249999997]}, "properties": {"CUT_REG": "07", "CUT_PROV": "073", "CUT_COM": "07308", "REGION": "Maule", "PROVINCIA": "Curic\u00f3", "COMUNA": "Teno", "variable": "Centros de Educaci\u00f3n Parvularia", "Nombres": "SAN GERARDO", "POINT_X": -71.337914, "POINT_Y": -34.8595025}}, {"type": "Feature", "geometry": {"type": "Point", "coordinates": [-71.8663255, -34.85799400000003]}, "properties": {"CUT_REG": "07", "CUT_PROV": "073", "CUT_COM": "07302", "REGION": "Maule", "PROVINCIA": "Curic\u00f3", "COMUNA": "Huala\u00f1\u00e9", "variable": "Centros de Educaci\u00f3n Parvularia", "Nombres": "ESCUELA PARTICULAR SAN JOSE", "POINT_X": -71.8663255, "POINT_Y": -34.857994}}, {"type": "Feature", "geometry": {"type": "Point", "coordinates": [-71.83903899999996, -34.85773100000004]}, "properties": {"CUT_REG": "07", "CUT_PROV": "073", "CUT_COM": "07302", "REGION": "Maule", "PROVINCIA": "Curic\u00f3", "COMUNA": "Huala\u00f1\u00e9", "variable": "Centros de Educaci\u00f3n Parvularia", "Nombres": "ESCUELA REPUBLICA DE MEXICO", "POINT_X": -71.839039, "POINT_Y": -34.857731}}, {"type": "Feature", "geometry": {"type": "Point", "coordinates": [-72.04020699999995, -34.851608000000034]}, "properties": {"CUT_REG": "07", "CUT_PROV": "073", "CUT_COM": "07309", "REGION": "Maule", "PROVINCIA": "Curic\u00f3", "COMUNA": "Vichuqu\u00e9n", "variable": "Centros de Educaci\u00f3n Parvularia", "Nombres": "ESCUELA LAGO VICHUQUEN", "POINT_X": -72.040207, "POINT_Y": -34.851608}}, {"type": "Feature", "geometry": {"type": "Point", "coordinates": [-72.039819, -34.851583000000005]}, "properties": {"CUT_REG": "07", "CUT_PROV": "073", "CUT_COM": "07309", "REGION": "Maule", "PROVINCIA": "Curic\u00f3", "COMUNA": "Vichuqu\u00e9n", "variable": "Centros de Educaci\u00f3n Parvularia", "Nombres": "AQUELARRE", "POINT_X": -72.039819, "POINT_Y": -34.851583}}, {"type": "Feature", "geometry": {"type": "Point", "coordinates": [-71.26944, -34.848739999999964]}, "properties": {"CUT_REG": "07", "CUT_PROV": "073", "CUT_COM": "07308", "REGION": "Maule", "PROVINCIA": "Curic\u00f3", "COMUNA": "Teno", "variable": "Centros de Educaci\u00f3n Parvularia", "Nombres": "ESCUELA COMALLE", "POINT_X": -71.26944, "POINT_Y": -34.84874}}, {"type": "Feature", "geometry": {"type": "Point", "coordinates": [-71.10427299999999, -34.840536]}, "properties": {"CUT_REG": "07", "CUT_PROV": "073", "CUT_COM": "07308", "REGION": "Maule", "PROVINCIA": "Curic\u00f3", "COMUNA": "Teno", "variable": "Centros de Educaci\u00f3n Parvularia", "Nombres": "LUCHITO", "POINT_X": -71.104273, "POINT_Y": -34.840536}}, {"type": "Feature", "geometry": {"type": "Point", "coordinates": [-70.99365999999998, -34.83499899999999]}, "properties": {"CUT_REG": "07", "CUT_PROV": "073", "CUT_COM": "07308", "REGION": "Maule", "PROVINCIA": "Curic\u00f3", "COMUNA": "Teno", "variable": "Centros de Educaci\u00f3n Parvularia", "Nombres": "ESCUELA HUEMUL", "POINT_X": -70.99366, "POINT_Y": -34.834999}}, {"type": "Feature", "geometry": {"type": "Point", "coordinates": [-72.12690590099999, -34.814320922500016]}, "properties": {"CUT_REG": "07", "CUT_PROV": "073", "CUT_COM": "07309", "REGION": "Maule", "PROVINCIA": "Curic\u00f3", "COMUNA": "Vichuqu\u00e9n", "variable": "Centros de Educaci\u00f3n Parvularia", "Nombres": "PEDRO DE VALDIVIA", "POINT_X": -72.126905901, "POINT_Y": -34.8143209225}}, {"type": "Feature", "geometry": {"type": "Point", "coordinates": [-72.04313577499998, -34.79025764]}, "properties": {"CUT_REG": "07", "CUT_PROV": "073", "CUT_COM": "07309", "REGION": "Maule", "PROVINCIA": "Curic\u00f3", "COMUNA": "Vichuqu\u00e9n", "variable": "Centros de Educaci\u00f3n Parvularia", "Nombres": "ANGELITOS DE AMOR", "POINT_X": -72.043135775, "POINT_Y": -34.79025764}}, {"type": "Feature", "geometry": {"type": "Point", "coordinates": [-72.077698, -34.76076900000001]}, "properties": {"CUT_REG": "07", "CUT_PROV": "073", "CUT_COM": "07309", "REGION": "Maule", "PROVINCIA": "Curic\u00f3", "COMUNA": "Vichuqu\u00e9n", "variable": "Centros de Educaci\u00f3n Parvularia", "Nombres": "ESCUELA ENTRE AGUAS DE LLICO", "POINT_X": -72.077698, "POINT_Y": -34.760769}}, {"type": "Feature", "geometry": {"type": "Point", "coordinates": [-72.04924000000003, -34.68928099999998]}, "properties": {"CUT_REG": "07", "CUT_PROV": "073", "CUT_COM": "07309", "REGION": "Maule", "PROVINCIA": "Curic\u00f3", "COMUNA": "Vichuqu\u00e9n", "variable": "Centros de Educaci\u00f3n Parvularia", "Nombres": "ESCUELA EMA CORNEJO DE CARDOEN", "POINT_X": -72.04924, "POINT_Y": -34.689281}}]}