{"type": "FeatureCollection", "features": [{"type": "Feature", "geometry": {"type": "Point", "coordinates": [-71.35391999999996, -38.06446800000004]}, "properties": {"CUT_REG": "08", "CUT_PROV": "083", "CUT_COM": "08314", "REGION": "Biob\u00edo", "PROVINCIA": "Biob\u00edo", "COMUNA": "Alto Biob\u00edo", "variable": "Centros de Educaci\u00f3n Parvularia", "Nombres": "ESCUELA RALCO LEPOY", "POINT_X": -71.35392, "POINT_Y": -38.064468}}, {"type": "Feature", "geometry": {"type": "Point", "coordinates": [-71.306723, -38.01006999999997]}, "properties": {"CUT_REG": "08", "CUT_PROV": "083", "CUT_COM": "08314", "REGION": "Biob\u00edo", "PROVINCIA": "Biob\u00edo", "COMUNA": "Alto Biob\u00edo", "variable": "Centros de Educaci\u00f3n Parvularia", "Nombres": "KIMCHE-EL BARCO", "POINT_X": -71.306723, "POINT_Y": -38.01007}}, {"type": "Feature", "geometry": {"type": "Point", "coordinates": [-71.63719200000003, -37.88008100000003]}, "properties": {"CUT_REG": "08", "CUT_PROV": "083", "CUT_COM": "08314", "REGION": "Biob\u00edo", "PROVINCIA": "Biob\u00edo", "COMUNA": "Alto Biob\u00edo", "variable": "Centros de Educaci\u00f3n Parvularia", "Nombres": "ESCUELA DE CONCENTRACI\u00d3N FRONTERIZA RALCO ALTO BIOB\u00cdO", "POINT_X": -71.637192, "POINT_Y": -37.880081}}, {"type": "Feature", "geometry": {"type": "Point", "coordinates": [-71.64415670699995, -37.87528754999999]}, "properties": {"CUT_REG": "08", "CUT_PROV": "083", "CUT_COM": "08314", "REGION": "Biob\u00edo", "PROVINCIA": "Biob\u00edo", "COMUNA": "Alto Biob\u00edo", "variable": "Centros de Educaci\u00f3n Parvularia", "Nombres": "ETNICO CALLAQUI", "POINT_X": -71.644156707, "POINT_Y": -37.87528755}}, {"type": "Feature", "geometry": {"type": "Point", "coordinates": [-71.67001299999995, -37.85515999999996]}, "properties": {"CUT_REG": "08", "CUT_PROV": "083", "CUT_COM": "08314", "REGION": "Biob\u00edo", "PROVINCIA": "Biob\u00edo", "COMUNA": "Alto Biob\u00edo", "variable": "Centros de Educaci\u00f3n Parvularia", "Nombres": "ESCUELA CALLAQUI", "POINT_X": -71.670013, "POINT_Y": -37.85516}}, {"type": "Feature", "geometry": {"type": "Point", "coordinates": [-71.57373934599994, -37.833064578000005]}, "properties": {"CUT_REG": "08", "CUT_PROV": "083", "CUT_COM": "08314", "REGION": "Biob\u00edo", "PROVINCIA": "Biob\u00edo", "COMUNA": "Alto Biob\u00edo", "variable": "Centros de Educaci\u00f3n Parvularia", "Nombres": "RALCO LEPOY(ETNICO)", "POINT_X": -71.573739346, "POINT_Y": -37.833064578}}, {"type": "Feature", "geometry": {"type": "Point", "coordinates": [-71.56996199999996, -37.83290099999997]}, "properties": {"CUT_REG": "08", "CUT_PROV": "083", "CUT_COM": "08314", "REGION": "Biob\u00edo", "PROVINCIA": "Biob\u00edo", "COMUNA": "Alto Biob\u00edo", "variable": "Centros de Educaci\u00f3n Parvularia", "Nombres": "ESCUELA BASICA PITRIL", "POINT_X": -71.569962, "POINT_Y": -37.832901}}, {"type": "Feature", "geometry": {"type": "Point", "coordinates": [-72.244362, -37.82779400000001]}, "properties": {"CUT_REG": "08", "CUT_PROV": "083", "CUT_COM": "08305", "REGION": "Biob\u00edo", "PROVINCIA": "Biob\u00edo", "COMUNA": "Mulch\u00e9n", "variable": "Centros de Educaci\u00f3n Parvularia", "Nombres": "ESPIGUITA", "POINT_X": -72.244362, "POINT_Y": -37.827794}}, {"type": "Feature", "geometry": {"type": "Point", "coordinates": [-72.40293822800004, -37.807392327999956]}, "properties": {"CUT_REG": "08", "CUT_PROV": "083", "CUT_COM": "08305", "REGION": "Biob\u00edo", "PROVINCIA": "Biob\u00edo", "COMUNA": "Mulch\u00e9n", "variable": "Centros de Educaci\u00f3n Parvularia", "Nombres": "ALHUELEMU", "POINT_X": -72.402938228, "POINT_Y": -37.807392328}}, {"type": "Feature", "geometry": {"type": "Point", "coordinates": [-71.75547800000004, -37.780028999999956]}, "properties": {"CUT_REG": "08", "CUT_PROV": "083", "CUT_COM": "08308", "REGION": "Biob\u00edo", "PROVINCIA": "Biob\u00edo", "COMUNA": "Quilaco", "variable": "Centros de Educaci\u00f3n Parvularia", "Nombres": "ESCUELA BASICA LONCOPANGUE", "POINT_X": -71.755478, "POINT_Y": -37.780029}}, {"type": "Feature", "geometry": {"type": "Point", "coordinates": [-72.19628616599996, -37.77363379379997]}, "properties": {"CUT_REG": "08", "CUT_PROV": "083", "CUT_COM": "08305", "REGION": "Biob\u00edo", "PROVINCIA": "Biob\u00edo", "COMUNA": "Mulch\u00e9n", "variable": "Centros de Educaci\u00f3n Parvularia", "Nombres": "PEUMAYEN", "POINT_X": -72.196286166, "POINT_Y": -37.7736337938}}, {"type": "Feature", "geometry": {"type": "Point", "coordinates": [-72.30881550000001, -37.754030999999955]}, "properties": {"CUT_REG": "08", "CUT_PROV": "083", "CUT_COM": "08305", "REGION": "Biob\u00edo", "PROVINCIA": "Biob\u00edo", "COMUNA": "Mulch\u00e9n", "variable": "Centros de Educaci\u00f3n Parvularia", "Nombres": "LOS PUMITAS", "POINT_X": -72.3088155, "POINT_Y": -37.754031}}, {"type": "Feature", "geometry": {"type": "Point", "coordinates": [-72.24258399999997, -37.73692699999999]}, "properties": {"CUT_REG": "08", "CUT_PROV": "083", "CUT_COM": "08305", "REGION": "Biob\u00edo", "PROVINCIA": "Biob\u00edo", "COMUNA": "Mulch\u00e9n", "variable": "Centros de Educaci\u00f3n Parvularia", "Nombres": "ESCUELA ESPECIAL DE LENGUAJE ADONAY", "POINT_X": -72.242584, "POINT_Y": -37.736927}}, {"type": "Feature", "geometry": {"type": "Point", "coordinates": [-71.22134500000001, -37.73181699999996]}, "properties": {"CUT_REG": "08", "CUT_PROV": "083", "CUT_COM": "08314", "REGION": "Biob\u00edo", "PROVINCIA": "Biob\u00edo", "COMUNA": "Alto Biob\u00edo", "variable": "Centros de Educaci\u00f3n Parvularia", "Nombres": "KUPULWE-TRAPA TRAPA", "POINT_X": -71.221345, "POINT_Y": -37.731817}}, {"type": "Feature", "geometry": {"type": "Point", "coordinates": [-72.236777206, -37.731182346000026]}, "properties": {"CUT_REG": "08", "CUT_PROV": "083", "CUT_COM": "08305", "REGION": "Biob\u00edo", "PROVINCIA": "Biob\u00edo", "COMUNA": "Mulch\u00e9n", "variable": "Centros de Educaci\u00f3n Parvularia", "Nombres": "VILLA LA GRANJA", "POINT_X": -72.236777206, "POINT_Y": -37.731182346}}, {"type": "Feature", "geometry": {"type": "Point", "coordinates": [-72.23590900000002, -37.73067900000003]}, "properties": {"CUT_REG": "08", "CUT_PROV": "083", "CUT_COM": "08305", "REGION": "Biob\u00edo", "PROVINCIA": "Biob\u00edo", "COMUNA": "Mulch\u00e9n", "variable": "Centros de Educaci\u00f3n Parvularia", "Nombres": "ESCUELA VILLA LA GRANJA", "POINT_X": -72.235909, "POINT_Y": -37.730679}}, {"type": "Feature", "geometry": {"type": "Point", "coordinates": [-72.23435439100001, -37.72973956400002]}, "properties": {"CUT_REG": "08", "CUT_PROV": "083", "CUT_COM": "08305", "REGION": "Biob\u00edo", "PROVINCIA": "Biob\u00edo", "COMUNA": "Mulch\u00e9n", "variable": "Centros de Educaci\u00f3n Parvularia", "Nombres": "VILLA REHUEN", "POINT_X": -72.234354391, "POINT_Y": -37.729739564}}, {"type": "Feature", "geometry": {"type": "Point", "coordinates": [-72.232948, -37.72634899999997]}, "properties": {"CUT_REG": "08", "CUT_PROV": "083", "CUT_COM": "08305", "REGION": "Biob\u00edo", "PROVINCIA": "Biob\u00edo", "COMUNA": "Mulch\u00e9n", "variable": "Centros de Educaci\u00f3n Parvularia", "Nombres": "ESCUELA SACERDOTE ALEJANDRO MANERA", "POINT_X": -72.232948, "POINT_Y": -37.726349}}, {"type": "Feature", "geometry": {"type": "Point", "coordinates": [-72.23481999999998, -37.72321799999999]}, "properties": {"CUT_REG": "08", "CUT_PROV": "083", "CUT_COM": "08305", "REGION": "Biob\u00edo", "PROVINCIA": "Biob\u00edo", "COMUNA": "Mulch\u00e9n", "variable": "Centros de Educaci\u00f3n Parvularia", "Nombres": "LAS DALIAS", "POINT_X": -72.23482, "POINT_Y": -37.723218}}, {"type": "Feature", "geometry": {"type": "Point", "coordinates": [-72.25544900000003, -37.72264400000002]}, "properties": {"CUT_REG": "08", "CUT_PROV": "083", "CUT_COM": "08305", "REGION": "Biob\u00edo", "PROVINCIA": "Biob\u00edo", "COMUNA": "Mulch\u00e9n", "variable": "Centros de Educaci\u00f3n Parvularia", "Nombres": "AGUA CRISTALINA", "POINT_X": -72.255449, "POINT_Y": -37.722644}}, {"type": "Feature", "geometry": {"type": "Point", "coordinates": [-72.23800699999998, -37.72254899999997]}, "properties": {"CUT_REG": "08", "CUT_PROV": "083", "CUT_COM": "08305", "REGION": "Biob\u00edo", "PROVINCIA": "Biob\u00edo", "COMUNA": "Mulch\u00e9n", "variable": "Centros de Educaci\u00f3n Parvularia", "Nombres": "ESCUELA SAN BERNARDINO DE SENA", "POINT_X": -72.238007, "POINT_Y": -37.722549}}, {"type": "Feature", "geometry": {"type": "Point", "coordinates": [-72.24124100000003, -37.72240800000003]}, "properties": {"CUT_REG": "08", "CUT_PROV": "083", "CUT_COM": "08305", "REGION": "Biob\u00edo", "PROVINCIA": "Biob\u00edo", "COMUNA": "Mulch\u00e9n", "variable": "Centros de Educaci\u00f3n Parvularia", "Nombres": "ESCUELA BASICA MULCHEN", "POINT_X": -72.241241, "POINT_Y": -37.722408}}, {"type": "Feature", "geometry": {"type": "Point", "coordinates": [-72.24329399999999, -37.72095900000004]}, "properties": {"CUT_REG": "08", "CUT_PROV": "083", "CUT_COM": "08305", "REGION": "Biob\u00edo", "PROVINCIA": "Biob\u00edo", "COMUNA": "Mulch\u00e9n", "variable": "Centros de Educaci\u00f3n Parvularia", "Nombres": "COLEGIO UMBRALES DEL ALBA", "POINT_X": -72.243294, "POINT_Y": -37.720959}}, {"type": "Feature", "geometry": {"type": "Point", "coordinates": [-72.25050399999996, -37.720951]}, "properties": {"CUT_REG": "08", "CUT_PROV": "083", "CUT_COM": "08305", "REGION": "Biob\u00edo", "PROVINCIA": "Biob\u00edo", "COMUNA": "Mulch\u00e9n", "variable": "Centros de Educaci\u00f3n Parvularia", "Nombres": "ESCUELA IGNACIO VERDUGO CAVADA", "POINT_X": -72.250504, "POINT_Y": -37.720951}}, {"type": "Feature", "geometry": {"type": "Point", "coordinates": [-72.25044299999999, -37.72055799999999]}, "properties": {"CUT_REG": "08", "CUT_PROV": "083", "CUT_COM": "08305", "REGION": "Biob\u00edo", "PROVINCIA": "Biob\u00edo", "COMUNA": "Mulch\u00e9n", "variable": "Centros de Educaci\u00f3n Parvularia", "Nombres": "COLEGIO BORDERIO", "POINT_X": -72.250443, "POINT_Y": -37.720558}}, {"type": "Feature", "geometry": {"type": "Point", "coordinates": [-72.25338299999996, -37.720525000000016]}, "properties": {"CUT_REG": "08", "CUT_PROV": "083", "CUT_COM": "08305", "REGION": "Biob\u00edo", "PROVINCIA": "Biob\u00edo", "COMUNA": "Mulch\u00e9n", "variable": "Centros de Educaci\u00f3n Parvularia", "Nombres": "LELIANTU", "POINT_X": -72.253383, "POINT_Y": -37.720525}}, {"type": "Feature", "geometry": {"type": "Point", "coordinates": [-72.24098999999997, -37.71893000000003]}, "properties": {"CUT_REG": "08", "CUT_PROV": "083", "CUT_COM": "08305", "REGION": "Biob\u00edo", "PROVINCIA": "Biob\u00edo", "COMUNA": "Mulch\u00e9n", "variable": "Centros de Educaci\u00f3n Parvularia", "Nombres": "ESCUELA DE LENGUAJE TIERRA DE NI\u00d1OS", "POINT_X": -72.24099, "POINT_Y": -37.71893}}, {"type": "Feature", "geometry": {"type": "Point", "coordinates": [-72.24408999999996, -37.71887000000004]}, "properties": {"CUT_REG": "08", "CUT_PROV": "083", "CUT_COM": "08305", "REGION": "Biob\u00edo", "PROVINCIA": "Biob\u00edo", "COMUNA": "Mulch\u00e9n", "variable": "Centros de Educaci\u00f3n Parvularia", "Nombres": "ESCUELA DE LENGUAJE ATRAPA PALABRAS", "POINT_X": -72.24409, "POINT_Y": -37.71887}}, {"type": "Feature", "geometry": {"type": "Point", "coordinates": [-72.23813365399997, -37.718380108000005]}, "properties": {"CUT_REG": "08", "CUT_PROV": "083", "CUT_COM": "08305", "REGION": "Biob\u00edo", "PROVINCIA": "Biob\u00edo", "COMUNA": "Mulch\u00e9n", "variable": "Centros de Educaci\u00f3n Parvularia", "Nombres": "MI DESPERTAR", "POINT_X": -72.238133654, "POINT_Y": -37.718380108}}, {"type": "Feature", "geometry": {"type": "Point", "coordinates": [-72.23743000000002, -37.717880000000015]}, "properties": {"CUT_REG": "08", "CUT_PROV": "083", "CUT_COM": "08305", "REGION": "Biob\u00edo", "PROVINCIA": "Biob\u00edo", "COMUNA": "Mulch\u00e9n", "variable": "Centros de Educaci\u00f3n Parvularia", "Nombres": "ESCUELA ESPECIAL DE LENGUAJE EL CERESITO", "POINT_X": -72.23743, "POINT_Y": -37.71788}}, {"type": "Feature", "geometry": {"type": "Point", "coordinates": [-72.23675199999997, -37.71315900000002]}, "properties": {"CUT_REG": "08", "CUT_PROV": "083", "CUT_COM": "08305", "REGION": "Biob\u00edo", "PROVINCIA": "Biob\u00edo", "COMUNA": "Mulch\u00e9n", "variable": "Centros de Educaci\u00f3n Parvularia", "Nombres": "BUREO", "POINT_X": -72.236752, "POINT_Y": -37.713159}}, {"type": "Feature", "geometry": {"type": "Point", "coordinates": [-72.10864749999999, -37.711991374999954]}, "properties": {"CUT_REG": "08", "CUT_PROV": "083", "CUT_COM": "08305", "REGION": "Biob\u00edo", "PROVINCIA": "Biob\u00edo", "COMUNA": "Mulch\u00e9n", "variable": "Centros de Educaci\u00f3n Parvularia", "Nombres": "AGUALUNA", "POINT_X": -72.1086475, "POINT_Y": -37.711991375}}, {"type": "Feature", "geometry": {"type": "Point", "coordinates": [-72.24057799999999, -37.711449000000016]}, "properties": {"CUT_REG": "08", "CUT_PROV": "083", "CUT_COM": "08305", "REGION": "Biob\u00edo", "PROVINCIA": "Biob\u00edo", "COMUNA": "Mulch\u00e9n", "variable": "Centros de Educaci\u00f3n Parvularia", "Nombres": "ESCUELA BASICA VILLA LAS PENAS", "POINT_X": -72.240578, "POINT_Y": -37.711449}}, {"type": "Feature", "geometry": {"type": "Point", "coordinates": [-72.13939867299999, -37.68528731699997]}, "properties": {"CUT_REG": "08", "CUT_PROV": "083", "CUT_COM": "08305", "REGION": "Biob\u00edo", "PROVINCIA": "Biob\u00edo", "COMUNA": "Mulch\u00e9n", "variable": "Centros de Educaci\u00f3n Parvularia", "Nombres": "GOTITAS DE AMOR", "POINT_X": -72.139398673, "POINT_Y": -37.685287317}}, {"type": "Feature", "geometry": {"type": "Point", "coordinates": [-71.99914999999999, -37.68482999999997]}, "properties": {"CUT_REG": "08", "CUT_PROV": "083", "CUT_COM": "08308", "REGION": "Biob\u00edo", "PROVINCIA": "Biob\u00edo", "COMUNA": "Quilaco", "variable": "Centros de Educaci\u00f3n Parvularia", "Nombres": "ESCUELA ESPECIAL DE LENGUAJE EL SOL DE QUILACO", "POINT_X": -71.99915, "POINT_Y": -37.68483}}, {"type": "Feature", "geometry": {"type": "Point", "coordinates": [-72.00170100000003, -37.68405199999999]}, "properties": {"CUT_REG": "08", "CUT_PROV": "083", "CUT_COM": "08308", "REGION": "Biob\u00edo", "PROVINCIA": "Biob\u00edo", "COMUNA": "Quilaco", "variable": "Centros de Educaci\u00f3n Parvularia", "Nombres": "INSTITUTO VALLE DEL SOL QUILACO", "POINT_X": -72.001701, "POINT_Y": -37.684052}}, {"type": "Feature", "geometry": {"type": "Point", "coordinates": [-72.10955050000001, -37.67614200000001]}, "properties": {"CUT_REG": "08", "CUT_PROV": "083", "CUT_COM": "08308", "REGION": "Biob\u00edo", "PROVINCIA": "Biob\u00edo", "COMUNA": "Quilaco", "variable": "Centros de Educaci\u00f3n Parvularia", "Nombres": "ESCUELA EL MAITEN", "POINT_X": -72.1095505, "POINT_Y": -37.676142}}, {"type": "Feature", "geometry": {"type": "Point", "coordinates": [-72.28950291999999, -37.67540224]}, "properties": {"CUT_REG": "08", "CUT_PROV": "083", "CUT_COM": "08305", "REGION": "Biob\u00edo", "PROVINCIA": "Biob\u00edo", "COMUNA": "Mulch\u00e9n", "variable": "Centros de Educaci\u00f3n Parvularia", "Nombres": "CENTRO EDUCACIONAL SAN ANDRES", "POINT_X": -72.28950292, "POINT_Y": -37.67540224}}, {"type": "Feature", "geometry": {"type": "Point", "coordinates": [-72.027527, -37.67000999999998]}, "properties": {"CUT_REG": "08", "CUT_PROV": "083", "CUT_COM": "08311", "REGION": "Biob\u00edo", "PROVINCIA": "Biob\u00edo", "COMUNA": "Santa B\u00e1rbara", "variable": "Centros de Educaci\u00f3n Parvularia", "Nombres": "ESCUELA B\u00c1SICA CACIQUE LEVI\u00c1N", "POINT_X": -72.027527, "POINT_Y": -37.67001}}, {"type": "Feature", "geometry": {"type": "Point", "coordinates": [-72.02143385099998, -37.669682350000045]}, "properties": {"CUT_REG": "08", "CUT_PROV": "083", "CUT_COM": "08311", "REGION": "Biob\u00edo", "PROVINCIA": "Biob\u00edo", "COMUNA": "Santa B\u00e1rbara", "variable": "Centros de Educaci\u00f3n Parvularia", "Nombres": "JUAN WESLEY", "POINT_X": -72.021433851, "POINT_Y": -37.66968235}}, {"type": "Feature", "geometry": {"type": "Point", "coordinates": [-72.025162, -37.66907900000004]}, "properties": {"CUT_REG": "08", "CUT_PROV": "083", "CUT_COM": "08311", "REGION": "Biob\u00edo", "PROVINCIA": "Biob\u00edo", "COMUNA": "Santa B\u00e1rbara", "variable": "Centros de Educaci\u00f3n Parvularia", "Nombres": "ARAUCARIA SCHOOL", "POINT_X": -72.025162, "POINT_Y": -37.669079}}, {"type": "Feature", "geometry": {"type": "Point", "coordinates": [-72.02516173999997, -37.669078830000025]}, "properties": {"CUT_REG": "08", "CUT_PROV": "083", "CUT_COM": "08311", "REGION": "Biob\u00edo", "PROVINCIA": "Biob\u00edo", "COMUNA": "Santa B\u00e1rbara", "variable": "Centros de Educaci\u00f3n Parvularia", "Nombres": "ESCUELA B\u00c1SICA ENRIQUE BERNSTEIN CARABANTES", "POINT_X": -72.02516174, "POINT_Y": -37.66907883}}, {"type": "Feature", "geometry": {"type": "Point", "coordinates": [-72.02134699999999, -37.667110000000015]}, "properties": {"CUT_REG": "08", "CUT_PROV": "083", "CUT_COM": "08311", "REGION": "Biob\u00edo", "PROVINCIA": "Biob\u00edo", "COMUNA": "Santa B\u00e1rbara", "variable": "Centros de Educaci\u00f3n Parvularia", "Nombres": "COLEGIO SANTA BARBARA", "POINT_X": -72.021347, "POINT_Y": -37.66711}}, {"type": "Feature", "geometry": {"type": "Point", "coordinates": [-72.01634999999999, -37.666977000000024]}, "properties": {"CUT_REG": "08", "CUT_PROV": "083", "CUT_COM": "08311", "REGION": "Biob\u00edo", "PROVINCIA": "Biob\u00edo", "COMUNA": "Santa B\u00e1rbara", "variable": "Centros de Educaci\u00f3n Parvularia", "Nombres": "ESCUELA ESPECIAL LOS NARANJOS", "POINT_X": -72.01635, "POINT_Y": -37.666977}}, {"type": "Feature", "geometry": {"type": "Point", "coordinates": [-72.02477900000001, -37.66485099999998]}, "properties": {"CUT_REG": "08", "CUT_PROV": "083", "CUT_COM": "08311", "REGION": "Biob\u00edo", "PROVINCIA": "Biob\u00edo", "COMUNA": "Santa B\u00e1rbara", "variable": "Centros de Educaci\u00f3n Parvularia", "Nombres": "ALASKA", "POINT_X": -72.024779, "POINT_Y": -37.664851}}, {"type": "Feature", "geometry": {"type": "Point", "coordinates": [-71.864799, -37.66230000000002]}, "properties": {"CUT_REG": "08", "CUT_PROV": "083", "CUT_COM": "08311", "REGION": "Biob\u00edo", "PROVINCIA": "Biob\u00edo", "COMUNA": "Santa B\u00e1rbara", "variable": "Centros de Educaci\u00f3n Parvularia", "Nombres": "ESCUELA MARIANO PUGA VEGA", "POINT_X": -71.864799, "POINT_Y": -37.6623}}, {"type": "Feature", "geometry": {"type": "Point", "coordinates": [-71.65799119300002, -37.64544532099999]}, "properties": {"CUT_REG": "08", "CUT_PROV": "083", "CUT_COM": "08311", "REGION": "Biob\u00edo", "PROVINCIA": "Biob\u00edo", "COMUNA": "Santa B\u00e1rbara", "variable": "Centros de Educaci\u00f3n Parvularia", "Nombres": "LOS ANGELITOS", "POINT_X": -71.657991193, "POINT_Y": -37.645445321}}, {"type": "Feature", "geometry": {"type": "Point", "coordinates": [-72.17156999999997, -37.644259999999974]}, "properties": {"CUT_REG": "08", "CUT_PROV": "083", "CUT_COM": "08301", "REGION": "Biob\u00edo", "PROVINCIA": "Biob\u00edo", "COMUNA": "Los Angeles", "variable": "Centros de Educaci\u00f3n Parvularia", "Nombres": "ESCUELA LOS BOLDOS", "POINT_X": -72.17157, "POINT_Y": -37.64426}}, {"type": "Feature", "geometry": {"type": "Point", "coordinates": [-72.17113702300003, -37.643599141]}, "properties": {"CUT_REG": "08", "CUT_PROV": "083", "CUT_COM": "08311", "REGION": "Biob\u00edo", "PROVINCIA": "Biob\u00edo", "COMUNA": "Santa B\u00e1rbara", "variable": "Centros de Educaci\u00f3n Parvularia", "Nombres": "RONDA DE NI\u00d1OS Y NI\u00d1AS", "POINT_X": -72.171137023, "POINT_Y": -37.643599141}}, {"type": "Feature", "geometry": {"type": "Point", "coordinates": [-71.77250700000002, -37.64134999999998]}, "properties": {"CUT_REG": "08", "CUT_PROV": "083", "CUT_COM": "08311", "REGION": "Biob\u00edo", "PROVINCIA": "Biob\u00edo", "COMUNA": "Santa B\u00e1rbara", "variable": "Centros de Educaci\u00f3n Parvularia", "Nombres": "ESCUELA DE EDUCACI\u00d3N GENERAL B\u00c1SICA EL HUACHI", "POINT_X": -71.772507, "POINT_Y": -37.64135}}, {"type": "Feature", "geometry": {"type": "Point", "coordinates": [-72.15111350000001, -37.63850399999996]}, "properties": {"CUT_REG": "08", "CUT_PROV": "083", "CUT_COM": "08311", "REGION": "Biob\u00edo", "PROVINCIA": "Biob\u00edo", "COMUNA": "Santa B\u00e1rbara", "variable": "Centros de Educaci\u00f3n Parvularia", "Nombres": "COLEGIO SAN FRANCISCO DE ASIS", "POINT_X": -72.1511135, "POINT_Y": -37.638504}}, {"type": "Feature", "geometry": {"type": "Point", "coordinates": [-72.59307100000001, -37.626011000000034]}, "properties": {"CUT_REG": "08", "CUT_PROV": "083", "CUT_COM": "08307", "REGION": "Biob\u00edo", "PROVINCIA": "Biob\u00edo", "COMUNA": "Negrete", "variable": "Centros de Educaci\u00f3n Parvularia", "Nombres": "ESCUELA BASICA RIHUE", "POINT_X": -72.593071, "POINT_Y": -37.626011}}, {"type": "Feature", "geometry": {"type": "Point", "coordinates": [-72.593073001, -37.62547803999999]}, "properties": {"CUT_REG": "08", "CUT_PROV": "083", "CUT_COM": "08307", "REGION": "Biob\u00edo", "PROVINCIA": "Biob\u00edo", "COMUNA": "Negrete", "variable": "Centros de Educaci\u00f3n Parvularia", "Nombres": "SEMILLITAS(CECI)", "POINT_X": -72.593073001, "POINT_Y": -37.62547804}}, {"type": "Feature", "geometry": {"type": "Point", "coordinates": [-72.54927799999996, -37.62540100000001]}, "properties": {"CUT_REG": "08", "CUT_PROV": "083", "CUT_COM": "08307", "REGION": "Biob\u00edo", "PROVINCIA": "Biob\u00edo", "COMUNA": "Negrete", "variable": "Centros de Educaci\u00f3n Parvularia", "Nombres": "ESCUELA BASICA VAQUERIA", "POINT_X": -72.549278, "POINT_Y": -37.625401}}, {"type": "Feature", "geometry": {"type": "Point", "coordinates": [-72.03797174000002, -37.62494335999998]}, "properties": {"CUT_REG": "08", "CUT_PROV": "083", "CUT_COM": "08311", "REGION": "Biob\u00edo", "PROVINCIA": "Biob\u00edo", "COMUNA": "Santa B\u00e1rbara", "variable": "Centros de Educaci\u00f3n Parvularia", "Nombres": "ESCUELA PADRE ALBERTO HURTADO", "POINT_X": -72.03797174, "POINT_Y": -37.62494336}}, {"type": "Feature", "geometry": {"type": "Point", "coordinates": [-72.10552999999996, -37.62456900000001]}, "properties": {"CUT_REG": "08", "CUT_PROV": "083", "CUT_COM": "08311", "REGION": "Biob\u00edo", "PROVINCIA": "Biob\u00edo", "COMUNA": "Santa B\u00e1rbara", "variable": "Centros de Educaci\u00f3n Parvularia", "Nombres": "ESCUELA BASICA MANIL", "POINT_X": -72.10553, "POINT_Y": -37.624569}}, {"type": "Feature", "geometry": {"type": "Point", "coordinates": [-72.30136500000003, -37.59581949999998]}, "properties": {"CUT_REG": "08", "CUT_PROV": "083", "CUT_COM": "08305", "REGION": "Biob\u00edo", "PROVINCIA": "Biob\u00edo", "COMUNA": "Mulch\u00e9n", "variable": "Centros de Educaci\u00f3n Parvularia", "Nombres": "ESCUELA BLANCO ENCALADA", "POINT_X": -72.301365, "POINT_Y": -37.5958195}}, {"type": "Feature", "geometry": {"type": "Point", "coordinates": [-72.27690100000004, -37.59513100000004]}, "properties": {"CUT_REG": "08", "CUT_PROV": "083", "CUT_COM": "08301", "REGION": "Biob\u00edo", "PROVINCIA": "Biob\u00edo", "COMUNA": "Los Angeles", "variable": "Centros de Educaci\u00f3n Parvularia", "Nombres": "ESCUELA B\u00c1SICA HITILHUE", "POINT_X": -72.276901, "POINT_Y": -37.595131}}, {"type": "Feature", "geometry": {"type": "Point", "coordinates": [-72.27597399999999, -37.59487999999996]}, "properties": {"CUT_REG": "08", "CUT_PROV": "083", "CUT_COM": "08301", "REGION": "Biob\u00edo", "PROVINCIA": "Biob\u00edo", "COMUNA": "Los Angeles", "variable": "Centros de Educaci\u00f3n Parvularia", "Nombres": "EL FUERTECITO (CECI)", "POINT_X": -72.275974, "POINT_Y": -37.59488}}, {"type": "Feature", "geometry": {"type": "Point", "coordinates": [-72.53238479900003, -37.58501719999997]}, "properties": {"CUT_REG": "08", "CUT_PROV": "083", "CUT_COM": "08307", "REGION": "Biob\u00edo", "PROVINCIA": "Biob\u00edo", "COMUNA": "Negrete", "variable": "Centros de Educaci\u00f3n Parvularia", "Nombres": "PIECESITOS DE AYUN", "POINT_X": -72.532384799, "POINT_Y": -37.5850172}}, {"type": "Feature", "geometry": {"type": "Point", "coordinates": [-72.52621499999998, -37.58479299999998]}, "properties": {"CUT_REG": "08", "CUT_PROV": "083", "CUT_COM": "08307", "REGION": "Biob\u00edo", "PROVINCIA": "Biob\u00edo", "COMUNA": "Negrete", "variable": "Centros de Educaci\u00f3n Parvularia", "Nombres": "ESCUELA ESPECIAL DE LENGUAJE ANTUKUYEN", "POINT_X": -72.526215, "POINT_Y": -37.584793}}, {"type": "Feature", "geometry": {"type": "Point", "coordinates": [-72.54748500000002, -37.58458000000003]}, "properties": {"CUT_REG": "08", "CUT_PROV": "083", "CUT_COM": "08307", "REGION": "Biob\u00edo", "PROVINCIA": "Biob\u00edo", "COMUNA": "Negrete", "variable": "Centros de Educaci\u00f3n Parvularia", "Nombres": "ESCUELA ESPECIAL LOS GIRASOLES", "POINT_X": -72.547485, "POINT_Y": -37.58458}}, {"type": "Feature", "geometry": {"type": "Point", "coordinates": [-72.53233300000001, -37.583790000000036]}, "properties": {"CUT_REG": "08", "CUT_PROV": "083", "CUT_COM": "08307", "REGION": "Biob\u00edo", "PROVINCIA": "Biob\u00edo", "COMUNA": "Negrete", "variable": "Centros de Educaci\u00f3n Parvularia", "Nombres": "LICEO POLIVALENTE LA FRONTERA", "POINT_X": -72.532333, "POINT_Y": -37.58379}}, {"type": "Feature", "geometry": {"type": "Point", "coordinates": [-72.17941300000001, -37.563659999999985]}, "properties": {"CUT_REG": "08", "CUT_PROV": "083", "CUT_COM": "08301", "REGION": "Biob\u00edo", "PROVINCIA": "Biob\u00edo", "COMUNA": "Los Angeles", "variable": "Centros de Educaci\u00f3n Parvularia", "Nombres": "LICEO AGROINDUSTRIAL LLANO BLANCO", "POINT_X": -72.179413, "POINT_Y": -37.56366}}, {"type": "Feature", "geometry": {"type": "Point", "coordinates": [-72.59565300000003, -37.556735999999965]}, "properties": {"CUT_REG": "08", "CUT_PROV": "083", "CUT_COM": "08307", "REGION": "Biob\u00edo", "PROVINCIA": "Biob\u00edo", "COMUNA": "Negrete", "variable": "Centros de Educaci\u00f3n Parvularia", "Nombres": "TRENCITO DE COIGUE", "POINT_X": -72.595653, "POINT_Y": -37.556736}}, {"type": "Feature", "geometry": {"type": "Point", "coordinates": [-71.910583, -37.555809]}, "properties": {"CUT_REG": "08", "CUT_PROV": "083", "CUT_COM": "08311", "REGION": "Biob\u00edo", "PROVINCIA": "Biob\u00edo", "COMUNA": "Santa B\u00e1rbara", "variable": "Centros de Educaci\u00f3n Parvularia", "Nombres": "ESCUELA BASICA VILLACURA", "POINT_X": -71.910583, "POINT_Y": -37.555809}}, {"type": "Feature", "geometry": {"type": "Point", "coordinates": [-71.632576, -37.55427049999999]}, "properties": {"CUT_REG": "08", "CUT_PROV": "083", "CUT_COM": "08311", "REGION": "Biob\u00edo", "PROVINCIA": "Biob\u00edo", "COMUNA": "Santa B\u00e1rbara", "variable": "Centros de Educaci\u00f3n Parvularia", "Nombres": "ARBOLIRIS", "POINT_X": -71.632576, "POINT_Y": -37.5542705}}, {"type": "Feature", "geometry": {"type": "Point", "coordinates": [-72.1630045485, -37.55396499500002]}, "properties": {"CUT_REG": "08", "CUT_PROV": "083", "CUT_COM": "08301", "REGION": "Biob\u00edo", "PROVINCIA": "Biob\u00edo", "COMUNA": "Los Angeles", "variable": "Centros de Educaci\u00f3n Parvularia", "Nombres": "MI REFUGIO", "POINT_X": -72.1630045485, "POINT_Y": -37.553964995}}, {"type": "Feature", "geometry": {"type": "Point", "coordinates": [-72.59744999999995, -37.55390199999996]}, "properties": {"CUT_REG": "08", "CUT_PROV": "083", "CUT_COM": "08307", "REGION": "Biob\u00edo", "PROVINCIA": "Biob\u00edo", "COMUNA": "Negrete", "variable": "Centros de Educaci\u00f3n Parvularia", "Nombres": "ESCUELA BASICA VILLA COIGUE", "POINT_X": -72.59745, "POINT_Y": -37.553902}}, {"type": "Feature", "geometry": {"type": "Point", "coordinates": [-71.95734099999997, -37.54874523499997]}, "properties": {"CUT_REG": "08", "CUT_PROV": "083", "CUT_COM": "08311", "REGION": "Biob\u00edo", "PROVINCIA": "Biob\u00edo", "COMUNA": "Santa B\u00e1rbara", "variable": "Centros de Educaci\u00f3n Parvularia", "Nombres": "SUE\u00d1OS DE COLORES", "POINT_X": -71.957341, "POINT_Y": -37.548745235}}, {"type": "Feature", "geometry": {"type": "Point", "coordinates": [-72.54290799999995, -37.54748199999999]}, "properties": {"CUT_REG": "08", "CUT_PROV": "083", "CUT_COM": "08301", "REGION": "Biob\u00edo", "PROVINCIA": "Biob\u00edo", "COMUNA": "Los Angeles", "variable": "Centros de Educaci\u00f3n Parvularia", "Nombres": "ESCUELA BASICA LA AGUADA DE CUEL", "POINT_X": -72.542908, "POINT_Y": -37.547482}}, {"type": "Feature", "geometry": {"type": "Point", "coordinates": [-72.21569800000003, -37.54679100000001]}, "properties": {"CUT_REG": "08", "CUT_PROV": "083", "CUT_COM": "08301", "REGION": "Biob\u00edo", "PROVINCIA": "Biob\u00edo", "COMUNA": "Los Angeles", "variable": "Centros de Educaci\u00f3n Parvularia", "Nombres": "ESCUELA LAS PARCELAS", "POINT_X": -72.215698, "POINT_Y": -37.546791}}, {"type": "Feature", "geometry": {"type": "Point", "coordinates": [-71.91799165150003, -37.5421025585]}, "properties": {"CUT_REG": "08", "CUT_PROV": "083", "CUT_COM": "08309", "REGION": "Biob\u00edo", "PROVINCIA": "Biob\u00edo", "COMUNA": "Quilleco", "variable": "Centros de Educaci\u00f3n Parvularia", "Nombres": "MI NUEVO MUNDO", "POINT_X": -71.9179916515, "POINT_Y": -37.5421025585}}, {"type": "Feature", "geometry": {"type": "Point", "coordinates": [-72.31205000000003, -37.541579999999975]}, "properties": {"CUT_REG": "08", "CUT_PROV": "083", "CUT_COM": "08301", "REGION": "Biob\u00edo", "PROVINCIA": "Biob\u00edo", "COMUNA": "Los Angeles", "variable": "Centros de Educaci\u00f3n Parvularia", "Nombres": "ESCUELA BASICA EL AMANECER DE DUQUECO", "POINT_X": -72.31205, "POINT_Y": -37.54158}}, {"type": "Feature", "geometry": {"type": "Point", "coordinates": [-72.22382400000002, -37.531448]}, "properties": {"CUT_REG": "08", "CUT_PROV": "083", "CUT_COM": "08301", "REGION": "Biob\u00edo", "PROVINCIA": "Biob\u00edo", "COMUNA": "Los Angeles", "variable": "Centros de Educaci\u00f3n Parvularia", "Nombres": "ESCUELA TENIENTE IGNACIO SERRANO", "POINT_X": -72.223824, "POINT_Y": -37.531448}}, {"type": "Feature", "geometry": {"type": "Point", "coordinates": [-72.22282900000002, -37.530821999999986]}, "properties": {"CUT_REG": "08", "CUT_PROV": "083", "CUT_COM": "08301", "REGION": "Biob\u00edo", "PROVINCIA": "Biob\u00edo", "COMUNA": "Los Angeles", "variable": "Centros de Educaci\u00f3n Parvularia", "Nombres": "LA PERLITA", "POINT_X": -72.222829, "POINT_Y": -37.530822}}, {"type": "Feature", "geometry": {"type": "Point", "coordinates": [-72.17799999999998, -37.53000000000001]}, "properties": {"CUT_REG": "08", "CUT_PROV": "083", "CUT_COM": "08301", "REGION": "Biob\u00edo", "PROVINCIA": "Biob\u00edo", "COMUNA": "Los Angeles", "variable": "Centros de Educaci\u00f3n Parvularia", "Nombres": "MI LINDA GRANJA", "POINT_X": -72.178, "POINT_Y": -37.53}}, {"type": "Feature", "geometry": {"type": "Point", "coordinates": [-71.84612299999999, -37.516879999999986]}, "properties": {"CUT_REG": "08", "CUT_PROV": "083", "CUT_COM": "08311", "REGION": "Biob\u00edo", "PROVINCIA": "Biob\u00edo", "COMUNA": "Santa B\u00e1rbara", "variable": "Centros de Educaci\u00f3n Parvularia", "Nombres": "ESCUELA EL CASTILLO", "POINT_X": -71.846123, "POINT_Y": -37.51688}}, {"type": "Feature", "geometry": {"type": "Point", "coordinates": [-72.05192800000003, -37.51519696]}, "properties": {"CUT_REG": "08", "CUT_PROV": "083", "CUT_COM": "08309", "REGION": "Biob\u00edo", "PROVINCIA": "Biob\u00edo", "COMUNA": "Quilleco", "variable": "Centros de Educaci\u00f3n Parvularia", "Nombres": "FRUTILLITA", "POINT_X": -72.051928, "POINT_Y": -37.51519696}}, {"type": "Feature", "geometry": {"type": "Point", "coordinates": [-72.66034699999997, -37.508678]}, "properties": {"CUT_REG": "08", "CUT_PROV": "083", "CUT_COM": "08306", "REGION": "Biob\u00edo", "PROVINCIA": "Biob\u00edo", "COMUNA": "Nacimiento", "variable": "Centros de Educaci\u00f3n Parvularia", "Nombres": "ESCUELA TOQUI LAUTARO", "POINT_X": -72.660347, "POINT_Y": -37.508678}}, {"type": "Feature", "geometry": {"type": "Point", "coordinates": [-72.68730000000002, -37.50759999999998]}, "properties": {"CUT_REG": "08", "CUT_PROV": "083", "CUT_COM": "08306", "REGION": "Biob\u00edo", "PROVINCIA": "Biob\u00edo", "COMUNA": "Nacimiento", "variable": "Centros de Educaci\u00f3n Parvularia", "Nombres": "LUCY KOJCHEN", "POINT_X": -72.6873, "POINT_Y": -37.5076}}, {"type": "Feature", "geometry": {"type": "Point", "coordinates": [-72.68921700000001, -37.50579099999997]}, "properties": {"CUT_REG": "08", "CUT_PROV": "083", "CUT_COM": "08306", "REGION": "Biob\u00edo", "PROVINCIA": "Biob\u00edo", "COMUNA": "Nacimiento", "variable": "Centros de Educaci\u00f3n Parvularia", "Nombres": "COLEGIO SAN JUAN DE DIOS", "POINT_X": -72.689217, "POINT_Y": -37.505791}}, {"type": "Feature", "geometry": {"type": "Point", "coordinates": [-72.67232000000003, -37.50234199999996]}, "properties": {"CUT_REG": "08", "CUT_PROV": "083", "CUT_COM": "08306", "REGION": "Biob\u00edo", "PROVINCIA": "Biob\u00edo", "COMUNA": "Nacimiento", "variable": "Centros de Educaci\u00f3n Parvularia", "Nombres": "ESCUELA DE LENGUAJE JESUS MAESTRO", "POINT_X": -72.67232, "POINT_Y": -37.502342}}, {"type": "Feature", "geometry": {"type": "Point", "coordinates": [-72.67225699999997, -37.502071000000015]}, "properties": {"CUT_REG": "08", "CUT_PROV": "083", "CUT_COM": "08306", "REGION": "Biob\u00edo", "PROVINCIA": "Biob\u00edo", "COMUNA": "Nacimiento", "variable": "Centros de Educaci\u00f3n Parvularia", "Nombres": "FREIRE", "POINT_X": -72.672257, "POINT_Y": -37.502071}}, {"type": "Feature", "geometry": {"type": "Point", "coordinates": [-72.67580000100003, -37.50160000000003]}, "properties": {"CUT_REG": "08", "CUT_PROV": "083", "CUT_COM": "08306", "REGION": "Biob\u00edo", "PROVINCIA": "Biob\u00edo", "COMUNA": "Nacimiento", "variable": "Centros de Educaci\u00f3n Parvularia", "Nombres": "SALA CUNA LA CRUZ", "POINT_X": -72.675800001, "POINT_Y": -37.5016}}, {"type": "Feature", "geometry": {"type": "Point", "coordinates": [-72.67198199999996, -37.501201999999964]}, "properties": {"CUT_REG": "08", "CUT_PROV": "083", "CUT_COM": "08306", "REGION": "Biob\u00edo", "PROVINCIA": "Biob\u00edo", "COMUNA": "Nacimiento", "variable": "Centros de Educaci\u00f3n Parvularia", "Nombres": "ESCUELA EL SABER", "POINT_X": -72.671982, "POINT_Y": -37.501202}}, {"type": "Feature", "geometry": {"type": "Point", "coordinates": [-72.40509800000004, -37.499839999999985]}, "properties": {"CUT_REG": "08", "CUT_PROV": "083", "CUT_COM": "08301", "REGION": "Biob\u00edo", "PROVINCIA": "Biob\u00edo", "COMUNA": "Los Angeles", "variable": "Centros de Educaci\u00f3n Parvularia", "Nombres": "ESCUELA CORONEL GUILLERMO MARIN CARMONA", "POINT_X": -72.405098, "POINT_Y": -37.49984}}, {"type": "Feature", "geometry": {"type": "Point", "coordinates": [-72.404563, -37.49968800000002]}, "properties": {"CUT_REG": "08", "CUT_PROV": "083", "CUT_COM": "08301", "REGION": "Biob\u00edo", "PROVINCIA": "Biob\u00edo", "COMUNA": "Los Angeles", "variable": "Centros de Educaci\u00f3n Parvularia", "Nombres": "PATA DE GALLINA(PMI)", "POINT_X": -72.404563, "POINT_Y": -37.499688}}, {"type": "Feature", "geometry": {"type": "Point", "coordinates": [-72.68689999999998, -37.49897999999997]}, "properties": {"CUT_REG": "08", "CUT_PROV": "083", "CUT_COM": "08306", "REGION": "Biob\u00edo", "PROVINCIA": "Biob\u00edo", "COMUNA": "Nacimiento", "variable": "Centros de Educaci\u00f3n Parvularia", "Nombres": "ESCUELA ESPECIAL DE LENGUAJE PEQUE\u00d1AS PALABRAS", "POINT_X": -72.6869, "POINT_Y": -37.49898}}, {"type": "Feature", "geometry": {"type": "Point", "coordinates": [-72.68216699999996, -37.49789799999997]}, "properties": {"CUT_REG": "08", "CUT_PROV": "083", "CUT_COM": "08306", "REGION": "Biob\u00edo", "PROVINCIA": "Biob\u00edo", "COMUNA": "Nacimiento", "variable": "Centros de Educaci\u00f3n Parvularia", "Nombres": "COLEGIO TERESIANO PADRE ENRIQUE", "POINT_X": -72.682167, "POINT_Y": -37.497898}}, {"type": "Feature", "geometry": {"type": "Point", "coordinates": [-72.67903999999996, -37.49698999999998]}, "properties": {"CUT_REG": "08", "CUT_PROV": "083", "CUT_COM": "08306", "REGION": "Biob\u00edo", "PROVINCIA": "Biob\u00edo", "COMUNA": "Nacimiento", "variable": "Centros de Educaci\u00f3n Parvularia", "Nombres": "CENTRO ESTIMULACI\u00d3N TEMPRANA PRINCESITA MISIN", "POINT_X": -72.67904, "POINT_Y": -37.49699}}, {"type": "Feature", "geometry": {"type": "Point", "coordinates": [-71.77512331500003, -37.49651062500002]}, "properties": {"CUT_REG": "08", "CUT_PROV": "083", "CUT_COM": "08309", "REGION": "Biob\u00edo", "PROVINCIA": "Biob\u00edo", "COMUNA": "Quilleco", "variable": "Centros de Educaci\u00f3n Parvularia", "Nombres": "COLEGIO SANTA MARIA", "POINT_X": -71.775123315, "POINT_Y": -37.496510625}}, {"type": "Feature", "geometry": {"type": "Point", "coordinates": [-72.679733, -37.49628100000003]}, "properties": {"CUT_REG": "08", "CUT_PROV": "083", "CUT_COM": "08306", "REGION": "Biob\u00edo", "PROVINCIA": "Biob\u00edo", "COMUNA": "Nacimiento", "variable": "Centros de Educaci\u00f3n Parvularia", "Nombres": "ESCUELA OSCAR GUERRERO QUINSAC", "POINT_X": -72.679733, "POINT_Y": -37.496281}}, {"type": "Feature", "geometry": {"type": "Point", "coordinates": [-72.69228500000003, -37.49502600000002]}, "properties": {"CUT_REG": "08", "CUT_PROV": "083", "CUT_COM": "08306", "REGION": "Biob\u00edo", "PROVINCIA": "Biob\u00edo", "COMUNA": "Nacimiento", "variable": "Centros de Educaci\u00f3n Parvularia", "Nombres": "MI PEQUE\u00d1O HOGAR", "POINT_X": -72.692285, "POINT_Y": -37.495026}}, {"type": "Feature", "geometry": {"type": "Point", "coordinates": [-71.77917125000003, -37.49477996]}, "properties": {"CUT_REG": "08", "CUT_PROV": "083", "CUT_COM": "08309", "REGION": "Biob\u00edo", "PROVINCIA": "Biob\u00edo", "COMUNA": "Quilleco", "variable": "Centros de Educaci\u00f3n Parvularia", "Nombres": "ESCUELA BELLAVISTA", "POINT_X": -71.77917125, "POINT_Y": -37.49477996}}, {"type": "Feature", "geometry": {"type": "Point", "coordinates": [-72.33561699999997, -37.49333999999996]}, "properties": {"CUT_REG": "08", "CUT_PROV": "083", "CUT_COM": "08301", "REGION": "Biob\u00edo", "PROVINCIA": "Biob\u00edo", "COMUNA": "Los Angeles", "variable": "Centros de Educaci\u00f3n Parvularia", "Nombres": "COLEGIO ALTO LAUQU\u00c9N", "POINT_X": -72.335617, "POINT_Y": -37.49334}}, {"type": "Feature", "geometry": {"type": "Point", "coordinates": [-72.32704200000003, -37.492747000000016]}, "properties": {"CUT_REG": "08", "CUT_PROV": "083", "CUT_COM": "08301", "REGION": "Biob\u00edo", "PROVINCIA": "Biob\u00edo", "COMUNA": "Los Angeles", "variable": "Centros de Educaci\u00f3n Parvularia", "Nombres": "KETRAWUE (TIERRA FERTIL)", "POINT_X": -72.327042, "POINT_Y": -37.492747}}, {"type": "Feature", "geometry": {"type": "Point", "coordinates": [-72.68430300000003, -37.49216799999998]}, "properties": {"CUT_REG": "08", "CUT_PROV": "083", "CUT_COM": "08306", "REGION": "Biob\u00edo", "PROVINCIA": "Biob\u00edo", "COMUNA": "Nacimiento", "variable": "Centros de Educaci\u00f3n Parvularia", "Nombres": "ESCUELA NACIMIENTO DE NUESTRO SE\u00d1OR", "POINT_X": -72.684303, "POINT_Y": -37.492168}}, {"type": "Feature", "geometry": {"type": "Point", "coordinates": [-72.33115638300002, -37.49111317400001]}, "properties": {"CUT_REG": "08", "CUT_PROV": "083", "CUT_COM": "08301", "REGION": "Biob\u00edo", "PROVINCIA": "Biob\u00edo", "COMUNA": "Los Angeles", "variable": "Centros de Educaci\u00f3n Parvularia", "Nombres": "VILLA LOS RIOS", "POINT_X": -72.331156383, "POINT_Y": -37.491113174}}, {"type": "Feature", "geometry": {"type": "Point", "coordinates": [-72.33, -37.49000000000001]}, "properties": {"CUT_REG": "08", "CUT_PROV": "083", "CUT_COM": "08301", "REGION": "Biob\u00edo", "PROVINCIA": "Biob\u00edo", "COMUNA": "Los Angeles", "variable": "Centros de Educaci\u00f3n Parvularia", "Nombres": "LAS AMERICAS", "POINT_X": -72.33, "POINT_Y": -37.49}}, {"type": "Feature", "geometry": {"type": "Point", "coordinates": [-72.35199699999998, -37.489269000000014]}, "properties": {"CUT_REG": "08", "CUT_PROV": "083", "CUT_COM": "08301", "REGION": "Biob\u00edo", "PROVINCIA": "Biob\u00edo", "COMUNA": "Los Angeles", "variable": "Centros de Educaci\u00f3n Parvularia", "Nombres": "COLEGIO BEATO DAMI\u00c1N DE MOLOKAI", "POINT_X": -72.351997, "POINT_Y": -37.489269}}, {"type": "Feature", "geometry": {"type": "Point", "coordinates": [-72.346047, -37.487922000000026]}, "properties": {"CUT_REG": "08", "CUT_PROV": "083", "CUT_COM": "08301", "REGION": "Biob\u00edo", "PROVINCIA": "Biob\u00edo", "COMUNA": "Los Angeles", "variable": "Centros de Educaci\u00f3n Parvularia", "Nombres": "TREN DE MIS SUE\u00d1OS", "POINT_X": -72.346047, "POINT_Y": -37.487922}}, {"type": "Feature", "geometry": {"type": "Point", "coordinates": [-72.34582400000002, -37.48778399999998]}, "properties": {"CUT_REG": "08", "CUT_PROV": "083", "CUT_COM": "08301", "REGION": "Biob\u00edo", "PROVINCIA": "Biob\u00edo", "COMUNA": "Los Angeles", "variable": "Centros de Educaci\u00f3n Parvularia", "Nombres": "21 DE MAYO", "POINT_X": -72.345824, "POINT_Y": -37.487784}}, {"type": "Feature", "geometry": {"type": "Point", "coordinates": [-72.32767200000004, -37.487332999999964]}, "properties": {"CUT_REG": "08", "CUT_PROV": "083", "CUT_COM": "08301", "REGION": "Biob\u00edo", "PROVINCIA": "Biob\u00edo", "COMUNA": "Los Angeles", "variable": "Centros de Educaci\u00f3n Parvularia", "Nombres": "PEQUE\u00d1OS HISTORIADORES", "POINT_X": -72.327672, "POINT_Y": -37.487333}}, {"type": "Feature", "geometry": {"type": "Point", "coordinates": [-72.34260600000005, -37.48577500000002]}, "properties": {"CUT_REG": "08", "CUT_PROV": "083", "CUT_COM": "08301", "REGION": "Biob\u00edo", "PROVINCIA": "Biob\u00edo", "COMUNA": "Los Angeles", "variable": "Centros de Educaci\u00f3n Parvularia", "Nombres": "ESCUELA ESPECIAL DE LENGUAJE JUAN PABLO II", "POINT_X": -72.342606, "POINT_Y": -37.485775}}, {"type": "Feature", "geometry": {"type": "Point", "coordinates": [-72.34233999999996, -37.48510000000004]}, "properties": {"CUT_REG": "08", "CUT_PROV": "083", "CUT_COM": "08301", "REGION": "Biob\u00edo", "PROVINCIA": "Biob\u00edo", "COMUNA": "Los Angeles", "variable": "Centros de Educaci\u00f3n Parvularia", "Nombres": "ESCUELA ESPECIAL DIFERENCIAL PALU", "POINT_X": -72.34234, "POINT_Y": -37.4851}}, {"type": "Feature", "geometry": {"type": "Point", "coordinates": [-72.33105999999995, -37.48477]}, "properties": {"CUT_REG": "08", "CUT_PROV": "083", "CUT_COM": "08301", "REGION": "Biob\u00edo", "PROVINCIA": "Biob\u00edo", "COMUNA": "Los Angeles", "variable": "Centros de Educaci\u00f3n Parvularia", "Nombres": "ESCUELA ESPECIAL DE LENGUAJE CONTIGO APRENDO", "POINT_X": -72.33106, "POINT_Y": -37.48477}}, {"type": "Feature", "geometry": {"type": "Point", "coordinates": [-72.21229188100003, -37.484675478999996]}, "properties": {"CUT_REG": "08", "CUT_PROV": "083", "CUT_COM": "08301", "REGION": "Biob\u00edo", "PROVINCIA": "Biob\u00edo", "COMUNA": "Los Angeles", "variable": "Centros de Educaci\u00f3n Parvularia", "Nombres": "RAICES DE AMOR", "POINT_X": -72.212291881, "POINT_Y": -37.484675479}}, {"type": "Feature", "geometry": {"type": "Point", "coordinates": [-72.34916699999995, -37.48416900000001]}, "properties": {"CUT_REG": "08", "CUT_PROV": "083", "CUT_COM": "08301", "REGION": "Biob\u00edo", "PROVINCIA": "Biob\u00edo", "COMUNA": "Los Angeles", "variable": "Centros de Educaci\u00f3n Parvularia", "Nombres": "COLEGIO MAR\u00cdA INMACULADA DE LOS \u00c1NGELES", "POINT_X": -72.349167, "POINT_Y": -37.484169}}, {"type": "Feature", "geometry": {"type": "Point", "coordinates": [-71.87939647350001, -37.48413551850004]}, "properties": {"CUT_REG": "08", "CUT_PROV": "083", "CUT_COM": "08309", "REGION": "Biob\u00edo", "PROVINCIA": "Biob\u00edo", "COMUNA": "Quilleco", "variable": "Centros de Educaci\u00f3n Parvularia", "Nombres": "AITUE", "POINT_X": -71.8793964735, "POINT_Y": -37.4841355185}}, {"type": "Feature", "geometry": {"type": "Point", "coordinates": [-72.34003493100002, -37.48382824199997]}, "properties": {"CUT_REG": "08", "CUT_PROV": "083", "CUT_COM": "08301", "REGION": "Biob\u00edo", "PROVINCIA": "Biob\u00edo", "COMUNA": "Los Angeles", "variable": "Centros de Educaci\u00f3n Parvularia", "Nombres": "MI GRAN MUNDO", "POINT_X": -72.340034931, "POINT_Y": -37.483828242}}, {"type": "Feature", "geometry": {"type": "Point", "coordinates": [-72.35698700000003, -37.482490999999996]}, "properties": {"CUT_REG": "08", "CUT_PROV": "083", "CUT_COM": "08301", "REGION": "Biob\u00edo", "PROVINCIA": "Biob\u00edo", "COMUNA": "Los Angeles", "variable": "Centros de Educaci\u00f3n Parvularia", "Nombres": "ESCUELA BASICA REPUBLICA DE ALEMANIA", "POINT_X": -72.356987, "POINT_Y": -37.482491}}, {"type": "Feature", "geometry": {"type": "Point", "coordinates": [-72.35164599999999, -37.48226199999996]}, "properties": {"CUT_REG": "08", "CUT_PROV": "083", "CUT_COM": "08301", "REGION": "Biob\u00edo", "PROVINCIA": "Biob\u00edo", "COMUNA": "Los Angeles", "variable": "Centros de Educaci\u00f3n Parvularia", "Nombres": "COLEGIO SANTO TOM\u00c1S", "POINT_X": -72.351646, "POINT_Y": -37.482262}}, {"type": "Feature", "geometry": {"type": "Point", "coordinates": [-72.35738000000003, -37.48147199999997]}, "properties": {"CUT_REG": "08", "CUT_PROV": "083", "CUT_COM": "08301", "REGION": "Biob\u00edo", "PROVINCIA": "Biob\u00edo", "COMUNA": "Los Angeles", "variable": "Centros de Educaci\u00f3n Parvularia", "Nombres": "ESCUELA DE TRASTORNOS DE LA COMUNICACI\u00d3N MILLARAY", "POINT_X": -72.35738, "POINT_Y": -37.481472}}, {"type": "Feature", "geometry": {"type": "Point", "coordinates": [-72.34861300000003, -37.480051999999986]}, "properties": {"CUT_REG": "08", "CUT_PROV": "083", "CUT_COM": "08301", "REGION": "Biob\u00edo", "PROVINCIA": "Biob\u00edo", "COMUNA": "Los Angeles", "variable": "Centros de Educaci\u00f3n Parvularia", "Nombres": "LOS CARRERA", "POINT_X": -72.348613, "POINT_Y": -37.480052}}, {"type": "Feature", "geometry": {"type": "Point", "coordinates": [-72.35463999999999, -37.478980000000014]}, "properties": {"CUT_REG": "08", "CUT_PROV": "083", "CUT_COM": "08301", "REGION": "Biob\u00edo", "PROVINCIA": "Biob\u00edo", "COMUNA": "Los Angeles", "variable": "Centros de Educaci\u00f3n Parvularia", "Nombres": "ESCUELA ESPECIAL DE LENGUAJE PALABRAS MAGICAS SALTO DEL LAJA", "POINT_X": -72.35464, "POINT_Y": -37.47898}}, {"type": "Feature", "geometry": {"type": "Point", "coordinates": [-72.36875999999998, -37.47831]}, "properties": {"CUT_REG": "08", "CUT_PROV": "083", "CUT_COM": "08301", "REGION": "Biob\u00edo", "PROVINCIA": "Biob\u00edo", "COMUNA": "Los Angeles", "variable": "Centros de Educaci\u00f3n Parvularia", "Nombres": "ESCUELA ESPECIAL DE LENGUAJE SANTA MAR\u00cdA", "POINT_X": -72.36876, "POINT_Y": -37.47831}}, {"type": "Feature", "geometry": {"type": "Point", "coordinates": [-72.36875999999998, -37.47831]}, "properties": {"CUT_REG": "08", "CUT_PROV": "083", "CUT_COM": "08301", "REGION": "Biob\u00edo", "PROVINCIA": "Biob\u00edo", "COMUNA": "Los Angeles", "variable": "Centros de Educaci\u00f3n Parvularia", "Nombres": "JARDIN INFANTIL LOS PECECITOS", "POINT_X": -72.36876, "POINT_Y": -37.47831}}, {"type": "Feature", "geometry": {"type": "Point", "coordinates": [-72.35477, -37.478286999999966]}, "properties": {"CUT_REG": "08", "CUT_PROV": "083", "CUT_COM": "08301", "REGION": "Biob\u00edo", "PROVINCIA": "Biob\u00edo", "COMUNA": "Los Angeles", "variable": "Centros de Educaci\u00f3n Parvularia", "Nombres": "ESCUELA ESPECIAL DE LENGUAJE PALABRAS M\u00c1GICAS", "POINT_X": -72.35477, "POINT_Y": -37.478287}}, {"type": "Feature", "geometry": {"type": "Point", "coordinates": [-72.35986399999996, -37.47802399999996]}, "properties": {"CUT_REG": "08", "CUT_PROV": "083", "CUT_COM": "08301", "REGION": "Biob\u00edo", "PROVINCIA": "Biob\u00edo", "COMUNA": "Los Angeles", "variable": "Centros de Educaci\u00f3n Parvularia", "Nombres": "ESCUELA ESPECIAL DE LENGUAJE ALTO LOS \u00c1NGELES", "POINT_X": -72.359864, "POINT_Y": -37.478024}}, {"type": "Feature", "geometry": {"type": "Point", "coordinates": [-72.34964000000001, -37.47740200000001]}, "properties": {"CUT_REG": "08", "CUT_PROV": "083", "CUT_COM": "08301", "REGION": "Biob\u00edo", "PROVINCIA": "Biob\u00edo", "COMUNA": "Los Angeles", "variable": "Centros de Educaci\u00f3n Parvularia", "Nombres": "COLEGIO PARTICULAR MARTA BRUNET", "POINT_X": -72.34964, "POINT_Y": -37.477402}}, {"type": "Feature", "geometry": {"type": "Point", "coordinates": [-72.35111999999998, -37.476820999999994]}, "properties": {"CUT_REG": "08", "CUT_PROV": "083", "CUT_COM": "08301", "REGION": "Biob\u00edo", "PROVINCIA": "Biob\u00edo", "COMUNA": "Los Angeles", "variable": "Centros de Educaci\u00f3n Parvularia", "Nombres": "LICEO ALEMAN DEL VERBO DIVINO", "POINT_X": -72.35112, "POINT_Y": -37.476821}}, {"type": "Feature", "geometry": {"type": "Point", "coordinates": [-72.36190799999997, -37.476700000000015]}, "properties": {"CUT_REG": "08", "CUT_PROV": "083", "CUT_COM": "08301", "REGION": "Biob\u00edo", "PROVINCIA": "Biob\u00edo", "COMUNA": "Los Angeles", "variable": "Centros de Educaci\u00f3n Parvularia", "Nombres": "LICEO PARTICULAR CARLOS CONDELL", "POINT_X": -72.361908, "POINT_Y": -37.4767}}, {"type": "Feature", "geometry": {"type": "Point", "coordinates": [-71.86042076100003, -37.476633202499954]}, "properties": {"CUT_REG": "08", "CUT_PROV": "083", "CUT_COM": "08309", "REGION": "Biob\u00edo", "PROVINCIA": "Biob\u00edo", "COMUNA": "Quilleco", "variable": "Centros de Educaci\u00f3n Parvularia", "Nombres": "DEJANDO HUELLAS", "POINT_X": -71.860420761, "POINT_Y": -37.4766332025}}, {"type": "Feature", "geometry": {"type": "Point", "coordinates": [-71.98361999999995, -37.47416]}, "properties": {"CUT_REG": "08", "CUT_PROV": "083", "CUT_COM": "08309", "REGION": "Biob\u00edo", "PROVINCIA": "Biob\u00edo", "COMUNA": "Quilleco", "variable": "Centros de Educaci\u00f3n Parvularia", "Nombres": "ESCUELA ESPECIAL DE LENGUAJE QUILLECO", "POINT_X": -71.98362, "POINT_Y": -37.47416}}, {"type": "Feature", "geometry": {"type": "Point", "coordinates": [-72.35015899999996, -37.47330900000002]}, "properties": {"CUT_REG": "08", "CUT_PROV": "083", "CUT_COM": "08301", "REGION": "Biob\u00edo", "PROVINCIA": "Biob\u00edo", "COMUNA": "Los Angeles", "variable": "Centros de Educaci\u00f3n Parvularia", "Nombres": "COLEGIO HISPANOAMERICANO", "POINT_X": -72.350159, "POINT_Y": -37.473309}}, {"type": "Feature", "geometry": {"type": "Point", "coordinates": [-72.32817999999996, -37.472829000000004]}, "properties": {"CUT_REG": "08", "CUT_PROV": "083", "CUT_COM": "08301", "REGION": "Biob\u00edo", "PROVINCIA": "Biob\u00edo", "COMUNA": "Los Angeles", "variable": "Centros de Educaci\u00f3n Parvularia", "Nombres": "COLEGIO ALEMAN LOS ANGELES", "POINT_X": -72.32818, "POINT_Y": -37.472829}}, {"type": "Feature", "geometry": {"type": "Point", "coordinates": [-72.34699999999998, -37.47258000000001]}, "properties": {"CUT_REG": "08", "CUT_PROV": "083", "CUT_COM": "08301", "REGION": "Biob\u00edo", "PROVINCIA": "Biob\u00edo", "COMUNA": "Los Angeles", "variable": "Centros de Educaci\u00f3n Parvularia", "Nombres": "ESCUELA JOSE MANSO DE VELASCO", "POINT_X": -72.347, "POINT_Y": -37.47258}}, {"type": "Feature", "geometry": {"type": "Point", "coordinates": [-72.34972382000001, -37.47222137]}, "properties": {"CUT_REG": "08", "CUT_PROV": "083", "CUT_COM": "08301", "REGION": "Biob\u00edo", "PROVINCIA": "Biob\u00edo", "COMUNA": "Los Angeles", "variable": "Centros de Educaci\u00f3n Parvularia", "Nombres": "ESCUELA B\u00c1SICA ESPERANZA", "POINT_X": -72.34972382, "POINT_Y": -37.47222137}}, {"type": "Feature", "geometry": {"type": "Point", "coordinates": [-72.37877700000004, -37.47212999999999]}, "properties": {"CUT_REG": "08", "CUT_PROV": "083", "CUT_COM": "08301", "REGION": "Biob\u00edo", "PROVINCIA": "Biob\u00edo", "COMUNA": "Los Angeles", "variable": "Centros de Educaci\u00f3n Parvularia", "Nombres": "COLEGIO SAN TERESA DE LOS ANDES - LOS ANGELES", "POINT_X": -72.378777, "POINT_Y": -37.47213}}, {"type": "Feature", "geometry": {"type": "Point", "coordinates": [-72.36454999999998, -37.47130199999996]}, "properties": {"CUT_REG": "08", "CUT_PROV": "083", "CUT_COM": "08301", "REGION": "Biob\u00edo", "PROVINCIA": "Biob\u00edo", "COMUNA": "Los Angeles", "variable": "Centros de Educaci\u00f3n Parvularia", "Nombres": "ESCUELA ESPECIAL ANTU", "POINT_X": -72.36455, "POINT_Y": -37.471302}}, {"type": "Feature", "geometry": {"type": "Point", "coordinates": [-72.35884899999999, -37.47129090000002]}, "properties": {"CUT_REG": "08", "CUT_PROV": "083", "CUT_COM": "08301", "REGION": "Biob\u00edo", "PROVINCIA": "Biob\u00edo", "COMUNA": "Los Angeles", "variable": "Centros de Educaci\u00f3n Parvularia", "Nombres": "ESCUELA ESPECIAL DIFERENCIAL E INSTITUTO DE ESTIMULACI\u00d3N TEMPRANA SAN MARCELINO", "POINT_X": -72.358849, "POINT_Y": -37.4712909}}, {"type": "Feature", "geometry": {"type": "Point", "coordinates": [-72.36551699999998, -37.470657999999965]}, "properties": {"CUT_REG": "08", "CUT_PROV": "083", "CUT_COM": "08301", "REGION": "Biob\u00edo", "PROVINCIA": "Biob\u00edo", "COMUNA": "Los Angeles", "variable": "Centros de Educaci\u00f3n Parvularia", "Nombres": "PRESIDENTE KENNEDY", "POINT_X": -72.365517, "POINT_Y": -37.470658}}, {"type": "Feature", "geometry": {"type": "Point", "coordinates": [-72.36756900000003, -37.470069999999986]}, "properties": {"CUT_REG": "08", "CUT_PROV": "083", "CUT_COM": "08301", "REGION": "Biob\u00edo", "PROVINCIA": "Biob\u00edo", "COMUNA": "Los Angeles", "variable": "Centros de Educaci\u00f3n Parvularia", "Nombres": "ESCUELA BASICA 11 DE SEPTIEMBRE", "POINT_X": -72.367569, "POINT_Y": -37.47007}}, {"type": "Feature", "geometry": {"type": "Point", "coordinates": [-72.35205799999997, -37.47005100000001]}, "properties": {"CUT_REG": "08", "CUT_PROV": "083", "CUT_COM": "08301", "REGION": "Biob\u00edo", "PROVINCIA": "Biob\u00edo", "COMUNA": "Los Angeles", "variable": "Centros de Educaci\u00f3n Parvularia", "Nombres": "ESCUELA PEDRO RUIZ ALDEA", "POINT_X": -72.352058, "POINT_Y": -37.470051}}, {"type": "Feature", "geometry": {"type": "Point", "coordinates": [-72.37142199999997, -37.46987899999999]}, "properties": {"CUT_REG": "08", "CUT_PROV": "083", "CUT_COM": "08301", "REGION": "Biob\u00edo", "PROVINCIA": "Biob\u00edo", "COMUNA": "Los Angeles", "variable": "Centros de Educaci\u00f3n Parvularia", "Nombres": "COLEGIO SOUTHERN COLLEGE", "POINT_X": -72.371422, "POINT_Y": -37.469879}}, {"type": "Feature", "geometry": {"type": "Point", "coordinates": [-71.98118142899997, -37.46955141699998]}, "properties": {"CUT_REG": "08", "CUT_PROV": "083", "CUT_COM": "08309", "REGION": "Biob\u00edo", "PROVINCIA": "Biob\u00edo", "COMUNA": "Quilleco", "variable": "Centros de Educaci\u00f3n Parvularia", "Nombres": "SONRISA DE ANGELES", "POINT_X": -71.981181429, "POINT_Y": -37.469551417}}, {"type": "Feature", "geometry": {"type": "Point", "coordinates": [-72.355179, -37.46950900000002]}, "properties": {"CUT_REG": "08", "CUT_PROV": "083", "CUT_COM": "08301", "REGION": "Biob\u00edo", "PROVINCIA": "Biob\u00edo", "COMUNA": "Los Angeles", "variable": "Centros de Educaci\u00f3n Parvularia", "Nombres": "COLEGIO LOS ANGELES", "POINT_X": -72.355179, "POINT_Y": -37.469509}}, {"type": "Feature", "geometry": {"type": "Point", "coordinates": [-72.36459684899995, -37.46867760999998]}, "properties": {"CUT_REG": "08", "CUT_PROV": "083", "CUT_COM": "08301", "REGION": "Biob\u00edo", "PROVINCIA": "Biob\u00edo", "COMUNA": "Los Angeles", "variable": "Centros de Educaci\u00f3n Parvularia", "Nombres": "LOS LICEOS TREMEMN", "POINT_X": -72.364596849, "POINT_Y": -37.46867761}}, {"type": "Feature", "geometry": {"type": "Point", "coordinates": [-72.37091099999996, -37.46809999999997]}, "properties": {"CUT_REG": "08", "CUT_PROV": "083", "CUT_COM": "08301", "REGION": "Biob\u00edo", "PROVINCIA": "Biob\u00edo", "COMUNA": "Los Angeles", "variable": "Centros de Educaci\u00f3n Parvularia", "Nombres": "ISLA DE LOS TESOROS", "POINT_X": -72.370911, "POINT_Y": -37.4681}}, {"type": "Feature", "geometry": {"type": "Point", "coordinates": [-72.50003799999999, -37.46802899999996]}, "properties": {"CUT_REG": "08", "CUT_PROV": "083", "CUT_COM": "08301", "REGION": "Biob\u00edo", "PROVINCIA": "Biob\u00edo", "COMUNA": "Los Angeles", "variable": "Centros de Educaci\u00f3n Parvularia", "Nombres": "ESCUELA BASICA VIRQUENCO", "POINT_X": -72.500038, "POINT_Y": -37.468029}}, {"type": "Feature", "geometry": {"type": "Point", "coordinates": [-72.33616999999998, -37.467987000000036]}, "properties": {"CUT_REG": "08", "CUT_PROV": "083", "CUT_COM": "08301", "REGION": "Biob\u00edo", "PROVINCIA": "Biob\u00edo", "COMUNA": "Los Angeles", "variable": "Centros de Educaci\u00f3n Parvularia", "Nombres": "ESCUELA ESPECIAL DIFERENCIAL ANGELITOS", "POINT_X": -72.33617, "POINT_Y": -37.467987}}, {"type": "Feature", "geometry": {"type": "Point", "coordinates": [-71.981171, -37.46765100000003]}, "properties": {"CUT_REG": "08", "CUT_PROV": "083", "CUT_COM": "08309", "REGION": "Biob\u00edo", "PROVINCIA": "Biob\u00edo", "COMUNA": "Quilleco", "variable": "Centros de Educaci\u00f3n Parvularia", "Nombres": "LICEO FRANCISCO BASCUNAN GUERRERO", "POINT_X": -71.981171, "POINT_Y": -37.467651}}, {"type": "Feature", "geometry": {"type": "Point", "coordinates": [-72.35564400000003, -37.46738399999997]}, "properties": {"CUT_REG": "08", "CUT_PROV": "083", "CUT_COM": "08301", "REGION": "Biob\u00edo", "PROVINCIA": "Biob\u00edo", "COMUNA": "Los Angeles", "variable": "Centros de Educaci\u00f3n Parvularia", "Nombres": "ESCUELA DIFERENCIAL CON TRASTORNO LENGUAJE MI VENTANA", "POINT_X": -72.355644, "POINT_Y": -37.467384}}, {"type": "Feature", "geometry": {"type": "Point", "coordinates": [-72.39700000000005, -37.46699999999999]}, "properties": {"CUT_REG": "08", "CUT_PROV": "083", "CUT_COM": "08301", "REGION": "Biob\u00edo", "PROVINCIA": "Biob\u00edo", "COMUNA": "Los Angeles", "variable": "Centros de Educaci\u00f3n Parvularia", "Nombres": "VILLA GENESIS", "POINT_X": -72.397, "POINT_Y": -37.467}}, {"type": "Feature", "geometry": {"type": "Point", "coordinates": [-72.35500300000001, -37.46673999999997]}, "properties": {"CUT_REG": "08", "CUT_PROV": "083", "CUT_COM": "08301", "REGION": "Biob\u00edo", "PROVINCIA": "Biob\u00edo", "COMUNA": "Los Angeles", "variable": "Centros de Educaci\u00f3n Parvularia", "Nombres": "ESCUELA GENERAL JOSE DE SAN MARTIN", "POINT_X": -72.355003, "POINT_Y": -37.46674}}, {"type": "Feature", "geometry": {"type": "Point", "coordinates": [-72.579788, -37.46672799999996]}, "properties": {"CUT_REG": "08", "CUT_PROV": "083", "CUT_COM": "08301", "REGION": "Biob\u00edo", "PROVINCIA": "Biob\u00edo", "COMUNA": "Los Angeles", "variable": "Centros de Educaci\u00f3n Parvularia", "Nombres": "LICEO SANTA FE", "POINT_X": -72.579788, "POINT_Y": -37.466728}}, {"type": "Feature", "geometry": {"type": "Point", "coordinates": [-72.584801, -37.46669699999997]}, "properties": {"CUT_REG": "08", "CUT_PROV": "083", "CUT_COM": "08301", "REGION": "Biob\u00edo", "PROVINCIA": "Biob\u00edo", "COMUNA": "Los Angeles", "variable": "Centros de Educaci\u00f3n Parvularia", "Nombres": "SANTA F\u00c9", "POINT_X": -72.584801, "POINT_Y": -37.466697}}, {"type": "Feature", "geometry": {"type": "Point", "coordinates": [-72.57991687, -37.466689419999966]}, "properties": {"CUT_REG": "08", "CUT_PROV": "083", "CUT_COM": "08301", "REGION": "Biob\u00edo", "PROVINCIA": "Biob\u00edo", "COMUNA": "Los Angeles", "variable": "Centros de Educaci\u00f3n Parvularia", "Nombres": "KIMELTU", "POINT_X": -72.57991687, "POINT_Y": -37.46668942}}, {"type": "Feature", "geometry": {"type": "Point", "coordinates": [-72.38156099999999, -37.46654899999998]}, "properties": {"CUT_REG": "08", "CUT_PROV": "083", "CUT_COM": "08301", "REGION": "Biob\u00edo", "PROVINCIA": "Biob\u00edo", "COMUNA": "Los Angeles", "variable": "Centros de Educaci\u00f3n Parvularia", "Nombres": "COLEGIO DOCTOR OSVALDO QUINTEROS", "POINT_X": -72.381561, "POINT_Y": -37.466549}}, {"type": "Feature", "geometry": {"type": "Point", "coordinates": [-72.372614, -37.46596599999997]}, "properties": {"CUT_REG": "08", "CUT_PROV": "083", "CUT_COM": "08301", "REGION": "Biob\u00edo", "PROVINCIA": "Biob\u00edo", "COMUNA": "Los Angeles", "variable": "Centros de Educaci\u00f3n Parvularia", "Nombres": "GALVARINO", "POINT_X": -72.372614, "POINT_Y": -37.465966}}, {"type": "Feature", "geometry": {"type": "Point", "coordinates": [-72.33897999999996, -37.465770000000006]}, "properties": {"CUT_REG": "08", "CUT_PROV": "083", "CUT_COM": "08301", "REGION": "Biob\u00edo", "PROVINCIA": "Biob\u00edo", "COMUNA": "Los Angeles", "variable": "Centros de Educaci\u00f3n Parvularia", "Nombres": "ESCUELA ESPECIAL DE LENGUAJE CAPULLOS", "POINT_X": -72.33898, "POINT_Y": -37.46577}}, {"type": "Feature", "geometry": {"type": "Point", "coordinates": [-72.36743199999998, -37.46562999999997]}, "properties": {"CUT_REG": "08", "CUT_PROV": "083", "CUT_COM": "08301", "REGION": "Biob\u00edo", "PROVINCIA": "Biob\u00edo", "COMUNA": "Los Angeles", "variable": "Centros de Educaci\u00f3n Parvularia", "Nombres": "LICEO COMERCIAL CAMILO HENRIQUEZ", "POINT_X": -72.367432, "POINT_Y": -37.46563}}, {"type": "Feature", "geometry": {"type": "Point", "coordinates": [-72.34479399999998, -37.465244000000006]}, "properties": {"CUT_REG": "08", "CUT_PROV": "083", "CUT_COM": "08301", "REGION": "Biob\u00edo", "PROVINCIA": "Biob\u00edo", "COMUNA": "Los Angeles", "variable": "Centros de Educaci\u00f3n Parvularia", "Nombres": "MERCADITO DE SUE\u00d1OS", "POINT_X": -72.344794, "POINT_Y": -37.465244}}, {"type": "Feature", "geometry": {"type": "Point", "coordinates": [-72.35011, -37.46507299999998]}, "properties": {"CUT_REG": "08", "CUT_PROV": "083", "CUT_COM": "08301", "REGION": "Biob\u00edo", "PROVINCIA": "Biob\u00edo", "COMUNA": "Los Angeles", "variable": "Centros de Educaci\u00f3n Parvularia", "Nombres": "CENTRO DE ATENCION INFANTIL TAMBORIN", "POINT_X": -72.35011, "POINT_Y": -37.465073}}, {"type": "Feature", "geometry": {"type": "Point", "coordinates": [-72.36829399999996, -37.46458100000004]}, "properties": {"CUT_REG": "08", "CUT_PROV": "083", "CUT_COM": "08301", "REGION": "Biob\u00edo", "PROVINCIA": "Biob\u00edo", "COMUNA": "Los Angeles", "variable": "Centros de Educaci\u00f3n Parvularia", "Nombres": "ESCUELA PARTICULAR JUAN PABLO SEGUNDO", "POINT_X": -72.368294, "POINT_Y": -37.464581}}, {"type": "Feature", "geometry": {"type": "Point", "coordinates": [-72.370095714, -37.46445586599999]}, "properties": {"CUT_REG": "08", "CUT_PROV": "083", "CUT_COM": "08301", "REGION": "Biob\u00edo", "PROVINCIA": "Biob\u00edo", "COMUNA": "Los Angeles", "variable": "Centros de Educaci\u00f3n Parvularia", "Nombres": "LA CASITA DE MIS SUE\u00d1OS", "POINT_X": -72.370095714, "POINT_Y": -37.464455866}}, {"type": "Feature", "geometry": {"type": "Point", "coordinates": [-72.33925599999998, -37.46421099999998]}, "properties": {"CUT_REG": "08", "CUT_PROV": "083", "CUT_COM": "08301", "REGION": "Biob\u00edo", "PROVINCIA": "Biob\u00edo", "COMUNA": "Los Angeles", "variable": "Centros de Educaci\u00f3n Parvularia", "Nombres": "COLEGIO SAN RAFAEL ARCANGEL", "POINT_X": -72.339256, "POINT_Y": -37.464211}}, {"type": "Feature", "geometry": {"type": "Point", "coordinates": [-72.37715084099995, -37.463976621000036]}, "properties": {"CUT_REG": "08", "CUT_PROV": "083", "CUT_COM": "08301", "REGION": "Biob\u00edo", "PROVINCIA": "Biob\u00edo", "COMUNA": "Los Angeles", "variable": "Centros de Educaci\u00f3n Parvularia", "Nombres": "EL HORIZONTE", "POINT_X": -72.377150841, "POINT_Y": -37.463976621}}, {"type": "Feature", "geometry": {"type": "Point", "coordinates": [-72.36477272600004, -37.46397044699997]}, "properties": {"CUT_REG": "08", "CUT_PROV": "083", "CUT_COM": "08301", "REGION": "Biob\u00edo", "PROVINCIA": "Biob\u00edo", "COMUNA": "Los Angeles", "variable": "Centros de Educaci\u00f3n Parvularia", "Nombres": "ISLA DEL LAJA", "POINT_X": -72.364772726, "POINT_Y": -37.463970447}}, {"type": "Feature", "geometry": {"type": "Point", "coordinates": [-72.54474599999998, -37.463637999999996]}, "properties": {"CUT_REG": "08", "CUT_PROV": "083", "CUT_COM": "08301", "REGION": "Biob\u00edo", "PROVINCIA": "Biob\u00edo", "COMUNA": "Los Angeles", "variable": "Centros de Educaci\u00f3n Parvularia", "Nombres": "ESCUELA PARTICULAR LA VICTORIA", "POINT_X": -72.544746, "POINT_Y": -37.463638}}, {"type": "Feature", "geometry": {"type": "Point", "coordinates": [-72.36483800000002, -37.46324899999996]}, "properties": {"CUT_REG": "08", "CUT_PROV": "083", "CUT_COM": "08301", "REGION": "Biob\u00edo", "PROVINCIA": "Biob\u00edo", "COMUNA": "Los Angeles", "variable": "Centros de Educaci\u00f3n Parvularia", "Nombres": "ESCUELA ISLA DE LAJA", "POINT_X": -72.364838, "POINT_Y": -37.463249}}, {"type": "Feature", "geometry": {"type": "Point", "coordinates": [-72.31152300000002, -37.462840999999955]}, "properties": {"CUT_REG": "08", "CUT_PROV": "083", "CUT_COM": "08301", "REGION": "Biob\u00edo", "PROVINCIA": "Biob\u00edo", "COMUNA": "Los Angeles", "variable": "Centros de Educaci\u00f3n Parvularia", "Nombres": "COLEGIO PADRE ALBERTO HURTADO LOS ANGELES", "POINT_X": -72.311523, "POINT_Y": -37.462841}}, {"type": "Feature", "geometry": {"type": "Point", "coordinates": [-72.35722400000002, -37.46270000000001]}, "properties": {"CUT_REG": "08", "CUT_PROV": "083", "CUT_COM": "08301", "REGION": "Biob\u00edo", "PROVINCIA": "Biob\u00edo", "COMUNA": "Los Angeles", "variable": "Centros de Educaci\u00f3n Parvularia", "Nombres": "ESCUELA COLONIA ARABE", "POINT_X": -72.357224, "POINT_Y": -37.4627}}, {"type": "Feature", "geometry": {"type": "Point", "coordinates": [-72.36527999999998, -37.46227300000003]}, "properties": {"CUT_REG": "08", "CUT_PROV": "083", "CUT_COM": "08301", "REGION": "Biob\u00edo", "PROVINCIA": "Biob\u00edo", "COMUNA": "Los Angeles", "variable": "Centros de Educaci\u00f3n Parvularia", "Nombres": "ESCUELA DIFERENCIAL ESTRELLITA DE BEL\u00c9N", "POINT_X": -72.36528, "POINT_Y": -37.462273}}, {"type": "Feature", "geometry": {"type": "Point", "coordinates": [-72.342613, -37.461849000000036]}, "properties": {"CUT_REG": "08", "CUT_PROV": "083", "CUT_COM": "08301", "REGION": "Biob\u00edo", "PROVINCIA": "Biob\u00edo", "COMUNA": "Los Angeles", "variable": "Centros de Educaci\u00f3n Parvularia", "Nombres": "ESCUELA BASICA REPUBLICA DE ISRAEL", "POINT_X": -72.342613, "POINT_Y": -37.461849}}, {"type": "Feature", "geometry": {"type": "Point", "coordinates": [-72.34911000000002, -37.46151999999999]}, "properties": {"CUT_REG": "08", "CUT_PROV": "083", "CUT_COM": "08301", "REGION": "Biob\u00edo", "PROVINCIA": "Biob\u00edo", "COMUNA": "Los Angeles", "variable": "Centros de Educaci\u00f3n Parvularia", "Nombres": "ESCUELA ESPECIAL DE LENGUAJE ALMAGRO", "POINT_X": -72.34911, "POINT_Y": -37.46152}}, {"type": "Feature", "geometry": {"type": "Point", "coordinates": [-72.34739199999999, -37.461410000000036]}, "properties": {"CUT_REG": "08", "CUT_PROV": "083", "CUT_COM": "08301", "REGION": "Biob\u00edo", "PROVINCIA": "Biob\u00edo", "COMUNA": "Los Angeles", "variable": "Centros de Educaci\u00f3n Parvularia", "Nombres": "ESCUELA ESPECIAL DE LENGUAJE PALABRITAS SANTA MAR\u00cdA DE LOS \u00c1NGELES", "POINT_X": -72.347392, "POINT_Y": -37.46141}}, {"type": "Feature", "geometry": {"type": "Point", "coordinates": [-72.36284600000005, -37.460930000000026]}, "properties": {"CUT_REG": "08", "CUT_PROV": "083", "CUT_COM": "08301", "REGION": "Biob\u00edo", "PROVINCIA": "Biob\u00edo", "COMUNA": "Los Angeles", "variable": "Centros de Educaci\u00f3n Parvularia", "Nombres": "ESCUELA GENERAL BERNARDO O HIGGINS", "POINT_X": -72.362846, "POINT_Y": -37.46093}}, {"type": "Feature", "geometry": {"type": "Point", "coordinates": [-72.37499999999999, -37.460758000000006]}, "properties": {"CUT_REG": "08", "CUT_PROV": "083", "CUT_COM": "08301", "REGION": "Biob\u00edo", "PROVINCIA": "Biob\u00edo", "COMUNA": "Los Angeles", "variable": "Centros de Educaci\u00f3n Parvularia", "Nombres": "ESCUELA PARTICULAR BIOB\u00cdO DE LOS \u00c1NGELES", "POINT_X": -72.375, "POINT_Y": -37.460758}}, {"type": "Feature", "geometry": {"type": "Point", "coordinates": [-72.37659499999998, -37.460499999999975]}, "properties": {"CUT_REG": "08", "CUT_PROV": "083", "CUT_COM": "08301", "REGION": "Biob\u00edo", "PROVINCIA": "Biob\u00edo", "COMUNA": "Los Angeles", "variable": "Centros de Educaci\u00f3n Parvularia", "Nombres": "S.C. EL HOGAR", "POINT_X": -72.376595, "POINT_Y": -37.4605}}, {"type": "Feature", "geometry": {"type": "Point", "coordinates": [-72.38133399999995, -37.46029599999997]}, "properties": {"CUT_REG": "08", "CUT_PROV": "083", "CUT_COM": "08301", "REGION": "Biob\u00edo", "PROVINCIA": "Biob\u00edo", "COMUNA": "Los Angeles", "variable": "Centros de Educaci\u00f3n Parvularia", "Nombres": "VILLA LAS TRANQUERAS", "POINT_X": -72.381334, "POINT_Y": -37.460296}}, {"type": "Feature", "geometry": {"type": "Point", "coordinates": [-72.37331000000003, -37.459545000000006]}, "properties": {"CUT_REG": "08", "CUT_PROV": "083", "CUT_COM": "08301", "REGION": "Biob\u00edo", "PROVINCIA": "Biob\u00edo", "COMUNA": "Los Angeles", "variable": "Centros de Educaci\u00f3n Parvularia", "Nombres": "ESCUELA DE LENGUAJE SANTISIMA TRINIDAD", "POINT_X": -72.37331, "POINT_Y": -37.459545}}, {"type": "Feature", "geometry": {"type": "Point", "coordinates": [-72.36875999999998, -37.458580000000005]}, "properties": {"CUT_REG": "08", "CUT_PROV": "083", "CUT_COM": "08301", "REGION": "Biob\u00edo", "PROVINCIA": "Biob\u00edo", "COMUNA": "Los Angeles", "variable": "Centros de Educaci\u00f3n Parvularia", "Nombres": "ESCUELA ESPECIAL DIFERENCIAL ALEN", "POINT_X": -72.36876, "POINT_Y": -37.45858}}, {"type": "Feature", "geometry": {"type": "Point", "coordinates": [-72.33925599999998, -37.45827100000002]}, "properties": {"CUT_REG": "08", "CUT_PROV": "083", "CUT_COM": "08301", "REGION": "Biob\u00edo", "PROVINCIA": "Biob\u00edo", "COMUNA": "Los Angeles", "variable": "Centros de Educaci\u00f3n Parvularia", "Nombres": "COLEGIO INGL\u00c9S WOODLAND", "POINT_X": -72.339256, "POINT_Y": -37.458271}}, {"type": "Feature", "geometry": {"type": "Point", "coordinates": [-72.34255000000002, -37.45780999999998]}, "properties": {"CUT_REG": "08", "CUT_PROV": "083", "CUT_COM": "08301", "REGION": "Biob\u00edo", "PROVINCIA": "Biob\u00edo", "COMUNA": "Los Angeles", "variable": "Centros de Educaci\u00f3n Parvularia", "Nombres": "ESCUELA ESPECIAL DIFERENCIAL BENDICIONES DE AMOR", "POINT_X": -72.34255, "POINT_Y": -37.45781}}, {"type": "Feature", "geometry": {"type": "Point", "coordinates": [-72.34113000000004, -37.45758999999998]}, "properties": {"CUT_REG": "08", "CUT_PROV": "083", "CUT_COM": "08301", "REGION": "Biob\u00edo", "PROVINCIA": "Biob\u00edo", "COMUNA": "Los Angeles", "variable": "Centros de Educaci\u00f3n Parvularia", "Nombres": "ESCUELA ESPECIAL DE LENGUAJE Y JARD\u00cdN INFANTIL LOS \u00c1NGELES", "POINT_X": -72.34113, "POINT_Y": -37.45759}}, {"type": "Feature", "geometry": {"type": "Point", "coordinates": [-72.33418299999998, -37.457560999999984]}, "properties": {"CUT_REG": "08", "CUT_PROV": "083", "CUT_COM": "08301", "REGION": "Biob\u00edo", "PROVINCIA": "Biob\u00edo", "COMUNA": "Los Angeles", "variable": "Centros de Educaci\u00f3n Parvularia", "Nombres": "COLEGIO SAINT GEORGE SCHOOL", "POINT_X": -72.334183, "POINT_Y": -37.457561}}, {"type": "Feature", "geometry": {"type": "Point", "coordinates": [-71.8546554466, -37.4568203232]}, "properties": {"CUT_REG": "08", "CUT_PROV": "083", "CUT_COM": "08309", "REGION": "Biob\u00edo", "PROVINCIA": "Biob\u00edo", "COMUNA": "Quilleco", "variable": "Centros de Educaci\u00f3n Parvularia", "Nombres": "LOS CANTARITOS", "POINT_X": -71.8546554466, "POINT_Y": -37.4568203232}}, {"type": "Feature", "geometry": {"type": "Point", "coordinates": [-72.34890700000003, -37.45647799999999]}, "properties": {"CUT_REG": "08", "CUT_PROV": "083", "CUT_COM": "08301", "REGION": "Biob\u00edo", "PROVINCIA": "Biob\u00edo", "COMUNA": "Los Angeles", "variable": "Centros de Educaci\u00f3n Parvularia", "Nombres": "ESCUELA THOMAS JEFFERSON", "POINT_X": -72.348907, "POINT_Y": -37.456478}}, {"type": "Feature", "geometry": {"type": "Point", "coordinates": [-72.34509300000002, -37.456169]}, "properties": {"CUT_REG": "08", "CUT_PROV": "083", "CUT_COM": "08301", "REGION": "Biob\u00edo", "PROVINCIA": "Biob\u00edo", "COMUNA": "Los Angeles", "variable": "Centros de Educaci\u00f3n Parvularia", "Nombres": "ESCUELA PARTICULAR DIEGO DE ALMAGRO", "POINT_X": -72.345093, "POINT_Y": -37.456169}}, {"type": "Feature", "geometry": {"type": "Point", "coordinates": [-72.34461200000001, -37.45597099999996]}, "properties": {"CUT_REG": "08", "CUT_PROV": "083", "CUT_COM": "08301", "REGION": "Biob\u00edo", "PROVINCIA": "Biob\u00edo", "COMUNA": "Los Angeles", "variable": "Centros de Educaci\u00f3n Parvularia", "Nombres": "ESCUELA CLARA REBOLLEDO DE GODOY", "POINT_X": -72.344612, "POINT_Y": -37.455971}}, {"type": "Feature", "geometry": {"type": "Point", "coordinates": [-72.36956, -37.452061000000015]}, "properties": {"CUT_REG": "08", "CUT_PROV": "083", "CUT_COM": "08301", "REGION": "Biob\u00edo", "PROVINCIA": "Biob\u00edo", "COMUNA": "Los Angeles", "variable": "Centros de Educaci\u00f3n Parvularia", "Nombres": "COLEGIO TERESIANO LOS ANGELES", "POINT_X": -72.36956, "POINT_Y": -37.452061}}, {"type": "Feature", "geometry": {"type": "Point", "coordinates": [-72.33432000000003, -37.45206000000002]}, "properties": {"CUT_REG": "08", "CUT_PROV": "083", "CUT_COM": "08301", "REGION": "Biob\u00edo", "PROVINCIA": "Biob\u00edo", "COMUNA": "Los Angeles", "variable": "Centros de Educaci\u00f3n Parvularia", "Nombres": "ESPECIAL DE LENGUAJE COLORIN COLORADO", "POINT_X": -72.33432, "POINT_Y": -37.45206}}, {"type": "Feature", "geometry": {"type": "Point", "coordinates": [-71.651706803, -37.451931011000006]}, "properties": {"CUT_REG": "08", "CUT_PROV": "083", "CUT_COM": "08309", "REGION": "Biob\u00edo", "PROVINCIA": "Biob\u00edo", "COMUNA": "Quilleco", "variable": "Centros de Educaci\u00f3n Parvularia", "Nombres": "MIS PRIMEROS PASITOS", "POINT_X": -71.651706803, "POINT_Y": -37.451931011}}, {"type": "Feature", "geometry": {"type": "Point", "coordinates": [-72.76862299999996, -37.45159100000003]}, "properties": {"CUT_REG": "08", "CUT_PROV": "083", "CUT_COM": "08306", "REGION": "Biob\u00edo", "PROVINCIA": "Biob\u00edo", "COMUNA": "Nacimiento", "variable": "Centros de Educaci\u00f3n Parvularia", "Nombres": "ESCUELA BASICA DOLLINCO", "POINT_X": -72.768623, "POINT_Y": -37.451591}}, {"type": "Feature", "geometry": {"type": "Point", "coordinates": [-72.14012600000004, -37.450411]}, "properties": {"CUT_REG": "08", "CUT_PROV": "083", "CUT_COM": "08301", "REGION": "Biob\u00edo", "PROVINCIA": "Biob\u00edo", "COMUNA": "Los Angeles", "variable": "Centros de Educaci\u00f3n Parvularia", "Nombres": "CHACAYAL SUR", "POINT_X": -72.140126, "POINT_Y": -37.450411}}, {"type": "Feature", "geometry": {"type": "Point", "coordinates": [-72.33768000000003, -37.44989800000001]}, "properties": {"CUT_REG": "08", "CUT_PROV": "083", "CUT_COM": "08301", "REGION": "Biob\u00edo", "PROVINCIA": "Biob\u00edo", "COMUNA": "Los Angeles", "variable": "Centros de Educaci\u00f3n Parvularia", "Nombres": "INSTITUTO DE ESTIMULACI\u00d3N TEMPRANA APEGO SEGURO", "POINT_X": -72.33768, "POINT_Y": -37.449898}}, {"type": "Feature", "geometry": {"type": "Point", "coordinates": [-72.14071300000002, -37.44982500000001]}, "properties": {"CUT_REG": "08", "CUT_PROV": "083", "CUT_COM": "08301", "REGION": "Biob\u00edo", "PROVINCIA": "Biob\u00edo", "COMUNA": "Los Angeles", "variable": "Centros de Educaci\u00f3n Parvularia", "Nombres": "ESCUELA ESPECIAL DE LENGUAJE MUNDO PALABRITAS", "POINT_X": -72.140713, "POINT_Y": -37.449825}}, {"type": "Feature", "geometry": {"type": "Point", "coordinates": [-72.33457000000003, -37.44937000000002]}, "properties": {"CUT_REG": "08", "CUT_PROV": "083", "CUT_COM": "08301", "REGION": "Biob\u00edo", "PROVINCIA": "Biob\u00edo", "COMUNA": "Los Angeles", "variable": "Centros de Educaci\u00f3n Parvularia", "Nombres": "ESCUELA ESPECIAL DE LENGUAJE PASITOS", "POINT_X": -72.33457, "POINT_Y": -37.44937}}, {"type": "Feature", "geometry": {"type": "Point", "coordinates": [-72.13942700000001, -37.447971]}, "properties": {"CUT_REG": "08", "CUT_PROV": "083", "CUT_COM": "08301", "REGION": "Biob\u00edo", "PROVINCIA": "Biob\u00edo", "COMUNA": "Los Angeles", "variable": "Centros de Educaci\u00f3n Parvularia", "Nombres": "ESCUELA BASICA CHACAYAL SUR", "POINT_X": -72.139427, "POINT_Y": -37.447971}}, {"type": "Feature", "geometry": {"type": "Point", "coordinates": [-72.33009299999998, -37.44347]}, "properties": {"CUT_REG": "08", "CUT_PROV": "083", "CUT_COM": "08301", "REGION": "Biob\u00edo", "PROVINCIA": "Biob\u00edo", "COMUNA": "Los Angeles", "variable": "Centros de Educaci\u00f3n Parvularia", "Nombres": "ESCUELA HOGAR NIEVES VASQUEZ PALACIOS", "POINT_X": -72.330093, "POINT_Y": -37.44347}}, {"type": "Feature", "geometry": {"type": "Point", "coordinates": [-72.39794750000001, -37.44282649999996]}, "properties": {"CUT_REG": "08", "CUT_PROV": "083", "CUT_COM": "08301", "REGION": "Biob\u00edo", "PROVINCIA": "Biob\u00edo", "COMUNA": "Los Angeles", "variable": "Centros de Educaci\u00f3n Parvularia", "Nombres": "JARDIN INFANTIL MI MUNDO", "POINT_X": -72.3979475, "POINT_Y": -37.4428265}}, {"type": "Feature", "geometry": {"type": "Point", "coordinates": [-72.33833299999998, -37.44255099999999]}, "properties": {"CUT_REG": "08", "CUT_PROV": "083", "CUT_COM": "08301", "REGION": "Biob\u00edo", "PROVINCIA": "Biob\u00edo", "COMUNA": "Los Angeles", "variable": "Centros de Educaci\u00f3n Parvularia", "Nombres": "COLEGIO SAN GABRIEL ARCANGEL", "POINT_X": -72.338333, "POINT_Y": -37.442551}}, {"type": "Feature", "geometry": {"type": "Point", "coordinates": [-72.32288399999999, -37.43955999999996]}, "properties": {"CUT_REG": "08", "CUT_PROV": "083", "CUT_COM": "08301", "REGION": "Biob\u00edo", "PROVINCIA": "Biob\u00edo", "COMUNA": "Los Angeles", "variable": "Centros de Educaci\u00f3n Parvularia", "Nombres": "COLEGIO INSTITUTO CRISTIANO GRACIA Y PAZ", "POINT_X": -72.322884, "POINT_Y": -37.43956}}, {"type": "Feature", "geometry": {"type": "Point", "coordinates": [-72.32071700000002, -37.43869000000001]}, "properties": {"CUT_REG": "08", "CUT_PROV": "083", "CUT_COM": "08301", "REGION": "Biob\u00edo", "PROVINCIA": "Biob\u00edo", "COMUNA": "Los Angeles", "variable": "Centros de Educaci\u00f3n Parvularia", "Nombres": "COLEGIO LA FUENTE", "POINT_X": -72.320717, "POINT_Y": -37.43869}}, {"type": "Feature", "geometry": {"type": "Point", "coordinates": [-71.82130062, -37.43489338000002]}, "properties": {"CUT_REG": "08", "CUT_PROV": "083", "CUT_COM": "08309", "REGION": "Biob\u00edo", "PROVINCIA": "Biob\u00edo", "COMUNA": "Quilleco", "variable": "Centros de Educaci\u00f3n Parvularia", "Nombres": "COLEGIO INMACULADA CONCEPCION", "POINT_X": -71.82130062, "POINT_Y": -37.43489338}}, {"type": "Feature", "geometry": {"type": "Point", "coordinates": [-72.18479899999997, -37.43249100000002]}, "properties": {"CUT_REG": "08", "CUT_PROV": "083", "CUT_COM": "08301", "REGION": "Biob\u00edo", "PROVINCIA": "Biob\u00edo", "COMUNA": "Los Angeles", "variable": "Centros de Educaci\u00f3n Parvularia", "Nombres": "CENTRO EDUCACI\u00d3N ADVENTISTA LOS \u00c1NGELES", "POINT_X": -72.184799, "POINT_Y": -37.432491}}, {"type": "Feature", "geometry": {"type": "Point", "coordinates": [-72.13638600000002, -37.42911700000001]}, "properties": {"CUT_REG": "08", "CUT_PROV": "083", "CUT_COM": "08301", "REGION": "Biob\u00edo", "PROVINCIA": "Biob\u00edo", "COMUNA": "Los Angeles", "variable": "Centros de Educaci\u00f3n Parvularia", "Nombres": "BROTES DE CHACAY", "POINT_X": -72.136386, "POINT_Y": -37.429117}}, {"type": "Feature", "geometry": {"type": "Point", "coordinates": [-72.13625300000004, -37.429089000000005]}, "properties": {"CUT_REG": "08", "CUT_PROV": "083", "CUT_COM": "08301", "REGION": "Biob\u00edo", "PROVINCIA": "Biob\u00edo", "COMUNA": "Los Angeles", "variable": "Centros de Educaci\u00f3n Parvularia", "Nombres": "ESCUELA BASICA SANTA CLARA DE CHACAYAL", "POINT_X": -72.136253, "POINT_Y": -37.429089}}, {"type": "Feature", "geometry": {"type": "Point", "coordinates": [-71.78107438200003, -37.425931215499986]}, "properties": {"CUT_REG": "08", "CUT_PROV": "083", "CUT_COM": "08309", "REGION": "Biob\u00edo", "PROVINCIA": "Biob\u00edo", "COMUNA": "Quilleco", "variable": "Centros de Educaci\u00f3n Parvularia", "Nombres": "PADRE ALBERTO HURTADO", "POINT_X": -71.781074382, "POINT_Y": -37.4259312155}}, {"type": "Feature", "geometry": {"type": "Point", "coordinates": [-71.83605395499998, -37.42533881500004]}, "properties": {"CUT_REG": "08", "CUT_PROV": "083", "CUT_COM": "08309", "REGION": "Biob\u00edo", "PROVINCIA": "Biob\u00edo", "COMUNA": "Quilleco", "variable": "Centros de Educaci\u00f3n Parvularia", "Nombres": "LOS VOLCANES", "POINT_X": -71.836053955, "POINT_Y": -37.425338815}}, {"type": "Feature", "geometry": {"type": "Point", "coordinates": [-72.45008899999998, -37.42247]}, "properties": {"CUT_REG": "08", "CUT_PROV": "083", "CUT_COM": "08301", "REGION": "Biob\u00edo", "PROVINCIA": "Biob\u00edo", "COMUNA": "Los Angeles", "variable": "Centros de Educaci\u00f3n Parvularia", "Nombres": "ESCUELA BASICA LAS QUINTAS", "POINT_X": -72.450089, "POINT_Y": -37.42247}}, {"type": "Feature", "geometry": {"type": "Point", "coordinates": [-72.337219, -37.42217999999998]}, "properties": {"CUT_REG": "08", "CUT_PROV": "083", "CUT_COM": "08301", "REGION": "Biob\u00edo", "PROVINCIA": "Biob\u00edo", "COMUNA": "Los Angeles", "variable": "Centros de Educaci\u00f3n Parvularia", "Nombres": "ESCUELA PARTICULAR SANTA PILAR", "POINT_X": -72.337219, "POINT_Y": -37.42218}}, {"type": "Feature", "geometry": {"type": "Point", "coordinates": [-72.02247988900004, -37.42047655550004]}, "properties": {"CUT_REG": "08", "CUT_PROV": "083", "CUT_COM": "08309", "REGION": "Biob\u00edo", "PROVINCIA": "Biob\u00edo", "COMUNA": "Quilleco", "variable": "Centros de Educaci\u00f3n Parvularia", "Nombres": "LUZ DE ESPERANZA", "POINT_X": -72.022479889, "POINT_Y": -37.4204765555}}, {"type": "Feature", "geometry": {"type": "Point", "coordinates": [-72.30861700000001, -37.41239199999996]}, "properties": {"CUT_REG": "08", "CUT_PROV": "083", "CUT_COM": "08301", "REGION": "Biob\u00edo", "PROVINCIA": "Biob\u00edo", "COMUNA": "Los Angeles", "variable": "Centros de Educaci\u00f3n Parvularia", "Nombres": "ESCUELA BASICA EL NOGAL.", "POINT_X": -72.308617, "POINT_Y": -37.412392}}, {"type": "Feature", "geometry": {"type": "Point", "coordinates": [-71.97882599999996, -37.40621300000003]}, "properties": {"CUT_REG": "08", "CUT_PROV": "083", "CUT_COM": "08309", "REGION": "Biob\u00edo", "PROVINCIA": "Biob\u00edo", "COMUNA": "Quilleco", "variable": "Centros de Educaci\u00f3n Parvularia", "Nombres": "PICHI - RAY\u00c9N", "POINT_X": -71.978826, "POINT_Y": -37.406213}}, {"type": "Feature", "geometry": {"type": "Point", "coordinates": [-71.98003299999999, -37.40559599999996]}, "properties": {"CUT_REG": "08", "CUT_PROV": "083", "CUT_COM": "08309", "REGION": "Biob\u00edo", "PROVINCIA": "Biob\u00edo", "COMUNA": "Quilleco", "variable": "Centros de Educaci\u00f3n Parvularia", "Nombres": "EL PROGRESO", "POINT_X": -71.980033, "POINT_Y": -37.405596}}, {"type": "Feature", "geometry": {"type": "Point", "coordinates": [-71.97979999999998, -37.40499999900003]}, "properties": {"CUT_REG": "08", "CUT_PROV": "083", "CUT_COM": "08309", "REGION": "Biob\u00edo", "PROVINCIA": "Biob\u00edo", "COMUNA": "Quilleco", "variable": "Centros de Educaci\u00f3n Parvularia", "Nombres": "ESPUMITA", "POINT_X": -71.9798, "POINT_Y": -37.404999999}}, {"type": "Feature", "geometry": {"type": "Point", "coordinates": [-71.97958399999996, -37.404719999999955]}, "properties": {"CUT_REG": "08", "CUT_PROV": "083", "CUT_COM": "08309", "REGION": "Biob\u00edo", "PROVINCIA": "Biob\u00edo", "COMUNA": "Quilleco", "variable": "Centros de Educaci\u00f3n Parvularia", "Nombres": "ESCUELA BASICA VILLA MERCEDES", "POINT_X": -71.979584, "POINT_Y": -37.40472}}, {"type": "Feature", "geometry": {"type": "Point", "coordinates": [-72.01191700000001, -37.40224100000001]}, "properties": {"CUT_REG": "08", "CUT_PROV": "083", "CUT_COM": "08309", "REGION": "Biob\u00edo", "PROVINCIA": "Biob\u00edo", "COMUNA": "Quilleco", "variable": "Centros de Educaci\u00f3n Parvularia", "Nombres": "LICEO ISABEL RIQUELME", "POINT_X": -72.011917, "POINT_Y": -37.402241}}, {"type": "Feature", "geometry": {"type": "Point", "coordinates": [-72.01093500000005, -37.39870300000002]}, "properties": {"CUT_REG": "08", "CUT_PROV": "083", "CUT_COM": "08309", "REGION": "Biob\u00edo", "PROVINCIA": "Biob\u00edo", "COMUNA": "Quilleco", "variable": "Centros de Educaci\u00f3n Parvularia", "Nombres": "LAS CANTERAS", "POINT_X": -72.010935, "POINT_Y": -37.398703}}, {"type": "Feature", "geometry": {"type": "Point", "coordinates": [-72.62119299999998, -37.397800000000004]}, "properties": {"CUT_REG": "08", "CUT_PROV": "083", "CUT_COM": "08301", "REGION": "Biob\u00edo", "PROVINCIA": "Biob\u00edo", "COMUNA": "Los Angeles", "variable": "Centros de Educaci\u00f3n Parvularia", "Nombres": "ESCUELA BASICA MILLANTU", "POINT_X": -72.621193, "POINT_Y": -37.3978}}, {"type": "Feature", "geometry": {"type": "Point", "coordinates": [-72.18073299999998, -37.39036899999996]}, "properties": {"CUT_REG": "08", "CUT_PROV": "083", "CUT_COM": "08301", "REGION": "Biob\u00edo", "PROVINCIA": "Biob\u00edo", "COMUNA": "Los Angeles", "variable": "Centros de Educaci\u00f3n Parvularia", "Nombres": "ESCUELA BASICA LA CAPILLA", "POINT_X": -72.180733, "POINT_Y": -37.390369}}, {"type": "Feature", "geometry": {"type": "Point", "coordinates": [-71.88020801999997, -37.37895830499996]}, "properties": {"CUT_REG": "08", "CUT_PROV": "083", "CUT_COM": "08309", "REGION": "Biob\u00edo", "PROVINCIA": "Biob\u00edo", "COMUNA": "Quilleco", "variable": "Centros de Educaci\u00f3n Parvularia", "Nombres": "MOLCO", "POINT_X": -71.88020802, "POINT_Y": -37.378958305}}, {"type": "Feature", "geometry": {"type": "Point", "coordinates": [-71.717985, -37.37434650000003]}, "properties": {"CUT_REG": "08", "CUT_PROV": "083", "CUT_COM": "08302", "REGION": "Biob\u00edo", "PROVINCIA": "Biob\u00edo", "COMUNA": "Antuco", "variable": "Centros de Educaci\u00f3n Parvularia", "Nombres": "COLEGIO LOS ALERCES", "POINT_X": -71.717985, "POINT_Y": -37.3743465}}, {"type": "Feature", "geometry": {"type": "Point", "coordinates": [-72.096802, -37.365002000000025]}, "properties": {"CUT_REG": "08", "CUT_PROV": "083", "CUT_COM": "08301", "REGION": "Biob\u00edo", "PROVINCIA": "Biob\u00edo", "COMUNA": "Los Angeles", "variable": "Centros de Educaci\u00f3n Parvularia", "Nombres": "ESCUELA BASICA LA LEYENDA", "POINT_X": -72.096802, "POINT_Y": -37.365002}}, {"type": "Feature", "geometry": {"type": "Point", "coordinates": [-71.52911399999996, -37.35958100000002]}, "properties": {"CUT_REG": "08", "CUT_PROV": "083", "CUT_COM": "08302", "REGION": "Biob\u00edo", "PROVINCIA": "Biob\u00edo", "COMUNA": "Antuco", "variable": "Centros de Educaci\u00f3n Parvularia", "Nombres": "ESCUELA VOLCAN ANTUCO", "POINT_X": -71.529114, "POINT_Y": -37.359581}}, {"type": "Feature", "geometry": {"type": "Point", "coordinates": [-72.38160699999997, -37.35043000000003]}, "properties": {"CUT_REG": "08", "CUT_PROV": "083", "CUT_COM": "08301", "REGION": "Biob\u00edo", "PROVINCIA": "Biob\u00edo", "COMUNA": "Los Angeles", "variable": "Centros de Educaci\u00f3n Parvularia", "Nombres": "ESCUELA PARTICULAR SAN JOS\u00c9", "POINT_X": -72.381607, "POINT_Y": -37.35043}}, {"type": "Feature", "geometry": {"type": "Point", "coordinates": [-72.53417200000003, -37.349929999999965]}, "properties": {"CUT_REG": "08", "CUT_PROV": "083", "CUT_COM": "08304", "REGION": "Biob\u00edo", "PROVINCIA": "Biob\u00edo", "COMUNA": "Laja", "variable": "Centros de Educaci\u00f3n Parvularia", "Nombres": "ESCUELA FRANCISCO PEDRO ZATTERA GUELFI", "POINT_X": -72.534172, "POINT_Y": -37.34993}}, {"type": "Feature", "geometry": {"type": "Point", "coordinates": [-72.48861700000003, -37.34988]}, "properties": {"CUT_REG": "08", "CUT_PROV": "083", "CUT_COM": "08304", "REGION": "Biob\u00edo", "PROVINCIA": "Biob\u00edo", "COMUNA": "Laja", "variable": "Centros de Educaci\u00f3n Parvularia", "Nombres": "ESCUELA LAS CI\u00c9NAGAS", "POINT_X": -72.488617, "POINT_Y": -37.34988}}, {"type": "Feature", "geometry": {"type": "Point", "coordinates": [-71.67787900000002, -37.332001000000034]}, "properties": {"CUT_REG": "08", "CUT_PROV": "083", "CUT_COM": "08302", "REGION": "Biob\u00edo", "PROVINCIA": "Biob\u00edo", "COMUNA": "Antuco", "variable": "Centros de Educaci\u00f3n Parvularia", "Nombres": "LICEO DOCTOR V\u00cdCTOR R\u00cdOS RUIZ", "POINT_X": -71.677879, "POINT_Y": -37.332001}}, {"type": "Feature", "geometry": {"type": "Point", "coordinates": [-72.07180400000004, -37.33127999999998]}, "properties": {"CUT_REG": "08", "CUT_PROV": "083", "CUT_COM": "08309", "REGION": "Biob\u00edo", "PROVINCIA": "Biob\u00edo", "COMUNA": "Quilleco", "variable": "Centros de Educaci\u00f3n Parvularia", "Nombres": "LOS CACHORRITOS", "POINT_X": -72.071804, "POINT_Y": -37.33128}}, {"type": "Feature", "geometry": {"type": "Point", "coordinates": [-71.79255800000001, -37.32912700000001]}, "properties": {"CUT_REG": "08", "CUT_PROV": "083", "CUT_COM": "08302", "REGION": "Biob\u00edo", "PROVINCIA": "Biob\u00edo", "COMUNA": "Antuco", "variable": "Centros de Educaci\u00f3n Parvularia", "Nombres": "SEMBRANDO SUE\u00d1OS", "POINT_X": -71.792558, "POINT_Y": -37.329127}}, {"type": "Feature", "geometry": {"type": "Point", "coordinates": [-71.74169199999997, -37.32912100000004]}, "properties": {"CUT_REG": "08", "CUT_PROV": "083", "CUT_COM": "08302", "REGION": "Biob\u00edo", "PROVINCIA": "Biob\u00edo", "COMUNA": "Antuco", "variable": "Centros de Educaci\u00f3n Parvularia", "Nombres": "ESCUELA OLGA RIOS DE PINOCHET", "POINT_X": -71.741692, "POINT_Y": -37.329121}}, {"type": "Feature", "geometry": {"type": "Point", "coordinates": [-71.91241899299996, -37.315289939999985]}, "properties": {"CUT_REG": "08", "CUT_PROV": "083", "CUT_COM": "08312", "REGION": "Biob\u00edo", "PROVINCIA": "Biob\u00edo", "COMUNA": "Tucapel", "variable": "Centros de Educaci\u00f3n Parvularia", "Nombres": "AYELEN", "POINT_X": -71.912418993, "POINT_Y": -37.31528994}}, {"type": "Feature", "geometry": {"type": "Point", "coordinates": [-72.024517, -37.31316950000004]}, "properties": {"CUT_REG": "08", "CUT_PROV": "083", "CUT_COM": "08309", "REGION": "Biob\u00edo", "PROVINCIA": "Biob\u00edo", "COMUNA": "Quilleco", "variable": "Centros de Educaci\u00f3n Parvularia", "Nombres": "ESCUELA ANDRES BELLO", "POINT_X": -72.024517, "POINT_Y": -37.3131695}}, {"type": "Feature", "geometry": {"type": "Point", "coordinates": [-72.27771, -37.31118550000002]}, "properties": {"CUT_REG": "08", "CUT_PROV": "083", "CUT_COM": "08301", "REGION": "Biob\u00edo", "PROVINCIA": "Biob\u00edo", "COMUNA": "Los Angeles", "variable": "Centros de Educaci\u00f3n Parvularia", "Nombres": "COLEGIO SAN PABLO", "POINT_X": -72.27771, "POINT_Y": -37.3111855}}, {"type": "Feature", "geometry": {"type": "Point", "coordinates": [-72.66856549999997, -37.30169349999998]}, "properties": {"CUT_REG": "08", "CUT_PROV": "083", "CUT_COM": "08304", "REGION": "Biob\u00edo", "PROVINCIA": "Biob\u00edo", "COMUNA": "Laja", "variable": "Centros de Educaci\u00f3n Parvularia", "Nombres": "SIETE COLORES", "POINT_X": -72.6685655, "POINT_Y": -37.3016935}}, {"type": "Feature", "geometry": {"type": "Point", "coordinates": [-72.21531700000003, -37.30120800000004]}, "properties": {"CUT_REG": "08", "CUT_PROV": "083", "CUT_COM": "08301", "REGION": "Biob\u00edo", "PROVINCIA": "Biob\u00edo", "COMUNA": "Los Angeles", "variable": "Centros de Educaci\u00f3n Parvularia", "Nombres": "ESCUELA BASICA LA QUEBRADA", "POINT_X": -72.215317, "POINT_Y": -37.301208}}, {"type": "Feature", "geometry": {"type": "Point", "coordinates": [-72.52050050000003, -37.29894449999998]}, "properties": {"CUT_REG": "08", "CUT_PROV": "083", "CUT_COM": "08304", "REGION": "Biob\u00edo", "PROVINCIA": "Biob\u00edo", "COMUNA": "Laja", "variable": "Centros de Educaci\u00f3n Parvularia", "Nombres": "ESCUELA PEDRO DE VALDIVIA", "POINT_X": -72.5205005, "POINT_Y": -37.2989445}}, {"type": "Feature", "geometry": {"type": "Point", "coordinates": [-72.07621327450005, -37.295256368000004]}, "properties": {"CUT_REG": "08", "CUT_PROV": "083", "CUT_COM": "08309", "REGION": "Biob\u00edo", "PROVINCIA": "Biob\u00edo", "COMUNA": "Quilleco", "variable": "Centros de Educaci\u00f3n Parvularia", "Nombres": "CRECIENDO FELIZ", "POINT_X": -72.0762132745, "POINT_Y": -37.295256368}}, {"type": "Feature", "geometry": {"type": "Point", "coordinates": [-71.73452999999998, -37.29385350000002]}, "properties": {"CUT_REG": "08", "CUT_PROV": "083", "CUT_COM": "08312", "REGION": "Biob\u00edo", "PROVINCIA": "Biob\u00edo", "COMUNA": "Tucapel", "variable": "Centros de Educaci\u00f3n Parvularia", "Nombres": "COLEGIO PUMAHUE", "POINT_X": -71.73453, "POINT_Y": -37.2938535}}, {"type": "Feature", "geometry": {"type": "Point", "coordinates": [-71.89881500000004, -37.293465000000026]}, "properties": {"CUT_REG": "08", "CUT_PROV": "083", "CUT_COM": "08312", "REGION": "Biob\u00edo", "PROVINCIA": "Biob\u00edo", "COMUNA": "Tucapel", "variable": "Centros de Educaci\u00f3n Parvularia", "Nombres": "COLEGIO SAN SEBASTIAN", "POINT_X": -71.898815, "POINT_Y": -37.293465}}, {"type": "Feature", "geometry": {"type": "Point", "coordinates": [-72.19711650000002, -37.29208550000001]}, "properties": {"CUT_REG": "08", "CUT_PROV": "083", "CUT_COM": "08301", "REGION": "Biob\u00edo", "PROVINCIA": "Biob\u00edo", "COMUNA": "Los Angeles", "variable": "Centros de Educaci\u00f3n Parvularia", "Nombres": "ESCUELA PARTICULAR ARTURO PRAT", "POINT_X": -72.1971165, "POINT_Y": -37.2920855}}, {"type": "Feature", "geometry": {"type": "Point", "coordinates": [-71.94596899999999, -37.29021099999999]}, "properties": {"CUT_REG": "08", "CUT_PROV": "083", "CUT_COM": "08312", "REGION": "Biob\u00edo", "PROVINCIA": "Biob\u00edo", "COMUNA": "Tucapel", "variable": "Centros de Educaci\u00f3n Parvularia", "Nombres": "LICEO ANDR\u00c9S ALC\u00c1ZAR DE TUCAPEL", "POINT_X": -71.945969, "POINT_Y": -37.290211}}, {"type": "Feature", "geometry": {"type": "Point", "coordinates": [-71.95058200000001, -37.289908999999966]}, "properties": {"CUT_REG": "08", "CUT_PROV": "083", "CUT_COM": "08312", "REGION": "Biob\u00edo", "PROVINCIA": "Biob\u00edo", "COMUNA": "Tucapel", "variable": "Centros de Educaci\u00f3n Parvularia", "Nombres": "ESCUELA ESPECIAL DE LENGUAJE TUCAPEL", "POINT_X": -71.950582, "POINT_Y": -37.289909}}, {"type": "Feature", "geometry": {"type": "Point", "coordinates": [-71.95338281000002, -37.289484370000004]}, "properties": {"CUT_REG": "08", "CUT_PROV": "083", "CUT_COM": "08312", "REGION": "Biob\u00edo", "PROVINCIA": "Biob\u00edo", "COMUNA": "Tucapel", "variable": "Centros de Educaci\u00f3n Parvularia", "Nombres": "LOS CIPRECES", "POINT_X": -71.95338281, "POINT_Y": -37.28948437}}, {"type": "Feature", "geometry": {"type": "Point", "coordinates": [-72.59081299999997, -37.28852099999996]}, "properties": {"CUT_REG": "08", "CUT_PROV": "083", "CUT_COM": "08304", "REGION": "Biob\u00edo", "PROVINCIA": "Biob\u00edo", "COMUNA": "Laja", "variable": "Centros de Educaci\u00f3n Parvularia", "Nombres": "ESCUELA BASICA LA COLONIA", "POINT_X": -72.590813, "POINT_Y": -37.288521}}, {"type": "Feature", "geometry": {"type": "Point", "coordinates": [-71.724415, -37.287935999999966]}, "properties": {"CUT_REG": "08", "CUT_PROV": "083", "CUT_COM": "08312", "REGION": "Biob\u00edo", "PROVINCIA": "Biob\u00edo", "COMUNA": "Tucapel", "variable": "Centros de Educaci\u00f3n Parvularia", "Nombres": "POLCURA", "POINT_X": -71.724415, "POINT_Y": -37.287936}}, {"type": "Feature", "geometry": {"type": "Point", "coordinates": [-72.70922000000004, -37.28678500000003]}, "properties": {"CUT_REG": "08", "CUT_PROV": "083", "CUT_COM": "08304", "REGION": "Biob\u00edo", "PROVINCIA": "Biob\u00edo", "COMUNA": "Laja", "variable": "Centros de Educaci\u00f3n Parvularia", "Nombres": "ESCUELA ESPECIAL DE LENGUAJE ALTO DEL LAJA", "POINT_X": -72.70922, "POINT_Y": -37.286785}}, {"type": "Feature", "geometry": {"type": "Point", "coordinates": [-72.70284299999997, -37.28670100000001]}, "properties": {"CUT_REG": "08", "CUT_PROV": "083", "CUT_COM": "08304", "REGION": "Biob\u00edo", "PROVINCIA": "Biob\u00edo", "COMUNA": "Laja", "variable": "Centros de Educaci\u00f3n Parvularia", "Nombres": "LICEO POLIVALENTE HERMANAS MAESTRAS DE LA SANTA CRUZ", "POINT_X": -72.702843, "POINT_Y": -37.286701}}, {"type": "Feature", "geometry": {"type": "Point", "coordinates": [-72.69705792399995, -37.285447029]}, "properties": {"CUT_REG": "08", "CUT_PROV": "083", "CUT_COM": "08304", "REGION": "Biob\u00edo", "PROVINCIA": "Biob\u00edo", "COMUNA": "Laja", "variable": "Centros de Educaci\u00f3n Parvularia", "Nombres": "SANTA LUCIA", "POINT_X": -72.697057924, "POINT_Y": -37.285447029}}, {"type": "Feature", "geometry": {"type": "Point", "coordinates": [-72.05586100400004, -37.28485478249998]}, "properties": {"CUT_REG": "08", "CUT_PROV": "083", "CUT_COM": "08309", "REGION": "Biob\u00edo", "PROVINCIA": "Biob\u00edo", "COMUNA": "Quilleco", "variable": "Centros de Educaci\u00f3n Parvularia", "Nombres": "LOS PITUFOS", "POINT_X": -72.055861004, "POINT_Y": -37.2848547825}}, {"type": "Feature", "geometry": {"type": "Point", "coordinates": [-72.69684999999998, -37.281411000000006]}, "properties": {"CUT_REG": "08", "CUT_PROV": "083", "CUT_COM": "08304", "REGION": "Biob\u00edo", "PROVINCIA": "Biob\u00edo", "COMUNA": "Laja", "variable": "Centros de Educaci\u00f3n Parvularia", "Nombres": "RENACER DE VILLA CAPPONI", "POINT_X": -72.69685, "POINT_Y": -37.281411}}, {"type": "Feature", "geometry": {"type": "Point", "coordinates": [-72.697349348, -37.28080753199999]}, "properties": {"CUT_REG": "08", "CUT_PROV": "083", "CUT_COM": "08304", "REGION": "Biob\u00edo", "PROVINCIA": "Biob\u00edo", "COMUNA": "Laja", "variable": "Centros de Educaci\u00f3n Parvularia", "Nombres": "MIS DULCES PASOS", "POINT_X": -72.697349348, "POINT_Y": -37.280807532}}, {"type": "Feature", "geometry": {"type": "Point", "coordinates": [-72.71144899999999, -37.28044899999999]}, "properties": {"CUT_REG": "08", "CUT_PROV": "083", "CUT_COM": "08304", "REGION": "Biob\u00edo", "PROVINCIA": "Biob\u00edo", "COMUNA": "Laja", "variable": "Centros de Educaci\u00f3n Parvularia", "Nombres": "ESCUELA ANDRES ALCAZAR", "POINT_X": -72.711449, "POINT_Y": -37.280449}}, {"type": "Feature", "geometry": {"type": "Point", "coordinates": [-72.70316299999999, -37.28025600000001]}, "properties": {"CUT_REG": "08", "CUT_PROV": "083", "CUT_COM": "08304", "REGION": "Biob\u00edo", "PROVINCIA": "Biob\u00edo", "COMUNA": "Laja", "variable": "Centros de Educaci\u00f3n Parvularia", "Nombres": "ENTRE R\u00cdOS", "POINT_X": -72.703163, "POINT_Y": -37.280256}}, {"type": "Feature", "geometry": {"type": "Point", "coordinates": [-72.70217099999998, -37.28017]}, "properties": {"CUT_REG": "08", "CUT_PROV": "083", "CUT_COM": "08304", "REGION": "Biob\u00edo", "PROVINCIA": "Biob\u00edo", "COMUNA": "Laja", "variable": "Centros de Educaci\u00f3n Parvularia", "Nombres": "ESCUELA NIVEQUETEN", "POINT_X": -72.702171, "POINT_Y": -37.28017}}, {"type": "Feature", "geometry": {"type": "Point", "coordinates": [-72.71698000000004, -37.27993799999999]}, "properties": {"CUT_REG": "08", "CUT_PROV": "083", "CUT_COM": "08304", "REGION": "Biob\u00edo", "PROVINCIA": "Biob\u00edo", "COMUNA": "Laja", "variable": "Centros de Educaci\u00f3n Parvularia", "Nombres": "ESCUELA AMANDA LABARCA", "POINT_X": -72.71698, "POINT_Y": -37.279938}}, {"type": "Feature", "geometry": {"type": "Point", "coordinates": [-72.709915, -37.27775600000002]}, "properties": {"CUT_REG": "08", "CUT_PROV": "083", "CUT_COM": "08304", "REGION": "Biob\u00edo", "PROVINCIA": "Biob\u00edo", "COMUNA": "Laja", "variable": "Centros de Educaci\u00f3n Parvularia", "Nombres": "ESCUELA ESPECIAL TRASTORNOS DE LA COMUNICACI\u00d3N AYLEM", "POINT_X": -72.709915, "POINT_Y": -37.277756}}, {"type": "Feature", "geometry": {"type": "Point", "coordinates": [-72.70966999999996, -37.276987999999974]},