{"type": "FeatureCollection", "features": [{"type": "Feature", "geometry": {"type": "Point", "coordinates": [-73.55685334600003, -42.68578929300001]}, "properties": {"CUT_REG": "10", "CUT_PROV": "102", "CUT_COM": "10206", "REGION": "Los Lagos", "PROVINCIA": "Chilo\u00e9", "COMUNA": "Puqueld\u00f3n", "variable": "Monumento Nacional", "Nombres": "Entorno del Monumentos Hist\u00f3rico de la iglesia Santiago Ap\u00f3stol de Detif", "POINT_X": -73.556853346, "POINT_Y": -42.685789293}}, {"type": "Feature", "geometry": {"type": "Point", "coordinates": [-73.55714666199997, -42.68479147099996]}, "properties": {"CUT_REG": "10", "CUT_PROV": "102", "CUT_COM": "10206", "REGION": "Los Lagos", "PROVINCIA": "Chilo\u00e9", "COMUNA": "Puqueld\u00f3n", "variable": "Monumento Nacional", "Nombres": "Iglesia de Detif", "POINT_X": -73.557146662, "POINT_Y": -42.684791471}}, {"type": "Feature", "geometry": {"type": "Point", "coordinates": [-73.77212661700003, -42.62410718699997]}, "properties": {"CUT_REG": "10", "CUT_PROV": "102", "CUT_COM": "10203", "REGION": "Los Lagos", "PROVINCIA": "Chilo\u00e9", "COMUNA": "Chonchi", "variable": "Monumento Nacional", "Nombres": "Calle Centenario", "POINT_X": -73.772126617, "POINT_Y": -42.624107187}}, {"type": "Feature", "geometry": {"type": "Point", "coordinates": [-73.77368374599999, -42.624038259000045]}, "properties": {"CUT_REG": "10", "CUT_PROV": "102", "CUT_COM": "10203", "REGION": "Los Lagos", "PROVINCIA": "Chilo\u00e9", "COMUNA": "Chonchi", "variable": "Monumento Nacional", "Nombres": "Iglesia de Chonchi", "POINT_X": -73.773683746, "POINT_Y": -42.624038259}}, {"type": "Feature", "geometry": {"type": "Point", "coordinates": [-73.71987827900001, -42.61585711400001]}, "properties": {"CUT_REG": "10", "CUT_PROV": "102", "CUT_COM": "10206", "REGION": "Los Lagos", "PROVINCIA": "Chilo\u00e9", "COMUNA": "Puqueld\u00f3n", "variable": "Monumento Nacional", "Nombres": "Iglesia de Ichuac", "POINT_X": -73.719878279, "POINT_Y": -42.615857114}}, {"type": "Feature", "geometry": {"type": "Point", "coordinates": [-73.78756335299998, -42.605864951999976]}, "properties": {"CUT_REG": "10", "CUT_PROV": "102", "CUT_COM": "10203", "REGION": "Los Lagos", "PROVINCIA": "Chilo\u00e9", "COMUNA": "Chonchi", "variable": "Monumento Nacional", "Nombres": "Entorno del Monumento Hist\u00f3rico de la Iglesia de San Antonio de Vilupulli", "POINT_X": -73.787563353, "POINT_Y": -42.605864952}}, {"type": "Feature", "geometry": {"type": "Point", "coordinates": [-73.78810261800001, -42.60526038499995]}, "properties": {"CUT_REG": "10", "CUT_PROV": "102", "CUT_COM": "10203", "REGION": "Los Lagos", "PROVINCIA": "Chilo\u00e9", "COMUNA": "Chonchi", "variable": "Monumento Nacional", "Nombres": "Iglesia de Vilupulli", "POINT_X": -73.788102618, "POINT_Y": -42.605260385}}, {"type": "Feature", "geometry": {"type": "Point", "coordinates": [-73.51620760999998, -42.60273812899999]}, "properties": {"CUT_REG": "10", "CUT_PROV": "102", "CUT_COM": "10201", "REGION": "Los Lagos", "PROVINCIA": "Chilo\u00e9", "COMUNA": "Castro", "variable": "Monumento Nacional", "Nombres": "Entorno del Monumento Hist\u00f3rico de la Iglesia Nuestra Se\u00f1ora del Rosario de Chel\u00edn", "POINT_X": -73.51620761, "POINT_Y": -42.602738129}}, {"type": "Feature", "geometry": {"type": "Point", "coordinates": [-73.51608950299999, -42.601458660999995]}, "properties": {"CUT_REG": "10", "CUT_PROV": "102", "CUT_COM": "10201", "REGION": "Los Lagos", "PROVINCIA": "Chilo\u00e9", "COMUNA": "Castro", "variable": "Monumento Nacional", "Nombres": "Iglesia de Chel\u00edn", "POINT_X": -73.516089503, "POINT_Y": -42.601458661}}, {"type": "Feature", "geometry": {"type": "Point", "coordinates": [-73.61189663900002, -42.58374152900001]}, "properties": {"CUT_REG": "10", "CUT_PROV": "102", "CUT_COM": "10206", "REGION": "Los Lagos", "PROVINCIA": "Chilo\u00e9", "COMUNA": "Puqueld\u00f3n", "variable": "Monumento Nacional", "Nombres": "Iglesia de Aldachildo", "POINT_X": -73.611896639, "POINT_Y": -42.583741529}}, {"type": "Feature", "geometry": {"type": "Point", "coordinates": [-73.42644949399997, -42.53606160299998]}, "properties": {"CUT_REG": "10", "CUT_PROV": "102", "CUT_COM": "10210", "REGION": "Los Lagos", "PROVINCIA": "Chilo\u00e9", "COMUNA": "Quinchao", "variable": "Monumento Nacional", "Nombres": "Pueblo de Quinchao", "POINT_X": -73.426449494, "POINT_Y": -42.536061603}}, {"type": "Feature", "geometry": {"type": "Point", "coordinates": [-73.427237791, -42.53498401499999]}, "properties": {"CUT_REG": "10", "CUT_PROV": "102", "CUT_COM": "10210", "REGION": "Los Lagos", "PROVINCIA": "Chilo\u00e9", "COMUNA": "Quinchao", "variable": "Monumento Nacional", "Nombres": "Iglesia de Quinchao", "POINT_X": -73.427237791, "POINT_Y": -42.534984015}}, {"type": "Feature", "geometry": {"type": "Point", "coordinates": [-73.62840587299999, -42.519614475]}, "properties": {"CUT_REG": "10", "CUT_PROV": "102", "CUT_COM": "10201", "REGION": "Los Lagos", "PROVINCIA": "Chilo\u00e9", "COMUNA": "Castro", "variable": "Monumento Nacional", "Nombres": "Iglesia de Ril\u00e1n", "POINT_X": -73.628405873, "POINT_Y": -42.519614475}}, {"type": "Feature", "geometry": {"type": "Point", "coordinates": [-73.265103737, -42.51162248199999]}, "properties": {"CUT_REG": "10", "CUT_PROV": "102", "CUT_COM": "10210", "REGION": "Los Lagos", "PROVINCIA": "Chilo\u00e9", "COMUNA": "Quinchao", "variable": "Monumento Nacional", "Nombres": "Iglesia de Caguach", "POINT_X": -73.265103737, "POINT_Y": -42.511622482}}, {"type": "Feature", "geometry": {"type": "Point", "coordinates": [-73.78476700099998, -42.50133625399995]}, "properties": {"CUT_REG": "10", "CUT_PROV": "102", "CUT_COM": "10201", "REGION": "Los Lagos", "PROVINCIA": "Chilo\u00e9", "COMUNA": "Castro", "variable": "Monumento Nacional", "Nombres": "Entorno de la Iglesia Nuestra Se\u00f1ora de Gracias de Nerc\u00f3n", "POINT_X": -73.784767001, "POINT_Y": -42.501336254}}, {"type": "Feature", "geometry": {"type": "Point", "coordinates": [-73.78545836999999, -42.50111427099998]}, "properties": {"CUT_REG": "10", "CUT_PROV": "102", "CUT_COM": "10201", "REGION": "Los Lagos", "PROVINCIA": "Chilo\u00e9", "COMUNA": "Castro", "variable": "Monumento Nacional", "Nombres": "Iglesia de Nerc\u00f3n", "POINT_X": -73.78545837, "POINT_Y": -42.501114271}}, {"type": "Feature", "geometry": {"type": "Point", "coordinates": [-73.76380771599997, -42.481346349000034]}, "properties": {"CUT_REG": "10", "CUT_PROV": "102", "CUT_COM": "10201", "REGION": "Los Lagos", "PROVINCIA": "Chilo\u00e9", "COMUNA": "Castro", "variable": "Monumento Nacional", "Nombres": "Iglesia de San Francisco de Castro", "POINT_X": -73.763807716, "POINT_Y": -42.481346349}}, {"type": "Feature", "geometry": {"type": "Point", "coordinates": [-73.488143437, -42.47158768899996]}, "properties": {"CUT_REG": "10", "CUT_PROV": "102", "CUT_COM": "10210", "REGION": "Los Lagos", "PROVINCIA": "Chilo\u00e9", "COMUNA": "Quinchao", "variable": "Monumento Nacional", "Nombres": "Iglesia de Achao", "POINT_X": -73.488143437, "POINT_Y": -42.471587689}}, {"type": "Feature", "geometry": {"type": "Point", "coordinates": [-73.60251122900002, -42.43990828899999]}, "properties": {"CUT_REG": "10", "CUT_PROV": "102", "CUT_COM": "10204", "REGION": "Los Lagos", "PROVINCIA": "Chilo\u00e9", "COMUNA": "Curaco de V\u00e9lez", "variable": "Monumento Nacional", "Nombres": "Iglesia Curaco de Velez", "POINT_X": -73.602511229, "POINT_Y": -42.439908289}}, {"type": "Feature", "geometry": {"type": "Point", "coordinates": [-74.07988825300001, -42.40076386599999]}, "properties": {"CUT_REG": "10", "CUT_PROV": "102", "CUT_COM": "10205", "REGION": "Los Lagos", "PROVINCIA": "Chilo\u00e9", "COMUNA": "Dalcahue", "variable": "Monumento Nacional", "Nombres": "Alerzales existentes en el Fundo Fiscal denominado Potrero Anay", "POINT_X": -74.079888253, "POINT_Y": -42.400763866}}, {"type": "Feature", "geometry": {"type": "Point", "coordinates": [-73.64759348999996, -42.37896485199995]}, "properties": {"CUT_REG": "10", "CUT_PROV": "102", "CUT_COM": "10205", "REGION": "Los Lagos", "PROVINCIA": "Chilo\u00e9", "COMUNA": "Dalcahue", "variable": "Monumento Nacional", "Nombres": "Iglesia de Dalcahue", "POINT_X": -73.64759349, "POINT_Y": -42.378964852}}, {"type": "Feature", "geometry": {"type": "Point", "coordinates": [-73.54990928300003, -42.33519018600002]}, "properties": {"CUT_REG": "10", "CUT_PROV": "102", "CUT_COM": "10205", "REGION": "Los Lagos", "PROVINCIA": "Chilo\u00e9", "COMUNA": "Dalcahue", "variable": "Monumento Nacional", "Nombres": "Iglesia Nuestra Se\u00f1ora del Carmen de Quetralco", "POINT_X": -73.549909283, "POINT_Y": -42.335190186}}, {"type": "Feature", "geometry": {"type": "Point", "coordinates": [-73.504391151, -42.33497666900003]}, "properties": {"CUT_REG": "10", "CUT_PROV": "102", "CUT_COM": "10205", "REGION": "Los Lagos", "PROVINCIA": "Chilo\u00e9", "COMUNA": "Dalcahue", "variable": "Monumento Nacional", "Nombres": "Iglesia de San Juan", "POINT_X": -73.504391151, "POINT_Y": -42.334976669}}, {"type": "Feature", "geometry": {"type": "Point", "coordinates": [-73.50426702300004, -42.33319752999999]}, "properties": {"CUT_REG": "10", "CUT_PROV": "102", "CUT_COM": "10205", "REGION": "Los Lagos", "PROVINCIA": "Chilo\u00e9", "COMUNA": "Dalcahue", "variable": "Monumento Nacional", "Nombres": "Entorno de la Iglesia de San Juan Bautista de San Juan", "POINT_X": -73.504267023, "POINT_Y": -42.33319753}}, {"type": "Feature", "geometry": {"type": "Point", "coordinates": [-73.37441266400003, -42.33201662899998]}, "properties": {"CUT_REG": "10", "CUT_PROV": "102", "CUT_COM": "10205", "REGION": "Los Lagos", "PROVINCIA": "Chilo\u00e9", "COMUNA": "Dalcahue", "variable": "Monumento Nacional", "Nombres": "Pueblo de Tena\u00fan", "POINT_X": -73.374412664, "POINT_Y": -42.332016629}}, {"type": "Feature", "geometry": {"type": "Point", "coordinates": [-73.37518436900004, -42.331521436000045]}, "properties": {"CUT_REG": "10", "CUT_PROV": "102", "CUT_COM": "10205", "REGION": "Los Lagos", "PROVINCIA": "Chilo\u00e9", "COMUNA": "Dalcahue", "variable": "Monumento Nacional", "Nombres": "Iglesia de Tena\u00fan", "POINT_X": -73.375184369, "POINT_Y": -42.331521436}}, {"type": "Feature", "geometry": {"type": "Point", "coordinates": [-73.26801599800001, -42.31544082100002]}, "properties": {"CUT_REG": "10", "CUT_PROV": "102", "CUT_COM": "10209", "REGION": "Los Lagos", "PROVINCIA": "Chilo\u00e9", "COMUNA": "Quemchi", "variable": "Monumento Nacional", "Nombres": "Escuela de Mechuque", "POINT_X": -73.268015998, "POINT_Y": -42.315440821}}, {"type": "Feature", "geometry": {"type": "Point", "coordinates": [-73.40195530799994, -42.258800810999986]}, "properties": {"CUT_REG": "10", "CUT_PROV": "102", "CUT_COM": "10209", "REGION": "Los Lagos", "PROVINCIA": "Chilo\u00e9", "COMUNA": "Quemchi", "variable": "Monumento Nacional", "Nombres": "Iglesia de Colo", "POINT_X": -73.401955308, "POINT_Y": -42.258800811}}, {"type": "Feature", "geometry": {"type": "Point", "coordinates": [-73.40137430400002, -42.25875713000001]}, "properties": {"CUT_REG": "10", "CUT_PROV": "102", "CUT_COM": "10209", "REGION": "Los Lagos", "PROVINCIA": "Chilo\u00e9", "COMUNA": "Quemchi", "variable": "Monumento Nacional", "Nombres": "Entorno de la Iglesia San Antonio de Colo", "POINT_X": -73.401374304, "POINT_Y": -42.25875713}}, {"type": "Feature", "geometry": {"type": "Point", "coordinates": [-73.92796663199998, -42.09371384700002]}, "properties": {"CUT_REG": "10", "CUT_PROV": "102", "CUT_COM": "10202", "REGION": "Los Lagos", "PROVINCIA": "Chilo\u00e9", "COMUNA": "Ancud", "variable": "Monumento Nacional", "Nombres": "Humedales de la Cuenca de Chepu", "POINT_X": -73.927966632, "POINT_Y": -42.093713847}}, {"type": "Feature", "geometry": {"type": "Point", "coordinates": [-73.50951787399998, -41.91436405399996]}, "properties": {"CUT_REG": "10", "CUT_PROV": "102", "CUT_COM": "10202", "REGION": "Los Lagos", "PROVINCIA": "Chilo\u00e9", "COMUNA": "Ancud", "variable": "Monumento Nacional", "Nombres": "Complejo patrimonial conformado por 18 corrales de pesca de piedra", "POINT_X": -73.509517874, "POINT_Y": -41.914364054}}, {"type": "Feature", "geometry": {"type": "Point", "coordinates": [-73.82288596799995, -41.871379424000025]}, "properties": {"CUT_REG": "10", "CUT_PROV": "102", "CUT_COM": "10202", "REGION": "Los Lagos", "PROVINCIA": "Chilo\u00e9", "COMUNA": "Ancud", "variable": "Monumento Nacional", "Nombres": "Iglesia San Francisco de Ancud", "POINT_X": -73.822885968, "POINT_Y": -41.871379424}}, {"type": "Feature", "geometry": {"type": "Point", "coordinates": [-73.826596474, -41.86536436499998]}, "properties": {"CUT_REG": "10", "CUT_PROV": "102", "CUT_COM": "10202", "REGION": "Los Lagos", "PROVINCIA": "Chilo\u00e9", "COMUNA": "Ancud", "variable": "Monumento Nacional", "Nombres": "Primera Comisar\u00eda de Ancud", "POINT_X": -73.826596474, "POINT_Y": -41.865364365}}, {"type": "Feature", "geometry": {"type": "Point", "coordinates": [-73.826628717, -41.865348469]}, "properties": {"CUT_REG": "10", "CUT_PROV": "102", "CUT_COM": "10202", "REGION": "Los Lagos", "PROVINCIA": "Chilo\u00e9", "COMUNA": "Ancud", "variable": "Monumento Nacional", "Nombres": "Entorno a la primera Comisar\u00eda de Ancud", "POINT_X": -73.826628717, "POINT_Y": -41.865348469}}, {"type": "Feature", "geometry": {"type": "Point", "coordinates": [-73.82750806000001, -41.86186579399997]}, "properties": {"CUT_REG": "10", "CUT_PROV": "102", "CUT_COM": "10202", "REGION": "Los Lagos", "PROVINCIA": "Chilo\u00e9", "COMUNA": "Ancud", "variable": "Monumento Nacional", "Nombres": "Fuerte San Carlos y Polvor\u00edn", "POINT_X": -73.82750806, "POINT_Y": -41.861865794}}, {"type": "Feature", "geometry": {"type": "Point", "coordinates": [-73.87079400100002, -41.84278800000002]}, "properties": {"CUT_REG": "10", "CUT_PROV": "102", "CUT_COM": "10202", "REGION": "Los Lagos", "PROVINCIA": "Chilo\u00e9", "COMUNA": "Ancud", "variable": "Monumento Nacional", "Nombres": "Fuerte de Chaicura", "POINT_X": -73.870794001, "POINT_Y": -41.842788}}, {"type": "Feature", "geometry": {"type": "Point", "coordinates": [-73.85512199999997, -41.829496999999975]}, "properties": {"CUT_REG": "10", "CUT_PROV": "102", "CUT_COM": "10202", "REGION": "Los Lagos", "PROVINCIA": "Chilo\u00e9", "COMUNA": "Ancud", "variable": "Monumento Nacional", "Nombres": "Castillo de Ag\u00fci", "POINT_X": -73.855122, "POINT_Y": -41.829497}}]}