{"type": "FeatureCollection", "features": [{"type": "Feature", "geometry": {"type": "Point", "coordinates": [-72.02557144049999, -45.57329558900002]}, "properties": {"CUT_REG": "11", "CUT_PROV": "111", "CUT_COM": "11101", "REGION": "Ays\u00e9n del General Carlos Ib\u00e1\u00f1ez del Campo", "PROVINCIA": "Coihaique", "COMUNA": "Coihaique", "variable": "Monumento Nacional", "Nombres": "Las Construcciones de la Sociedad Industrial de Ais\u00e9n", "POINT_X": -72.0255714405, "POINT_Y": -45.573295589}}, {"type": "Feature", "geometry": {"type": "Point", "coordinates": [-72.07134358499995, -45.57049133599999]}, "properties": {"CUT_REG": "11", "CUT_PROV": "111", "CUT_COM": "11101", "REGION": "Ays\u00e9n del General Carlos Ib\u00e1\u00f1ez del Campo", "PROVINCIA": "Coihaique", "COMUNA": "Coihaique", "variable": "Monumento Nacional", "Nombres": "Escuela Pedro Quintana Mansilla", "POINT_X": -72.071343585, "POINT_Y": -45.570491336}}, {"type": "Feature", "geometry": {"type": "Point", "coordinates": [-72.03191218900002, -45.56974933699996]}, "properties": {"CUT_REG": "11", "CUT_PROV": "111", "CUT_COM": "11101", "REGION": "Ays\u00e9n del General Carlos Ib\u00e1\u00f1ez del Campo", "PROVINCIA": "Coihaique", "COMUNA": "Coihaique", "variable": "Monumento Nacional", "Nombres": "Las Construcciones de la Sociedad Industrial de Ais\u00e9n (Cementerio)", "POINT_X": -72.031912189, "POINT_Y": -45.569749337}}, {"type": "Feature", "geometry": {"type": "Point", "coordinates": [-72.02197493599999, -45.569651481999955]}, "properties": {"CUT_REG": "11", "CUT_PROV": "111", "CUT_COM": "11101", "REGION": "Ays\u00e9n del General Carlos Ib\u00e1\u00f1ez del Campo", "PROVINCIA": "Coihaique", "COMUNA": "Coihaique", "variable": "Monumento Nacional", "Nombres": "Las Construcciones de la Sociedad Industrial de Ais\u00e9n (ba\u00f1o de ovejas)", "POINT_X": -72.021974936, "POINT_Y": -45.569651482}}, {"type": "Feature", "geometry": {"type": "Point", "coordinates": [-71.313940968, -44.495380709]}, "properties": {"CUT_REG": "11", "CUT_PROV": "111", "CUT_COM": "11102", "REGION": "Ays\u00e9n del General Carlos Ib\u00e1\u00f1ez del Campo", "PROVINCIA": "Coihaique", "COMUNA": "Lago Verde", "variable": "Monumento Nacional", "Nombres": "Casona Fundacional Estancia Alto R\u00edo Cisnes", "POINT_X": -71.313940968, "POINT_Y": -44.495380709}}]}