{"type": "FeatureCollection", "features": [{"type": "Feature", "geometry": {"type": "Point", "coordinates": [-70.66348065400003, -33.31387165599996]}, "properties": {"CUT_REG": "13", "CUT_PROV": "133", "CUT_COM": "13301", "REGION": "Metropolitana de Santiago", "PROVINCIA": "Chacabuco", "COMUNA": "Colina", "variable": "Monumento Nacional", "Nombres": "Sector Cerro La Pedregosa", "POINT_X": -70.663480654, "POINT_Y": -33.313871656}}, {"type": "Feature", "geometry": {"type": "Point", "coordinates": [-70.68901215399998, -33.30762814100002]}, "properties": {"CUT_REG": "13", "CUT_PROV": "133", "CUT_COM": "13301", "REGION": "Metropolitana de Santiago", "PROVINCIA": "Chacabuco", "COMUNA": "Colina", "variable": "Monumento Nacional", "Nombres": "Sector Cerro Pan de Az\u00facar", "POINT_X": -70.689012154, "POINT_Y": -33.307628141}}, {"type": "Feature", "geometry": {"type": "Point", "coordinates": [-70.68774226599999, -33.30523013700003]}, "properties": {"CUT_REG": "13", "CUT_PROV": "133", "CUT_COM": "13301", "REGION": "Metropolitana de Santiago", "PROVINCIA": "Chacabuco", "COMUNA": "Colina", "variable": "Monumento Nacional", "Nombres": "Pueblo de las Canteras", "POINT_X": -70.687742266, "POINT_Y": -33.305230137}}, {"type": "Feature", "geometry": {"type": "Point", "coordinates": [-70.76554209400001, -33.24241951899997]}, "properties": {"CUT_REG": "13", "CUT_PROV": "133", "CUT_COM": "13302", "REGION": "Metropolitana de Santiago", "PROVINCIA": "Chacabuco", "COMUNA": "Lampa", "variable": "Monumento Nacional", "Nombres": "Capilla Nuestra Se\u00f1ora del Trabajo", "POINT_X": -70.765542094, "POINT_Y": -33.242419519}}, {"type": "Feature", "geometry": {"type": "Point", "coordinates": [-70.67971885800003, -33.20353269699997]}, "properties": {"CUT_REG": "13", "CUT_PROV": "133", "CUT_COM": "13301", "REGION": "Metropolitana de Santiago", "PROVINCIA": "Chacabuco", "COMUNA": "Colina", "variable": "Monumento Nacional", "Nombres": "Torre atrio y uno de los muros perimetrales de la Iglesia Inmaculada Concepci\u00f3n de Colina", "POINT_X": -70.679718858, "POINT_Y": -33.203532697}}, {"type": "Feature", "geometry": {"type": "Point", "coordinates": [-70.88889935500004, -33.15079552800001]}, "properties": {"CUT_REG": "13", "CUT_PROV": "133", "CUT_COM": "13303", "REGION": "Metropolitana de Santiago", "PROVINCIA": "Chacabuco", "COMUNA": "Tiltil", "variable": "Monumento Nacional", "Nombres": "Casas Patronales de la Ex-Hacienda Polpaico", "POINT_X": -70.888899355, "POINT_Y": -33.150795528}}, {"type": "Feature", "geometry": {"type": "Point", "coordinates": [-70.73049476999999, -33.09127850899996]}, "properties": {"CUT_REG": "13", "CUT_PROV": "133", "CUT_COM": "13301", "REGION": "Metropolitana de Santiago", "PROVINCIA": "Chacabuco", "COMUNA": "Colina", "variable": "Monumento Nacional", "Nombres": "Casas del Fundo Quilapil\u00fan", "POINT_X": -70.73049477, "POINT_Y": -33.091278509}}, {"type": "Feature", "geometry": {"type": "Point", "coordinates": [-70.918597035, -33.090087372999996]}, "properties": {"CUT_REG": "13", "CUT_PROV": "133", "CUT_COM": "13303", "REGION": "Metropolitana de Santiago", "PROVINCIA": "Chacabuco", "COMUNA": "Tiltil", "variable": "Monumento Nacional", "Nombres": "Iglesia de Tiltil", "POINT_X": -70.918597035, "POINT_Y": -33.090087373}}, {"type": "Feature", "geometry": {"type": "Point", "coordinates": [-70.69070920499998, -33.02855759400004]}, "properties": {"CUT_REG": "13", "CUT_PROV": "133", "CUT_COM": "13301", "REGION": "Metropolitana de Santiago", "PROVINCIA": "Chacabuco", "COMUNA": "Colina", "variable": "Monumento Nacional", "Nombres": "Casas y Capilla de la Hacienda de Chacabuco", "POINT_X": -70.690709205, "POINT_Y": -33.028557594}}, {"type": "Feature", "geometry": {"type": "Point", "coordinates": [-71.00834877100004, -32.99073038199997]}, "properties": {"CUT_REG": "13", "CUT_PROV": "133", "CUT_COM": "13303", "REGION": "Metropolitana de Santiago", "PROVINCIA": "Chacabuco", "COMUNA": "Tiltil", "variable": "Monumento Nacional", "Nombres": "Sector del Cerro el Roble", "POINT_X": -71.008348771, "POINT_Y": -32.990730382}}]}