{"type": "FeatureCollection", "features": [{"type": "Feature", "geometry": {"type": "Point", "coordinates": [-69.16782607499998, -19.013465137000004]}, "properties": {"CUT_REG": "15", "CUT_PROV": "151", "CUT_COM": "15102", "REGION": "Arica y Parinacota", "PROVINCIA": "Arica", "COMUNA": "Camarones", "variable": "Monumento Nacional", "Nombres": "Iglesia de Mulluri", "POINT_X": -69.167826075, "POINT_Y": -19.013465137}}, {"type": "Feature", "geometry": {"type": "Point", "coordinates": [-69.53009235699996, -18.93577696499998]}, "properties": {"CUT_REG": "15", "CUT_PROV": "151", "CUT_COM": "15102", "REGION": "Arica y Parinacota", "PROVINCIA": "Arica", "COMUNA": "Camarones", "variable": "Monumento Nacional", "Nombres": "Iglesia San Pedro de Esqui\u00f1a", "POINT_X": -69.530092357, "POINT_Y": -18.935776965}}, {"type": "Feature", "geometry": {"type": "Point", "coordinates": [-69.61305582400001, -18.922286986999985]}, "properties": {"CUT_REG": "15", "CUT_PROV": "151", "CUT_COM": "15102", "REGION": "Arica y Parinacota", "PROVINCIA": "Arica", "COMUNA": "Camarones", "variable": "Monumento Nacional", "Nombres": "Iglesia San Jos\u00e9 de Pachica", "POINT_X": -69.613055824, "POINT_Y": -18.922286987}}, {"type": "Feature", "geometry": {"type": "Point", "coordinates": [-69.49532391700001, -18.89611408399999]}, "properties": {"CUT_REG": "15", "CUT_PROV": "151", "CUT_COM": "15102", "REGION": "Arica y Parinacota", "PROVINCIA": "Arica", "COMUNA": "Camarones", "variable": "Monumento Nacional", "Nombres": "Iglesia de Saguara", "POINT_X": -69.495323917, "POINT_Y": -18.896114084}}, {"type": "Feature", "geometry": {"type": "Point", "coordinates": [-69.21289437700003, -18.878165102000004]}, "properties": {"CUT_REG": "15", "CUT_PROV": "151", "CUT_COM": "15102", "REGION": "Arica y Parinacota", "PROVINCIA": "Arica", "COMUNA": "Camarones", "variable": "Monumento Nacional", "Nombres": "Iglesia Parcohailla", "POINT_X": -69.212894377, "POINT_Y": -18.878165102}}, {"type": "Feature", "geometry": {"type": "Point", "coordinates": [-69.44369343299996, -18.843649414000012]}, "properties": {"CUT_REG": "15", "CUT_PROV": "151", "CUT_COM": "15102", "REGION": "Arica y Parinacota", "PROVINCIA": "Arica", "COMUNA": "Camarones", "variable": "Monumento Nacional", "Nombres": "Iglesia San Antonio de Padua de Sucuna", "POINT_X": -69.443693433, "POINT_Y": -18.843649414}}, {"type": "Feature", "geometry": {"type": "Point", "coordinates": [-69.74393189999998, -18.83357930600001]}, "properties": {"CUT_REG": "15", "CUT_PROV": "151", "CUT_COM": "15102", "REGION": "Arica y Parinacota", "PROVINCIA": "Arica", "COMUNA": "Camarones", "variable": "Monumento Nacional", "Nombres": "Iglesia San Mart\u00edn de Tours de Codpa", "POINT_X": -69.7439319, "POINT_Y": -18.833579306}}, {"type": "Feature", "geometry": {"type": "Point", "coordinates": [-69.68154473099996, -18.827529291000005]}, "properties": {"CUT_REG": "15", "CUT_PROV": "151", "CUT_COM": "15102", "REGION": "Arica y Parinacota", "PROVINCIA": "Arica", "COMUNA": "Camarones", "variable": "Monumento Nacional", "Nombres": "Iglesia Virgen del Carmen de Chitita", "POINT_X": -69.681544731, "POINT_Y": -18.827529291}}, {"type": "Feature", "geometry": {"type": "Point", "coordinates": [-69.70871257300004, -18.819136037000014]}, "properties": {"CUT_REG": "15", "CUT_PROV": "151", "CUT_COM": "15102", "REGION": "Arica y Parinacota", "PROVINCIA": "Arica", "COMUNA": "Camarones", "variable": "Monumento Nacional", "Nombres": "Iglesia de Gua\u00f1acagua", "POINT_X": -69.708712573, "POINT_Y": -18.819136037}}, {"type": "Feature", "geometry": {"type": "Point", "coordinates": [-69.46262392199998, -18.803049059999992]}, "properties": {"CUT_REG": "15", "CUT_PROV": "151", "CUT_COM": "15102", "REGION": "Arica y Parinacota", "PROVINCIA": "Arica", "COMUNA": "Camarones", "variable": "Monumento Nacional", "Nombres": "Iglesia de San Antonio de Padua de Aico", "POINT_X": -69.462623922, "POINT_Y": -18.80304906}}, {"type": "Feature", "geometry": {"type": "Point", "coordinates": [-69.53393068600002, -18.775275098000037]}, "properties": {"CUT_REG": "15", "CUT_PROV": "151", "CUT_COM": "15102", "REGION": "Arica y Parinacota", "PROVINCIA": "Arica", "COMUNA": "Camarones", "variable": "Monumento Nacional", "Nombres": "Iglesia de Tulapalca", "POINT_X": -69.533930686, "POINT_Y": -18.775275098}}, {"type": "Feature", "geometry": {"type": "Point", "coordinates": [-69.69109989699999, -18.749983084000007]}, "properties": {"CUT_REG": "15", "CUT_PROV": "151", "CUT_COM": "15102", "REGION": "Arica y Parinacota", "PROVINCIA": "Arica", "COMUNA": "Camarones", "variable": "Monumento Nacional", "Nombres": "Iglesia de San Juan Bautista de Timar", "POINT_X": -69.691099897, "POINT_Y": -18.749983084}}, {"type": "Feature", "geometry": {"type": "Point", "coordinates": [-69.58287264700002, -18.739938447999975]}, "properties": {"CUT_REG": "15", "CUT_PROV": "151", "CUT_COM": "15102", "REGION": "Arica y Parinacota", "PROVINCIA": "Arica", "COMUNA": "Camarones", "variable": "Monumento Nacional", "Nombres": "Iglesia de San Isidro Labrador de Cobija", "POINT_X": -69.582872647, "POINT_Y": -18.739938448}}, {"type": "Feature", "geometry": {"type": "Point", "coordinates": [-70.178792897, -18.51714859099996]}, "properties": {"CUT_REG": "15", "CUT_PROV": "151", "CUT_COM": "15101", "REGION": "Arica y Parinacota", "PROVINCIA": "Arica", "COMUNA": "Arica", "variable": "Monumento Nacional", "Nombres": "Iglesia San Miguel de Azapa", "POINT_X": -70.178792897, "POINT_Y": -18.517148591}}, {"type": "Feature", "geometry": {"type": "Point", "coordinates": [-70.22266699999999, -18.513343000000035]}, "properties": {"CUT_REG": "15", "CUT_PROV": "151", "CUT_COM": "15101", "REGION": "Arica y Parinacota", "PROVINCIA": "Arica", "COMUNA": "Arica", "variable": "Monumento Nacional", "Nombres": "Yacimientos arqueol\u00f3gicos y paleontol\u00f3gicos del Departamento de Arica", "POINT_X": -70.222667, "POINT_Y": -18.513343}}, {"type": "Feature", "geometry": {"type": "Point", "coordinates": [-69.70545925899998, -18.49867414800002]}, "properties": {"CUT_REG": "15", "CUT_PROV": "151", "CUT_COM": "15101", "REGION": "Arica y Parinacota", "PROVINCIA": "Arica", "COMUNA": "Arica", "variable": "Monumento Nacional", "Nombres": "Iglesia San Bartolom\u00e9  de Livilcar", "POINT_X": -69.705459259, "POINT_Y": -18.498674148}}, {"type": "Feature", "geometry": {"type": "Point", "coordinates": [-70.30990820799995, -18.495784071999992]}, "properties": {"CUT_REG": "15", "CUT_PROV": "151", "CUT_COM": "15101", "REGION": "Arica y Parinacota", "PROVINCIA": "Arica", "COMUNA": "Arica", "variable": "Monumento Nacional", "Nombres": "Fuerte Del Este", "POINT_X": -70.309908208, "POINT_Y": -18.495784072}}, {"type": "Feature", "geometry": {"type": "Point", "coordinates": [-70.30805746000004, -18.49197782400001]}, "properties": {"CUT_REG": "15", "CUT_PROV": "151", "CUT_COM": "15101", "REGION": "Arica y Parinacota", "PROVINCIA": "Arica", "COMUNA": "Arica", "variable": "Monumento Nacional", "Nombres": "Fuerte Ciudadela", "POINT_X": -70.30805746, "POINT_Y": -18.491977824}}, {"type": "Feature", "geometry": {"type": "Point", "coordinates": [-70.32021130199996, -18.489642754999984]}, "properties": {"CUT_REG": "15", "CUT_PROV": "151", "CUT_COM": "15101", "REGION": "Arica y Parinacota", "PROVINCIA": "Arica", "COMUNA": "Arica", "variable": "Monumento Nacional", "Nombres": "Morro de Arica", "POINT_X": -70.320211302, "POINT_Y": -18.489642755}}, {"type": "Feature", "geometry": {"type": "Point", "coordinates": [-70.30578963199997, -18.48381644200002]}, "properties": {"CUT_REG": "15", "CUT_PROV": "151", "CUT_COM": "15101", "REGION": "Arica y Parinacota", "PROVINCIA": "Arica", "COMUNA": "Arica", "variable": "Monumento Nacional", "Nombres": "Conjunto Habitacional Lastarria", "POINT_X": -70.305789632, "POINT_Y": -18.483816442}}, {"type": "Feature", "geometry": {"type": "Point", "coordinates": [-70.332155, -18.480483999999983]}, "properties": {"CUT_REG": "15", "CUT_PROV": "151", "CUT_COM": "15101", "REGION": "Arica y Parinacota", "PROVINCIA": "Arica", "COMUNA": "Arica", "variable": "Monumento Nacional", "Nombres": "Ex Isla del Alacr\u00e1n y restos de fortificaci\u00f3n", "POINT_X": -70.332155, "POINT_Y": -18.480484}}, {"type": "Feature", "geometry": {"type": "Point", "coordinates": [-70.32073798500002, -18.479033104000017]}, "properties": {"CUT_REG": "15", "CUT_PROV": "151", "CUT_COM": "15101", "REGION": "Arica y Parinacota", "PROVINCIA": "Arica", "COMUNA": "Arica", "variable": "Monumento Nacional", "Nombres": "La Iglesia Catedral  San Marcos de Arica", "POINT_X": -70.320737985, "POINT_Y": -18.479033104}}, {"type": "Feature", "geometry": {"type": "Point", "coordinates": [-70.321314113, -18.477118881999992]}, "properties": {"CUT_REG": "15", "CUT_PROV": "151", "CUT_COM": "15101", "REGION": "Arica y Parinacota", "PROVINCIA": "Arica", "COMUNA": "Arica", "variable": "Monumento Nacional", "Nombres": "Edificio de la Antigua Aduna de Arica", "POINT_X": -70.321314113, "POINT_Y": -18.477118882}}, {"type": "Feature", "geometry": {"type": "Point", "coordinates": [-70.32052505499999, -18.47627427100001]}, "properties": {"CUT_REG": "15", "CUT_PROV": "151", "CUT_COM": "15101", "REGION": "Arica y Parinacota", "PROVINCIA": "Arica", "COMUNA": "Arica", "variable": "Monumento Nacional", "Nombres": "La Estaci\u00f3n del Ferrocarril de Arica - La Paz y su and\u00e9n", "POINT_X": -70.320525055, "POINT_Y": -18.476274271}}, {"type": "Feature", "geometry": {"type": "Point", "coordinates": [-70.31169680699998, -18.472422744000013]}, "properties": {"CUT_REG": "15", "CUT_PROV": "151", "CUT_COM": "15101", "REGION": "Arica y Parinacota", "PROVINCIA": "Arica", "COMUNA": "Arica", "variable": "Monumento Nacional", "Nombres": "Parte de las instalaciones del Cuartel N\u00ba 1 del Regimiento Reforzado N\u00ba 4 Rancagua de Arica", "POINT_X": -70.311696807, "POINT_Y": -18.472422744}}, {"type": "Feature", "geometry": {"type": "Point", "coordinates": [-70.06583752099996, -18.453218311999983]}, "properties": {"CUT_REG": "15", "CUT_PROV": "151", "CUT_COM": "15101", "REGION": "Arica y Parinacota", "PROVINCIA": "Arica", "COMUNA": "Arica", "variable": "Monumento Nacional", "Nombres": "Iglesia San Jer\u00f3nimo de Pocochile", "POINT_X": -70.065837521, "POINT_Y": -18.453218312}}]}