{"type": "FeatureCollection", "features": [{"type": "Feature", "geometry": {"type": "Point", "coordinates": [-71.37723329399995, -30.704215903999973]}, "properties": {"CUT_REG": "04", "CUT_PROV": "043", "CUT_COM": "04301", "REGION": "Coquimbo", "PROVINCIA": "Limar\u00ed", "COMUNA": "Ovalle", "variable": "Monumento Nacional", "Nombres": "Valle de El Encanto", "POINT_X": -71.377233294, "POINT_Y": -30.704215904}}, {"type": "Feature", "geometry": {"type": "Point", "coordinates": [-71.48155971200003, -30.655524255999985]}, "properties": {"CUT_REG": "04", "CUT_PROV": "043", "CUT_COM": "04301", "REGION": "Coquimbo", "PROVINCIA": "Limar\u00ed", "COMUNA": "Ovalle", "variable": "Monumento Nacional", "Nombres": "Iglesia San Antonio de Barraza", "POINT_X": -71.481559712, "POINT_Y": -30.655524256}}, {"type": "Feature", "geometry": {"type": "Point", "coordinates": [-71.48128061800003, -30.655393415]}, "properties": {"CUT_REG": "04", "CUT_PROV": "043", "CUT_COM": "04301", "REGION": "Coquimbo", "PROVINCIA": "Limar\u00ed", "COMUNA": "Ovalle", "variable": "Monumento Nacional", "Nombres": "Poblado de Barraza", "POINT_X": -71.481280618, "POINT_Y": -30.655393415}}, {"type": "Feature", "geometry": {"type": "Point", "coordinates": [-71.12078193800002, -30.631505391000047]}, "properties": {"CUT_REG": "04", "CUT_PROV": "043", "CUT_COM": "04301", "REGION": "Coquimbo", "PROVINCIA": "Limar\u00ed", "COMUNA": "Ovalle", "variable": "Monumento Nacional", "Nombres": "Iglesia del Ni\u00f1o Dios de Sotaqu\u00ed", "POINT_X": -71.120781938, "POINT_Y": -30.631505391}}, {"type": "Feature", "geometry": {"type": "Point", "coordinates": [-70.881711, -30.396637000000027]}, "properties": {"CUT_REG": "04", "CUT_PROV": "043", "CUT_COM": "04305", "REGION": "Coquimbo", "PROVINCIA": "Limar\u00ed", "COMUNA": "R\u00edo Hurtado", "variable": "Monumento Nacional", "Nombres": "Bosque petrificado al norte de  Pichasca y yacimiento de huesos de dinosaurio", "POINT_X": -70.881711, "POINT_Y": -30.396637}}]}