{"type": "FeatureCollection", "features": [{"type": "Feature", "geometry": {"type": "Point", "coordinates": [-71.65747720299996, -33.277200151666605]}, "properties": {"CUT_REG": "05", "CUT_PROV": "051", "CUT_COM": "05102", "REGION": "Valpara\u00edso", "PROVINCIA": "Valpara\u00edso", "COMUNA": "Casablanca", "variable": "Monumento Nacional", "Nombres": "Humedal de Tunqu\u00e9n", "POINT_X": -71.657477207, "POINT_Y": -33.277200153}}, {"type": "Feature", "geometry": {"type": "Point", "coordinates": [-71.70331474600005, -33.19262777299999]}, "properties": {"CUT_REG": "05", "CUT_PROV": "051", "CUT_COM": "05102", "REGION": "Valpara\u00edso", "PROVINCIA": "Valpara\u00edso", "COMUNA": "Casablanca", "variable": "Monumento Nacional", "Nombres": "Ex ballenera de Quintay", "POINT_X": -71.703314746, "POINT_Y": -33.192627773}}, {"type": "Feature", "geometry": {"type": "Point", "coordinates": [-71.51651593999996, -33.057172669000046]}, "properties": {"CUT_REG": "05", "CUT_PROV": "051", "CUT_COM": "05109", "REGION": "Valpara\u00edso", "PROVINCIA": "Valpara\u00edso", "COMUNA": "Vi\u00f1a del Mar", "variable": "Monumento Nacional", "Nombres": "Palmar El Salto", "POINT_X": -71.51651594, "POINT_Y": -33.057172669}}, {"type": "Feature", "geometry": {"type": "Point", "coordinates": [-71.62276647399997, -33.05366929199999]}, "properties": {"CUT_REG": "05", "CUT_PROV": "051", "CUT_COM": "05101", "REGION": "Valpara\u00edso", "PROVINCIA": "Valpara\u00edso", "COMUNA": "Valpara\u00edso", "variable": "Monumento Nacional", "Nombres": "Casa Museo La Sebastiana", "POINT_X": -71.622766474, "POINT_Y": -33.053669292}}, {"type": "Feature", "geometry": {"type": "Point", "coordinates": [-71.60097319999997, -33.05248283199996]}, "properties": {"CUT_REG": "05", "CUT_PROV": "051", "CUT_COM": "05101", "REGION": "Valpara\u00edso", "PROVINCIA": "Valpara\u00edso", "COMUNA": "Valpara\u00edso", "variable": "Monumento Nacional", "Nombres": "Iglesia Asilo del Salvador", "POINT_X": -71.6009732, "POINT_Y": -33.052482832}}, {"type": "Feature", "geometry": {"type": "Point", "coordinates": [-71.61435675999996, -33.05216062800004]}, "properties": {"CUT_REG": "05", "CUT_PROV": "051", "CUT_COM": "05101", "REGION": "Valpara\u00edso", "PROVINCIA": "Valpara\u00edso", "COMUNA": "Valpara\u00edso", "variable": "Monumento Nacional", "Nombres": "Ascensor Monjas", "POINT_X": -71.61435676, "POINT_Y": -33.052160628}}, {"type": "Feature", "geometry": {"type": "Point", "coordinates": [-71.60658476300003, -33.05215464099999]}, "properties": {"CUT_REG": "05", "CUT_PROV": "051", "CUT_COM": "05101", "REGION": "Valpara\u00edso", "PROVINCIA": "Valpara\u00edso", "COMUNA": "Valpara\u00edso", "variable": "Monumento Nacional", "Nombres": "Capilla de la Providencia", "POINT_X": -71.606584763, "POINT_Y": -33.052154641}}, {"type": "Feature", "geometry": {"type": "Point", "coordinates": [-71.65789704299996, -33.051806346000035]}, "properties": {"CUT_REG": "05", "CUT_PROV": "051", "CUT_COM": "05101", "REGION": "Valpara\u00edso", "PROVINCIA": "Valpara\u00edso", "COMUNA": "Valpara\u00edso", "variable": "Monumento Nacional", "Nombres": "Acantilados Federico Santa Mar\u00eda", "POINT_X": -71.657897043, "POINT_Y": -33.051806346}}, {"type": "Feature", "geometry": {"type": "Point", "coordinates": [-71.60849485299997, -33.05178435399999]}, "properties": {"CUT_REG": "05", "CUT_PROV": "051", "CUT_COM": "05101", "REGION": "Valpara\u00edso", "PROVINCIA": "Valpara\u00edso", "COMUNA": "Valpara\u00edso", "variable": "Monumento Nacional", "Nombres": "Iglesia del Coraz\u00f3n de Mar\u00eda", "POINT_X": -71.608494853, "POINT_Y": -33.051784354}}, {"type": "Feature", "geometry": {"type": "Point", "coordinates": [-71.61127821799997, -33.051772717000006]}, "properties": {"CUT_REG": "05", "CUT_PROV": "051", "CUT_COM": "05101", "REGION": "Valpara\u00edso", "PROVINCIA": "Valpara\u00edso", "COMUNA": "Valpara\u00edso", "variable": "Monumento Nacional", "Nombres": "Capilla del Carmen", "POINT_X": -71.611278218, "POINT_Y": -33.051772717}}, {"type": "Feature", "geometry": {"type": "Point", "coordinates": [-71.61058031399995, -33.05172378500004]}, "properties": {"CUT_REG": "05", "CUT_PROV": "051", "CUT_COM": "05101", "REGION": "Valpara\u00edso", "PROVINCIA": "Valpara\u00edso", "COMUNA": "Valpara\u00edso", "variable": "Monumento Nacional", "Nombres": "Ascensor del Hospital Van B\u00fcren", "POINT_X": -71.610580314, "POINT_Y": -33.051723785}}, {"type": "Feature", "geometry": {"type": "Point", "coordinates": [-71.60057491699997, -33.051025096999965]}, "properties": {"CUT_REG": "05", "CUT_PROV": "051", "CUT_COM": "05101", "REGION": "Valpara\u00edso", "PROVINCIA": "Valpara\u00edso", "COMUNA": "Valpara\u00edso", "variable": "Monumento Nacional", "Nombres": "Ascensor Polanco", "POINT_X": -71.600574917, "POINT_Y": -33.051025097}}, {"type": "Feature", "geometry": {"type": "Point", "coordinates": [-71.618082224, -33.05081494199998]}, "properties": {"CUT_REG": "05", "CUT_PROV": "051", "CUT_COM": "05101", "REGION": "Valpara\u00edso", "PROVINCIA": "Valpara\u00edso", "COMUNA": "Valpara\u00edso", "variable": "Monumento Nacional", "Nombres": "Ascensor Mariposas", "POINT_X": -71.618082224, "POINT_Y": -33.050814942}}, {"type": "Feature", "geometry": {"type": "Point", "coordinates": [-71.62029329299999, -33.05001052300004]}, "properties": {"CUT_REG": "05", "CUT_PROV": "051", "CUT_COM": "05101", "REGION": "Valpara\u00edso", "PROVINCIA": "Valpara\u00edso", "COMUNA": "Valpara\u00edso", "variable": "Monumento Nacional", "Nombres": "Ascensor Florida", "POINT_X": -71.620293293, "POINT_Y": -33.050010523}}, {"type": "Feature", "geometry": {"type": "Point", "coordinates": [-71.60452287199996, -33.048428777999995]}, "properties": {"CUT_REG": "05", "CUT_PROV": "051", "CUT_COM": "05101", "REGION": "Valpara\u00edso", "PROVINCIA": "Valpara\u00edso", "COMUNA": "Valpara\u00edso", "variable": "Monumento Nacional", "Nombres": "Iglesia de los Doce Ap\u00f3stoles", "POINT_X": -71.604522872, "POINT_Y": -33.048428778}}, {"type": "Feature", "geometry": {"type": "Point", "coordinates": [-71.61553024699998, -33.04842514199996]}, "properties": {"CUT_REG": "05", "CUT_PROV": "051", "CUT_COM": "05101", "REGION": "Valpara\u00edso", "PROVINCIA": "Valpara\u00edso", "COMUNA": "Valpara\u00edso", "variable": "Monumento Nacional", "Nombres": "Iglesia de los Sagrados Corazones", "POINT_X": -71.615530247, "POINT_Y": -33.048425142}}, {"type": "Feature", "geometry": {"type": "Point", "coordinates": [-71.60879540099998, -33.04828117000004]}, "properties": {"CUT_REG": "05", "CUT_PROV": "051", "CUT_COM": "05101", "REGION": "Valpara\u00edso", "PROVINCIA": "Valpara\u00edso", "COMUNA": "Valpara\u00edso", "variable": "Monumento Nacional", "Nombres": "Escuela Ram\u00f3n Barros Luco", "POINT_X": -71.608795401, "POINT_Y": -33.04828117}}, {"type": "Feature", "geometry": {"type": "Point", "coordinates": [-71.63164584499997, -33.04803716400001]}, "properties": {"CUT_REG": "05", "CUT_PROV": "051", "CUT_COM": "05101", "REGION": "Valpara\u00edso", "PROVINCIA": "Valpara\u00edso", "COMUNA": "Valpara\u00edso", "variable": "Monumento Nacional", "Nombres": "Liceo Pedro Montt", "POINT_X": -71.631645845, "POINT_Y": -33.048037164}}, {"type": "Feature", "geometry": {"type": "Point", "coordinates": [-71.61546059099999, -33.04782863499999]}, "properties": {"CUT_REG": "05", "CUT_PROV": "051", "CUT_COM": "05101", "REGION": "Valpara\u00edso", "PROVINCIA": "Valpara\u00edso", "COMUNA": "Valpara\u00edso", "variable": "Monumento Nacional", "Nombres": "Casa Ballivi\u00e1n, actual sede de la Corporaci\u00f3n Club de Deportes Santiago Wanderers", "POINT_X": -71.615460591, "POINT_Y": -33.047828635}}, {"type": "Feature", "geometry": {"type": "Point", "coordinates": [-71.62122724599999, -33.047378862999985]}, "properties": {"CUT_REG": "05", "CUT_PROV": "051", "CUT_COM": "05101", "REGION": "Valpara\u00edso", "PROVINCIA": "Valpara\u00edso", "COMUNA": "Valpara\u00edso", "variable": "Monumento Nacional", "Nombres": "Ascensor Esp\u00edritu Santo", "POINT_X": -71.621227246, "POINT_Y": -33.047378863}}, {"type": "Feature", "geometry": {"type": "Point", "coordinates": [-71.61042647600001, -33.04701591399998]}, "properties": {"CUT_REG": "05", "CUT_PROV": "051", "CUT_COM": "05101", "REGION": "Valpara\u00edso", "PROVINCIA": "Valpara\u00edso", "COMUNA": "Valpara\u00edso", "variable": "Monumento Nacional", "Nombres": "Scuola Italiana Arturo Dell'Oro", "POINT_X": -71.610426476, "POINT_Y": -33.047015914}}, {"type": "Feature", "geometry": {"type": "Point", "coordinates": [-71.602737013, -33.046734397999955]}, "properties": {"CUT_REG": "05", "CUT_PROV": "051", "CUT_COM": "05101", "REGION": "Valpara\u00edso", "PROVINCIA": "Valpara\u00edso", "COMUNA": "Valpara\u00edso", "variable": "Monumento Nacional", "Nombres": "Iglesia La Compa\u00f1\u00eda de Jes\u00fas", "POINT_X": -71.602737013, "POINT_Y": -33.046734398}}, {"type": "Feature", "geometry": {"type": "Point", "coordinates": [-71.62196962900003, -33.04655946699996]}, "properties": {"CUT_REG": "05", "CUT_PROV": "051", "CUT_COM": "05101", "REGION": "Valpara\u00edso", "PROVINCIA": "Valpara\u00edso", "COMUNA": "Valpara\u00edso", "variable": "Monumento Nacional", "Nombres": "Iglesia Union Church", "POINT_X": -71.621969629, "POINT_Y": -33.046559467}}, {"type": "Feature", "geometry": {"type": "Point", "coordinates": [-71.62619504999998, -33.046534228]}, "properties": {"CUT_REG": "05", "CUT_PROV": "051", "CUT_COM": "05101", "REGION": "Valpara\u00edso", "PROVINCIA": "Valpara\u00edso", "COMUNA": "Valpara\u00edso", "variable": "Monumento Nacional", "Nombres": "Cementerio _N\u00b02 de Valpara\u00edso", "POINT_X": -71.62619505, "POINT_Y": -33.046534228}}, {"type": "Feature", "geometry": {"type": "Point", "coordinates": [-71.602487996, -33.04653158499996]}, "properties": {"CUT_REG": "05", "CUT_PROV": "051", "CUT_COM": "05101", "REGION": "Valpara\u00edso", "PROVINCIA": "Valpara\u00edso", "COMUNA": "Valpara\u00edso", "variable": "Monumento Nacional", "Nombres": "Ascensor Larra\u00edn", "POINT_X": -71.602487996, "POINT_Y": -33.046531585}}, {"type": "Feature", "geometry": {"type": "Point", "coordinates": [-71.62157570499996, -33.04649106299998]}, "properties": {"CUT_REG": "05", "CUT_PROV": "051", "CUT_COM": "05101", "REGION": "Valpara\u00edso", "PROVINCIA": "Valpara\u00edso", "COMUNA": "Valpara\u00edso", "variable": "Monumento Nacional", "Nombres": "Palacio Lyon", "POINT_X": -71.621575705, "POINT_Y": -33.046491063}}, {"type": "Feature", "geometry": {"type": "Point", "coordinates": [-71.62736184999997, -33.04638955000002]}, "properties": {"CUT_REG": "05", "CUT_PROV": "051", "CUT_COM": "05101", "REGION": "Valpara\u00edso", "PROVINCIA": "Valpara\u00edso", "COMUNA": "Valpara\u00edso", "variable": "Monumento Nacional", "Nombres": "Casa de P\u00f3lvora y ex C\u00e1rcel P\u00fablica de Valpara\u00edso, actual Parque Cultural", "POINT_X": -71.62736185, "POINT_Y": -33.04638955}}, {"type": "Feature", "geometry": {"type": "Point", "coordinates": [-71.61884126300001, -33.04619560399996]}, "properties": {"CUT_REG": "05", "CUT_PROV": "051", "CUT_COM": "05101", "REGION": "Valpara\u00edso", "PROVINCIA": "Valpara\u00edso", "COMUNA": "Valpara\u00edso", "variable": "Monumento Nacional", "Nombres": "Catedral de Valpara\u00edso", "POINT_X": -71.618841263, "POINT_Y": -33.046195604}}, {"type": "Feature", "geometry": {"type": "Point", "coordinates": [-71.62556376999997, -33.04564999000002]}, "properties": {"CUT_REG": "05", "CUT_PROV": "051", "CUT_COM": "05101", "REGION": "Valpara\u00edso", "PROVINCIA": "Valpara\u00edso", "COMUNA": "Valpara\u00edso", "variable": "Monumento Nacional", "Nombres": "Cementerio de Disidentes o Cementerio Ingl\u00e9s de Valpara\u00edso", "POINT_X": -71.62556377, "POINT_Y": -33.04564999}}, {"type": "Feature", "geometry": {"type": "Point", "coordinates": [-71.61956069599995, -33.045041812999976]}, "properties": {"CUT_REG": "05", "CUT_PROV": "051", "CUT_COM": "05101", "REGION": "Valpara\u00edso", "PROVINCIA": "Valpara\u00edso", "COMUNA": "Valpara\u00edso", "variable": "Monumento Nacional", "Nombres": "Biblioteca Sever\u00edn y su entorno.", "POINT_X": -71.619560696, "POINT_Y": -33.045041813}}, {"type": "Feature", "geometry": {"type": "Point", "coordinates": [-71.62520674500001, -33.04464585399999]}, "properties": {"CUT_REG": "05", "CUT_PROV": "051", "CUT_COM": "05101", "REGION": "Valpara\u00edso", "PROVINCIA": "Valpara\u00edso", "COMUNA": "Valpara\u00edso", "variable": "Monumento Nacional", "Nombres": "Cementerio N\u00b0 1 o Cementerio General de Valpara\u00edso", "POINT_X": -71.625206745, "POINT_Y": -33.044645854}}, {"type": "Feature", "geometry": {"type": "Point", "coordinates": [-71.60575952399996, -33.044625282999974]}, "properties": {"CUT_REG": "05", "CUT_PROV": "051", "CUT_COM": "05101", "REGION": "Valpara\u00edso", "PROVINCIA": "Valpara\u00edso", "COMUNA": "Valpara\u00edso", "variable": "Monumento Nacional", "Nombres": "Casa Central Universidad Cat\u00f3lica de Valpara\u00edso", "POINT_X": -71.605759524, "POINT_Y": -33.044625283}}, {"type": "Feature", "geometry": {"type": "Point", "coordinates": [-71.60330358599998, -33.044606349000006]}, "properties": {"CUT_REG": "05", "CUT_PROV": "051", "CUT_COM": "05101", "REGION": "Valpara\u00edso", "PROVINCIA": "Valpara\u00edso", "COMUNA": "Valpara\u00edso", "variable": "Monumento Nacional", "Nombres": "Ascensor Lecheros", "POINT_X": -71.603303586, "POINT_Y": -33.044606349}}, {"type": "Feature", "geometry": {"type": "Point", "coordinates": [-71.62314970999998, -33.044442356000026]}, "properties": {"CUT_REG": "05", "CUT_PROV": "051", "CUT_COM": "05101", "REGION": "Valpara\u00edso", "PROVINCIA": "Valpara\u00edso", "COMUNA": "Valpara\u00edso", "variable": "Monumento Nacional", "Nombres": "Palacio Ross", "POINT_X": -71.62314971, "POINT_Y": -33.044442356}}, {"type": "Feature", "geometry": {"type": "Point", "coordinates": [-71.62697695400001, -33.044052693000026]}, "properties": {"CUT_REG": "05", "CUT_PROV": "051", "CUT_COM": "05101", "REGION": "Valpara\u00edso", "PROVINCIA": "Valpara\u00edso", "COMUNA": "Valpara\u00edso", "variable": "Monumento Nacional", "Nombres": "Ascensor Reina Victoria", "POINT_X": -71.626976954, "POINT_Y": -33.044052693}}, {"type": "Feature", "geometry": {"type": "Point", "coordinates": [-71.62460909100002, -33.04309465999998]}, "properties": {"CUT_REG": "05", "CUT_PROV": "051", "CUT_COM": "05101", "REGION": "Valpara\u00edso", "PROVINCIA": "Valpara\u00edso", "COMUNA": "Valpara\u00edso", "variable": "Monumento Nacional", "Nombres": "Plaza An\u00edbal Pinto", "POINT_X": -71.624609091, "POINT_Y": -33.04309466}}, {"type": "Feature", "geometry": {"type": "Point", "coordinates": [-71.62695982500003, -33.042982223]}, "properties": {"CUT_REG": "05", "CUT_PROV": "051", "CUT_COM": "05101", "REGION": "Valpara\u00edso", "PROVINCIA": "Valpara\u00edso", "COMUNA": "Valpara\u00edso", "variable": "Monumento Nacional", "Nombres": "Colegio Alem\u00e1n", "POINT_X": -71.626959825, "POINT_Y": -33.042982223}}, {"type": "Feature", "geometry": {"type": "Point", "coordinates": [-71.604365527, -33.04290746800004]}, "properties": {"CUT_REG": "05", "CUT_PROV": "051", "CUT_COM": "05101", "REGION": "Valpara\u00edso", "PROVINCIA": "Valpara\u00edso", "COMUNA": "Valpara\u00edso", "variable": "Monumento Nacional", "Nombres": "Ascensor Bar\u00f3n", "POINT_X": -71.604365527, "POINT_Y": -33.042907468}}, {"type": "Feature", "geometry": {"type": "Point", "coordinates": [-71.62486456200003, -33.042469723999965]}, "properties": {"CUT_REG": "05", "CUT_PROV": "051", "CUT_COM": "05101", "REGION": "Valpara\u00edso", "PROVINCIA": "Valpara\u00edso", "COMUNA": "Valpara\u00edso", "variable": "Monumento Nacional", "Nombres": "Edificio de calle Esmeralda N\u00ba 1118", "POINT_X": -71.624864562, "POINT_Y": -33.042469724}}, {"type": "Feature", "geometry": {"type": "Point", "coordinates": [-71.62863820399997, -33.042379976]}, "properties": {"CUT_REG": "05", "CUT_PROV": "051", "CUT_COM": "05101", "REGION": "Valpara\u00edso", "PROVINCIA": "Valpara\u00edso", "COMUNA": "Valpara\u00edso", "variable": "Monumento Nacional", "Nombres": "Cerros Alegre y Concepci\u00f3n", "POINT_X": -71.628638204, "POINT_Y": -33.042379976}}, {"type": "Feature", "geometry": {"type": "Point", "coordinates": [-71.62738870499999, -33.04226258799997]}, "properties": {"CUT_REG": "05", "CUT_PROV": "051", "CUT_COM": "05101", "REGION": "Valpara\u00edso", "PROVINCIA": "Valpara\u00edso", "COMUNA": "Valpara\u00edso", "variable": "Monumento Nacional", "Nombres": "Iglesia Anglicana de San Pablo", "POINT_X": -71.627388705, "POINT_Y": -33.042262588}}, {"type": "Feature", "geometry": {"type": "Point", "coordinates": [-71.60518210799998, -33.041722275000026]}, "properties": {"CUT_REG": "05", "CUT_PROV": "051", "CUT_COM": "05101", "REGION": "Valpara\u00edso", "PROVINCIA": "Valpara\u00edso", "COMUNA": "Valpara\u00edso", "variable": "Monumento Nacional", "Nombres": "Torre Reloj de la Estaci\u00f3n Bar\u00f3n de Ferrocarriles de Valpara\u00edso", "POINT_X": -71.605182108, "POINT_Y": -33.041722275}}, {"type": "Feature", "geometry": {"type": "Point", "coordinates": [-71.62467766800002, -33.041327416999955]}, "properties": {"CUT_REG": "05", "CUT_PROV": "051", "CUT_COM": "05101", "REGION": "Valpara\u00edso", "PROVINCIA": "Valpara\u00edso", "COMUNA": "Valpara\u00edso", "variable": "Monumento Nacional", "Nombres": "Sector Pasaje Ross", "POINT_X": -71.624677668, "POINT_Y": -33.041327417}}, {"type": "Feature", "geometry": {"type": "Point", "coordinates": [-71.62638468500003, -33.041273313000005]}, "properties": {"CUT_REG": "05", "CUT_PROV": "051", "CUT_COM": "05101", "REGION": "Valpara\u00edso", "PROVINCIA": "Valpara\u00edso", "COMUNA": "Valpara\u00edso", "variable": "Monumento Nacional", "Nombres": "Ascensor Concepci\u00f3n", "POINT_X": -71.626384685, "POINT_Y": -33.041273313}}, {"type": "Feature", "geometry": {"type": "Point", "coordinates": [-71.62503307200004, -33.04079153000002]}, "properties": {"CUT_REG": "05", "CUT_PROV": "051", "CUT_COM": "05101", "REGION": "Valpara\u00edso", "PROVINCIA": "Valpara\u00edso", "COMUNA": "Valpara\u00edso", "variable": "Monumento Nacional", "Nombres": "Edificio Luis Cousi\u00f1o", "POINT_X": -71.625033072, "POINT_Y": -33.04079153}}, {"type": "Feature", "geometry": {"type": "Point", "coordinates": [-71.62886559799996, -33.04055045099997]}, "properties": {"CUT_REG": "05", "CUT_PROV": "051", "CUT_COM": "05101", "REGION": "Valpara\u00edso", "PROVINCIA": "Valpara\u00edso", "COMUNA": "Valpara\u00edso", "variable": "Monumento Nacional", "Nombres": "\u00c1rea Hist\u00f3rica de Valpara\u00edso", "POINT_X": -71.628865598, "POINT_Y": -33.040550451}}, {"type": "Feature", "geometry": {"type": "Point", "coordinates": [-71.63189570400003, -33.04045586699996]}, "properties": {"CUT_REG": "05", "CUT_PROV": "051", "CUT_COM": "05101", "REGION": "Valpara\u00edso", "PROVINCIA": "Valpara\u00edso", "COMUNA": "Valpara\u00edso", "variable": "Monumento Nacional", "Nombres": "Ascensor San Agust\u00edn", "POINT_X": -71.631895704, "POINT_Y": -33.040455867}}, {"type": "Feature", "geometry": {"type": "Point", "coordinates": [-71.62895278099998, -33.04035463300002]}, "properties": {"CUT_REG": "05", "CUT_PROV": "051", "CUT_COM": "05101", "REGION": "Valpara\u00edso", "PROVINCIA": "Valpara\u00edso", "COMUNA": "Valpara\u00edso", "variable": "Monumento Nacional", "Nombres": "Palacio Baburizza", "POINT_X": -71.628952781, "POINT_Y": -33.040354633}}, {"type": "Feature", "geometry": {"type": "Point", "coordinates": [-71.62752907599996, -33.04018408200003]}, "properties": {"CUT_REG": "05", "CUT_PROV": "051", "CUT_COM": "05101", "REGION": "Valpara\u00edso", "PROVINCIA": "Valpara\u00edso", "COMUNA": "Valpara\u00edso", "variable": "Monumento Nacional", "Nombres": "Sector Bancario de Calle Prat", "POINT_X": -71.627529076, "POINT_Y": -33.040184082}}, {"type": "Feature", "geometry": {"type": "Point", "coordinates": [-71.629552967, -33.039939476999955]}, "properties": {"CUT_REG": "05", "CUT_PROV": "051", "CUT_COM": "05101", "REGION": "Valpara\u00edso", "PROVINCIA": "Valpara\u00edso", "COMUNA": "Valpara\u00edso", "variable": "Monumento Nacional", "Nombres": "Ascensor El Peral", "POINT_X": -71.629552967, "POINT_Y": -33.039939477}}, {"type": "Feature", "geometry": {"type": "Point", "coordinates": [-71.60063860649996, -33.03953614750002]}, "properties": {"CUT_REG": "05", "CUT_PROV": "051", "CUT_COM": "05101", "REGION": "Valpara\u00edso", "PROVINCIA": "Valpara\u00edso", "COMUNA": "Valpara\u00edso", "variable": "Monumento Nacional", "Nombres": "Iglesia y Convento San Francisco (de Bar\u00f3n)", "POINT_X": -71.6006386065, "POINT_Y": -33.0395361475}}, {"type": "Feature", "geometry": {"type": "Point", "coordinates": [-71.62950108599996, -33.03887360199996]}, "properties": {"CUT_REG": "05", "CUT_PROV": "051", "CUT_COM": "05101", "REGION": "Valpara\u00edso", "PROVINCIA": "Valpara\u00edso", "COMUNA": "Valpara\u00edso", "variable": "Monumento Nacional", "Nombres": "Intendencia de Valpara\u00edso", "POINT_X": -71.629501086, "POINT_Y": -33.038873602}}, {"type": "Feature", "geometry": {"type": "Point", "coordinates": [-71.63038855500002, -33.03876279700003]}, "properties": {"CUT_REG": "05", "CUT_PROV": "051", "CUT_COM": "05101", "REGION": "Valpara\u00edso", "PROVINCIA": "Valpara\u00edso", "COMUNA": "Valpara\u00edso", "variable": "Monumento Nacional", "Nombres": "Sector Cerro Cordillera", "POINT_X": -71.630388555, "POINT_Y": -33.038762797}}, {"type": "Feature", "geometry": {"type": "Point", "coordinates": [-71.63050006900002, -33.038715408000016]}, "properties": {"CUT_REG": "05", "CUT_PROV": "051", "CUT_COM": "05101", "REGION": "Valpara\u00edso", "PROVINCIA": "Valpara\u00edso", "COMUNA": "Valpara\u00edso", "variable": "Monumento Nacional", "Nombres": "Castillo San Jos\u00e9", "POINT_X": -71.630500069, "POINT_Y": -33.038715408}}, {"type": "Feature", "geometry": {"type": "Point", "coordinates": [-71.62856810600005, -33.03851541299999]}, "properties": {"CUT_REG": "05", "CUT_PROV": "051", "CUT_COM": "05101", "REGION": "Valpara\u00edso", "PROVINCIA": "Valpara\u00edso", "COMUNA": "Valpara\u00edso", "variable": "Monumento Nacional", "Nombres": "Edificios y plaza que indica: Plaza Sotomayor de Valpara\u00edso, incluye los edificios que la encierran", "POINT_X": -71.628568106, "POINT_Y": -33.038515413}}, {"type": "Feature", "geometry": {"type": "Point", "coordinates": [-71.63065816300005, -33.037939641999955]}, "properties": {"CUT_REG": "05", "CUT_PROV": "051", "CUT_COM": "05101", "REGION": "Valpara\u00edso", "PROVINCIA": "Valpara\u00edso", "COMUNA": "Valpara\u00edso", "variable": "Monumento Nacional", "Nombres": "Ascensor Cordillera", "POINT_X": -71.630658163, "POINT_Y": -33.037939642}}, {"type": "Feature", "geometry": {"type": "Point", "coordinates": [-71.60321624200003, -33.037592462000006]}, "properties": {"CUT_REG": "05", "CUT_PROV": "051", "CUT_COM": "05101", "REGION": "Valpara\u00edso", "PROVINCIA": "Valpara\u00edso", "COMUNA": "Valpara\u00edso", "variable": "Monumento Nacional", "Nombres": "Viejos galpones de La Maestranza y antigua tornamesa del ferrocarril de la Estaci\u00f3n Bar\u00f3n", "POINT_X": -71.603216242, "POINT_Y": -33.037592462}}, {"type": "Feature", "geometry": {"type": "Point", "coordinates": [-71.60056288099996, -33.03705235299999]}, "properties": {"CUT_REG": "05", "CUT_PROV": "051", "CUT_COM": "05101", "REGION": "Valpara\u00edso", "PROVINCIA": "Valpara\u00edso", "COMUNA": "Valpara\u00edso", "variable": "Monumento Nacional", "Nombres": "Complejo ferroviario de la Estaci\u00f3n Bar\u00f3n", "POINT_X": -71.600562881, "POINT_Y": -33.037052353}}, {"type": "Feature", "geometry": {"type": "Point", "coordinates": [-71.63020411699995, -33.036938699000004]}, "properties": {"CUT_REG": "05", "CUT_PROV": "051", "CUT_COM": "05101", "REGION": "Valpara\u00edso", "PROVINCIA": "Valpara\u00edso", "COMUNA": "Valpara\u00edso", "variable": "Monumento Nacional", "Nombres": "Sector Plaza Echaurren y calle Serrano", "POINT_X": -71.630204117, "POINT_Y": -33.036938699}}, {"type": "Feature", "geometry": {"type": "Point", "coordinates": [-71.63233170199996, -33.036438372999996]}, "properties": {"CUT_REG": "05", "CUT_PROV": "051", "CUT_COM": "05101", "REGION": "Valpara\u00edso", "PROVINCIA": "Valpara\u00edso", "COMUNA": "Valpara\u00edso", "variable": "Monumento Nacional", "Nombres": "Entorno Iglesia La Matriz", "POINT_X": -71.632331702, "POINT_Y": -33.036438373}}, {"type": "Feature", "geometry": {"type": "Point", "coordinates": [-71.63192669300003, -33.036430694999986]}, "properties": {"CUT_REG": "05", "CUT_PROV": "051", "CUT_COM": "05101", "REGION": "Valpara\u00edso", "PROVINCIA": "Valpara\u00edso", "COMUNA": "Valpara\u00edso", "variable": "Monumento Nacional", "Nombres": "Iglesia La Matriz del Salvador", "POINT_X": -71.631926693, "POINT_Y": -33.036430695}}, {"type": "Feature", "geometry": {"type": "Point", "coordinates": [-71.63216213999996, -33.03524568599999]}, "properties": {"CUT_REG": "05", "CUT_PROV": "051", "CUT_COM": "05101", "REGION": "Valpara\u00edso", "PROVINCIA": "Valpara\u00edso", "COMUNA": "Valpara\u00edso", "variable": "Monumento Nacional", "Nombres": "Sector Quebrada M\u00e1rquez", "POINT_X": -71.63216214, "POINT_Y": -33.035245686}}, {"type": "Feature", "geometry": {"type": "Point", "coordinates": [-71.63077871499999, -33.03390745800002]}, "properties": {"CUT_REG": "05", "CUT_PROV": "051", "CUT_COM": "05101", "REGION": "Valpara\u00edso", "PROVINCIA": "Valpara\u00edso", "COMUNA": "Valpara\u00edso", "variable": "Monumento Nacional", "Nombres": "Aduana de Valpara\u00edso", "POINT_X": -71.630778715, "POINT_Y": -33.033907458}}, {"type": "Feature", "geometry": {"type": "Point", "coordinates": [-71.63028683599995, -33.03333038399997]}, "properties": {"CUT_REG": "05", "CUT_PROV": "051", "CUT_COM": "05101", "REGION": "Valpara\u00edso", "PROVINCIA": "Valpara\u00edso", "COMUNA": "Valpara\u00edso", "variable": "Monumento Nacional", "Nombres": "Ascensor Artiller\u00eda", "POINT_X": -71.630286836, "POINT_Y": -33.033330384}}, {"type": "Feature", "geometry": {"type": "Point", "coordinates": [-71.63152409300002, -33.032030636999984]}, "properties": {"CUT_REG": "05", "CUT_PROV": "051", "CUT_COM": "05101", "REGION": "Valpara\u00edso", "PROVINCIA": "Valpara\u00edso", "COMUNA": "Valpara\u00edso", "variable": "Monumento Nacional", "Nombres": "Edificio Ex Escuela Nacional", "POINT_X": -71.631524093, "POINT_Y": -33.032030637}}, {"type": "Feature", "geometry": {"type": "Point", "coordinates": [-71.63067328699996, -33.03075971299999]}, "properties": {"CUT_REG": "05", "CUT_PROV": "051", "CUT_COM": "05101", "REGION": "Valpara\u00edso", "PROVINCIA": "Valpara\u00edso", "COMUNA": "Valpara\u00edso", "variable": "Monumento Nacional", "Nombres": "Ascensor Villaseca", "POINT_X": -71.630673287, "POINT_Y": -33.030759713}}, {"type": "Feature", "geometry": {"type": "Point", "coordinates": [-71.62965362599996, -33.02995440499997]}, "properties": {"CUT_REG": "05", "CUT_PROV": "051", "CUT_COM": "05101", "REGION": "Valpara\u00edso", "PROVINCIA": "Valpara\u00edso", "COMUNA": "Valpara\u00edso", "variable": "Monumento Nacional", "Nombres": "Sitio de Memoria Centro de Detenci\u00f3n Cuartel Silva Palma (Fuerte Bueras Bajo)", "POINT_X": -71.629653626, "POINT_Y": -33.029954405}}, {"type": "Feature", "geometry": {"type": "Point", "coordinates": [-71.55419206899998, -33.02985406700002]}, "properties": {"CUT_REG": "05", "CUT_PROV": "051", "CUT_COM": "05109", "REGION": "Valpara\u00edso", "PROVINCIA": "Valpara\u00edso", "COMUNA": "Vi\u00f1a del Mar", "variable": "Monumento Nacional", "Nombres": "Palacio y Parque Vergara", "POINT_X": -71.554192069, "POINT_Y": -33.029854067}}, {"type": "Feature", "geometry": {"type": "Point", "coordinates": [-71.62913368000002, -33.027681171]}, "properties": {"CUT_REG": "05", "CUT_PROV": "051", "CUT_COM": "05101", "REGION": "Valpara\u00edso", "PROVINCIA": "Valpara\u00edso", "COMUNA": "Valpara\u00edso", "variable": "Monumento Nacional", "Nombres": "Fuerte Esmeralda", "POINT_X": -71.62913368, "POINT_Y": -33.027681171}}, {"type": "Feature", "geometry": {"type": "Point", "coordinates": [-71.55770694700001, -33.02631491900002]}, "properties": {"CUT_REG": "05", "CUT_PROV": "051", "CUT_COM": "05109", "REGION": "Valpara\u00edso", "PROVINCIA": "Valpara\u00edso", "COMUNA": "Vi\u00f1a del Mar", "variable": "Monumento Nacional", "Nombres": "Casa Italia", "POINT_X": -71.557706947, "POINT_Y": -33.026314919}}, {"type": "Feature", "geometry": {"type": "Point", "coordinates": [-71.55062503299997, -33.024704467]}, "properties": {"CUT_REG": "05", "CUT_PROV": "051", "CUT_COM": "05109", "REGION": "Valpara\u00edso", "PROVINCIA": "Valpara\u00edso", "COMUNA": "Vi\u00f1a del Mar", "variable": "Monumento Nacional", "Nombres": "Teatro Municipal de Vi\u00f1a del Mar", "POINT_X": -71.550625033, "POINT_Y": -33.024704467}}, {"type": "Feature", "geometry": {"type": "Point", "coordinates": [-71.53744902400003, -33.023398520000036]}, "properties": {"CUT_REG": "05", "CUT_PROV": "051", "CUT_COM": "05109", "REGION": "Valpara\u00edso", "PROVINCIA": "Valpara\u00edso", "COMUNA": "Vi\u00f1a del Mar", "variable": "Monumento Nacional", "Nombres": "La pista de carreras del Valpara\u00edso Sporting Club de Vi\u00f1a del Mar", "POINT_X": -71.537449024, "POINT_Y": -33.02339852}}, {"type": "Feature", "geometry": {"type": "Point", "coordinates": [-71.64091198799997, -33.02199696899998]}, "properties": {"CUT_REG": "05", "CUT_PROV": "051", "CUT_COM": "05101", "REGION": "Valpara\u00edso", "PROVINCIA": "Valpara\u00edso", "COMUNA": "Valpara\u00edso", "variable": "Monumento Nacional", "Nombres": "Mural Vida Oce\u00e1nica de Mar\u00eda Martner", "POINT_X": -71.640911988, "POINT_Y": -33.021996969}}, {"type": "Feature", "geometry": {"type": "Point", "coordinates": [-71.56192508599996, -33.02169722799996]}, "properties": {"CUT_REG": "05", "CUT_PROV": "051", "CUT_COM": "05109", "REGION": "Valpara\u00edso", "PROVINCIA": "Valpara\u00edso", "COMUNA": "Vi\u00f1a del Mar", "variable": "Monumento Nacional", "Nombres": "Castillo Brunet", "POINT_X": -71.561925086, "POINT_Y": -33.021697228}}, {"type": "Feature", "geometry": {"type": "Point", "coordinates": [-71.54659619599997, -33.02071792200002]}, "properties": {"CUT_REG": "05", "CUT_PROV": "051", "CUT_COM": "05109", "REGION": "Valpara\u00edso", "PROVINCIA": "Valpara\u00edso", "COMUNA": "Vi\u00f1a del Mar", "variable": "Monumento Nacional", "Nombres": "Palacio Rioja", "POINT_X": -71.546596196, "POINT_Y": -33.020717922}}, {"type": "Feature", "geometry": {"type": "Point", "coordinates": [-71.564030659, -33.02040160399996]}, "properties": {"CUT_REG": "05", "CUT_PROV": "051", "CUT_COM": "05109", "REGION": "Valpara\u00edso", "PROVINCIA": "Valpara\u00edso", "COMUNA": "Vi\u00f1a del Mar", "variable": "Monumento Nacional", "Nombres": "Palacio Presidencial de Cerro Castillo", "POINT_X": -71.564030659, "POINT_Y": -33.020401604}}, {"type": "Feature", "geometry": {"type": "Point", "coordinates": [-71.55064104899998, -33.02020543299998]}, "properties": {"CUT_REG": "05", "CUT_PROV": "051", "CUT_COM": "05109", "REGION": "Valpara\u00edso", "PROVINCIA": "Valpara\u00edso", "COMUNA": "Vi\u00f1a del Mar", "variable": "Monumento Nacional", "Nombres": "Edificio de Avenida Libertad N\u00b0 250 (Palacio Carrasco) y parque circundante", "POINT_X": -71.550641049, "POINT_Y": -33.020205433}}, {"type": "Feature", "geometry": {"type": "Point", "coordinates": [-71.53820981349996, -33.020127512000016]}, "properties": {"CUT_REG": "05", "CUT_PROV": "051", "CUT_COM": "05109", "REGION": "Valpara\u00edso", "PROVINCIA": "Valpara\u00edso", "COMUNA": "Vi\u00f1a del Mar", "variable": "Monumento Nacional", "Nombres": "\u00c1rea hist\u00f3rica del Sporting Club de Valpara\u00edso", "POINT_X": -71.5382098135, "POINT_Y": -33.020127512}}, {"type": "Feature", "geometry": {"type": "Point", "coordinates": [-71.565085798, -33.019299093999955]}, "properties": {"CUT_REG": "05", "CUT_PROV": "051", "CUT_COM": "05109", "REGION": "Valpara\u00edso", "PROVINCIA": "Valpara\u00edso", "COMUNA": "Vi\u00f1a del Mar", "variable": "Monumento Nacional", "Nombres": "Castillo W\u00fclff", "POINT_X": -71.565085798, "POINT_Y": -33.019299094}}, {"type": "Feature", "geometry": {"type": "Point", "coordinates": [-71.53472427, -33.00757404399997]}, "properties": {"CUT_REG": "05", "CUT_PROV": "051", "CUT_COM": "05109", "REGION": "Valpara\u00edso", "PROVINCIA": "Valpara\u00edso", "COMUNA": "Vi\u00f1a del Mar", "variable": "Monumento Nacional", "Nombres": "Cementerio Santa In\u00e9s", "POINT_X": -71.53472427, "POINT_Y": -33.007574044}}, {"type": "Feature", "geometry": {"type": "Point", "coordinates": [-71.5490061704, -32.944799696599944]}, "properties": {"CUT_REG": "05", "CUT_PROV": "051", "CUT_COM": "05109", "REGION": "Valpara\u00edso", "PROVINCIA": "Valpara\u00edso", "COMUNA": "Vi\u00f1a del Mar", "variable": "Monumento Nacional", "Nombres": "Campo Dunar de la Punta de Conc\u00f3n", "POINT_X": -71.549006176, "POINT_Y": -32.944799699}}, {"type": "Feature", "geometry": {"type": "Point", "coordinates": [-71.5490061704, -32.944799696599944]}, "properties": {"CUT_REG": "05", "CUT_PROV": "051", "CUT_COM": "05103", "REGION": "Valpara\u00edso", "PROVINCIA": "Valpara\u00edso", "COMUNA": "Conc\u00f3n", "variable": "Monumento Nacional", "Nombres": "Campo Dunar de la Punta de Conc\u00f3n", "POINT_X": -71.549006176, "POINT_Y": -32.944799699}}, {"type": "Feature", "geometry": {"type": "Point", "coordinates": [-71.55366300499998, -32.94121900000001]}, "properties": {"CUT_REG": "05", "CUT_PROV": "051", "CUT_COM": "05103", "REGION": "Valpara\u00edso", "PROVINCIA": "Valpara\u00edso", "COMUNA": "Conc\u00f3n", "variable": "Monumento Nacional", "Nombres": "Promontorio rocoso Roca Oce\u00e1nica", "POINT_X": -71.553663005, "POINT_Y": -32.941219}}, {"type": "Feature", "geometry": {"type": "Point", "coordinates": [-71.44303532699999, -32.93386879099999]}, "properties": {"CUT_REG": "05", "CUT_PROV": "051", "CUT_COM": "05103", "REGION": "Valpara\u00edso", "PROVINCIA": "Valpara\u00edso", "COMUNA": "Conc\u00f3n", "variable": "Monumento Nacional", "Nombres": "R\u00e9plica del Monolito erigido en memoria de los soldados y marinos ca\u00eddos en la Batalla de Conc\u00f3n", "POINT_X": -71.443035327, "POINT_Y": -32.933868791}}, {"type": "Feature", "geometry": {"type": "Point", "coordinates": [-71.44505739099998, -32.92193727699998]}, "properties": {"CUT_REG": "05", "CUT_PROV": "051", "CUT_COM": "05107", "REGION": "Valpara\u00edso", "PROVINCIA": "Valpara\u00edso", "COMUNA": "Quintero", "variable": "Monumento Nacional", "Nombres": "Casas Patronales de la Hacienda Santa Rosa de Colmo", "POINT_X": -71.445057391, "POINT_Y": -32.921937277}}, {"type": "Feature", "geometry": {"type": "Point", "coordinates": [-71.51405194600002, -32.79224601399998]}, "properties": {"CUT_REG": "05", "CUT_PROV": "051", "CUT_COM": "05107", "REGION": "Valpara\u00edso", "PROVINCIA": "Valpara\u00edso", "COMUNA": "Quintero", "variable": "Monumento Nacional", "Nombres": "Bosque Las Petras de Quintero y su entorno", "POINT_X": -71.514051946, "POINT_Y": -32.792246014}}, {"type": "Feature", "geometry": {"type": "Point", "coordinates": [-71.408206076, -32.719821699000015]}, "properties": {"CUT_REG": "05", "CUT_PROV": "051", "CUT_COM": "05105", "REGION": "Valpara\u00edso", "PROVINCIA": "Valpara\u00edso", "COMUNA": "Puchuncav\u00ed", "variable": "Monumento Nacional", "Nombres": "Sitio Balneario Popular y campo de Prisioneros Melinka - Puchuncav\u00ed", "POINT_X": -71.408206076, "POINT_Y": -32.719821699}}]}