{"type": "FeatureCollection", "features": [{"type": "Feature", "geometry": {"type": "Point", "coordinates": [-71.24781212600001, -32.88117484499996]}, "properties": {"CUT_REG": "05", "CUT_PROV": "055", "CUT_COM": "05501", "REGION": "Valpara\u00edso", "PROVINCIA": "Quillota", "COMUNA": "Quillota", "variable": "Monumento Nacional", "Nombres": "Casa colonial", "POINT_X": -71.247812126, "POINT_Y": -32.881174845}}, {"type": "Feature", "geometry": {"type": "Point", "coordinates": [-71.19493731800003, -32.790128395]}, "properties": {"CUT_REG": "05", "CUT_PROV": "055", "CUT_COM": "05502", "REGION": "Valpara\u00edso", "PROVINCIA": "Quillota", "COMUNA": "Calera", "variable": "Monumento Nacional", "Nombres": "Tornamesa de la Estaci\u00f3n de Ferrocarriles de La Calera", "POINT_X": -71.194937318, "POINT_Y": -32.790128395}}, {"type": "Feature", "geometry": {"type": "Point", "coordinates": [-71.19140348600004, -32.789812734]}, "properties": {"CUT_REG": "05", "CUT_PROV": "055", "CUT_COM": "05502", "REGION": "Valpara\u00edso", "PROVINCIA": "Quillota", "COMUNA": "Calera", "variable": "Monumento Nacional", "Nombres": "Edificio Estaci\u00f3n de Ferrocarriles de la Calera", "POINT_X": -71.191403486, "POINT_Y": -32.789812734}}, {"type": "Feature", "geometry": {"type": "Point", "coordinates": [-71.19299350399996, -32.789515801000036]}, "properties": {"CUT_REG": "05", "CUT_PROV": "055", "CUT_COM": "05502", "REGION": "Valpara\u00edso", "PROVINCIA": "Quillota", "COMUNA": "Calera", "variable": "Monumento Nacional", "Nombres": "Recinto Ferroviario de La Calera", "POINT_X": -71.192993504, "POINT_Y": -32.789515801}}, {"type": "Feature", "geometry": {"type": "Point", "coordinates": [-71.21073733300003, -32.689211292499984]}, "properties": {"CUT_REG": "05", "CUT_PROV": "055", "CUT_COM": "05506", "REGION": "Valpara\u00edso", "PROVINCIA": "Quillota", "COMUNA": "Nogales", "variable": "Monumento Nacional", "Nombres": "Conjunto arquitect\u00f3nico ubicado en el pueblo de El Mel\u00f3n", "POINT_X": -71.210737333, "POINT_Y": -32.6892112925}}, {"type": "Feature", "geometry": {"type": "Point", "coordinates": [-71.21067518700004, -32.689156634000035]}, "properties": {"CUT_REG": "05", "CUT_PROV": "055", "CUT_COM": "05506", "REGION": "Valpara\u00edso", "PROVINCIA": "Quillota", "COMUNA": "Nogales", "variable": "Monumento Nacional", "Nombres": "Inmuebles que Indica en el pueblo de El Mel\u00f3n", "POINT_X": -71.210675187, "POINT_Y": -32.689156634}}]}