{"type": "FeatureCollection", "features": [{"type": "Feature", "geometry": {"type": "Point", "coordinates": [-73.391698058, -38.055012759000014]}, "properties": {"CUT_REG": "08", "CUT_PROV": "082", "CUT_COM": "08203", "REGION": "Biob\u00edo", "PROVINCIA": "Arauco", "COMUNA": "Ca\u00f1ete", "variable": "Monumento Nacional", "Nombres": "Cementerio o eltun de Antiquina", "POINT_X": -73.391698058, "POINT_Y": -38.055012759}}, {"type": "Feature", "geometry": {"type": "Point", "coordinates": [-73.28072059700003, -37.89775842549997]}, "properties": {"CUT_REG": "08", "CUT_PROV": "082", "CUT_COM": "08204", "REGION": "Biob\u00edo", "PROVINCIA": "Arauco", "COMUNA": "Contulmo", "variable": "Monumento Nacional", "Nombres": "El Natri", "POINT_X": -73.280720597, "POINT_Y": -37.897758426}}, {"type": "Feature", "geometry": {"type": "Point", "coordinates": [-73.40029665900002, -37.79651615799996]}, "properties": {"CUT_REG": "08", "CUT_PROV": "082", "CUT_COM": "08203", "REGION": "Biob\u00edo", "PROVINCIA": "Arauco", "COMUNA": "Ca\u00f1ete", "variable": "Monumento Nacional", "Nombres": "Fuerte de Tucapel", "POINT_X": -73.400296659, "POINT_Y": -37.796516158}}, {"type": "Feature", "geometry": {"type": "Point", "coordinates": [-73.461436, -37.62819600199999]}, "properties": {"CUT_REG": "08", "CUT_PROV": "082", "CUT_COM": "08206", "REGION": "Biob\u00edo", "PROVINCIA": "Arauco", "COMUNA": "Los Alamos", "variable": "Monumento Nacional", "Nombres": "Casona Eyheramendy, tambi\u00e9n llamada Casa Francesa de Los \u00c1lamos", "POINT_X": -73.461436, "POINT_Y": -37.628196002}}, {"type": "Feature", "geometry": {"type": "Point", "coordinates": [-73.65651059899994, -37.61007007000002]}, "properties": {"CUT_REG": "08", "CUT_PROV": "082", "CUT_COM": "08201", "REGION": "Biob\u00edo", "PROVINCIA": "Arauco", "COMUNA": "Lebu", "variable": "Monumento Nacional", "Nombres": "La Pileta del Ni\u00f1o Pez", "POINT_X": -73.656510599, "POINT_Y": -37.61007007}}, {"type": "Feature", "geometry": {"type": "Point", "coordinates": [-73.56783694000003, -37.31955482699999]}, "properties": {"CUT_REG": "08", "CUT_PROV": "082", "CUT_COM": "08202", "REGION": "Biob\u00edo", "PROVINCIA": "Arauco", "COMUNA": "Arauco", "variable": "Monumento Nacional", "Nombres": "Elt\u00fan o cementerio mapuche ubicado en la localidad de Los Huape", "POINT_X": -73.56783694, "POINT_Y": -37.319554827}}, {"type": "Feature", "geometry": {"type": "Point", "coordinates": [-73.327293026, -37.249090312]}, "properties": {"CUT_REG": "08", "CUT_PROV": "082", "CUT_COM": "08202", "REGION": "Biob\u00edo", "PROVINCIA": "Arauco", "COMUNA": "Arauco", "variable": "Monumento Nacional", "Nombres": "Cerro Colo Colo", "POINT_X": -73.327293026, "POINT_Y": -37.249090312}}]}