{"type": "FeatureCollection", "features": [{"type": "Feature", "geometry": {"type": "Point", "coordinates": [-71.81358356989031, -38.04187060670462]}, "properties": {"CUT_REG": "08", "CUT_PROV": "083", "CUT_COM": "08305", "REGION": "Biob\u00edo", "PROVINCIA": "Biob\u00edo", "COMUNA": "Mulch\u00e9n", "variable": "Monumento Nacional", "Nombres": "Sitio Hist\u00f3rico Matanza de Mulch\u00e9n: Fundo Carmen y Maitenes", "POINT_X": -71.81358357, "POINT_Y": -38.041870606}}, {"type": "Feature", "geometry": {"type": "Point", "coordinates": [-72.27635799999996, -37.59931999699998]}, "properties": {"CUT_REG": "08", "CUT_PROV": "083", "CUT_COM": "08301", "REGION": "Biob\u00edo", "PROVINCIA": "Biob\u00edo", "COMUNA": "Los Angeles", "variable": "Monumento Nacional", "Nombres": "Fuerte San Carlos de Pur\u00e9n", "POINT_X": -72.276358, "POINT_Y": -37.599319997}}, {"type": "Feature", "geometry": {"type": "Point", "coordinates": [-72.66677317, -37.502464604999986]}, "properties": {"CUT_REG": "08", "CUT_PROV": "083", "CUT_COM": "08306", "REGION": "Biob\u00edo", "PROVINCIA": "Biob\u00edo", "COMUNA": "Nacimiento", "variable": "Monumento Nacional", "Nombres": "Fuerte de Nacimiento", "POINT_X": -72.66677317, "POINT_Y": -37.502464605}}, {"type": "Feature", "geometry": {"type": "Point", "coordinates": [-72.346500959, -37.47413413899999]}, "properties": {"CUT_REG": "08", "CUT_PROV": "083", "CUT_COM": "08301", "REGION": "Biob\u00edo", "PROVINCIA": "Biob\u00edo", "COMUNA": "Los Angeles", "variable": "Monumento Nacional", "Nombres": "Capilla del Hospital de San Sebasti\u00e1n de Los \u00c1ngeles", "POINT_X": -72.346500959, "POINT_Y": -37.474134139}}, {"type": "Feature", "geometry": {"type": "Point", "coordinates": [-71.94230899900002, -37.29971099899999]}, "properties": {"CUT_REG": "08", "CUT_PROV": "083", "CUT_COM": "08312", "REGION": "Biob\u00edo", "PROVINCIA": "Biob\u00edo", "COMUNA": "Tucapel", "variable": "Monumento Nacional", "Nombres": "Fuerte de San Diego", "POINT_X": -71.942308999, "POINT_Y": -37.299710999}}, {"type": "Feature", "geometry": {"type": "Point", "coordinates": [-72.72824395799996, -37.1330990015]}, "properties": {"CUT_REG": "08", "CUT_PROV": "083", "CUT_COM": "08313", "REGION": "Biob\u00edo", "PROVINCIA": "Biob\u00edo", "COMUNA": "Yumbel", "variable": "Monumento Nacional", "Nombres": "Cuatro bienes representativos del conjunto jesuita de Rere", "POINT_X": -72.728243958, "POINT_Y": -37.1330990015}}]}