{"type": "FeatureCollection", "features": [{"type": "Feature", "geometry": {"type": "Point", "coordinates": [-71.30098584100003, -38.819180280999966]}, "properties": {"CUT_REG": "09", "CUT_PROV": "092", "CUT_COM": "09205", "REGION": "La Araucan\u00eda", "PROVINCIA": "Malleco", "COMUNA": "Lonquimay", "variable": "Monumento Nacional", "Nombres": "Complejo religioso y ceremonial ind\u00edgena mapuche de Icalma, Eltuwe(cementerio) y Ng\u00fcillatuwe", "POINT_X": -71.300985841, "POINT_Y": -38.819180281}}, {"type": "Feature", "geometry": {"type": "Point", "coordinates": [-71.174921192, -38.471063449000006]}, "properties": {"CUT_REG": "09", "CUT_PROV": "092", "CUT_COM": "09205", "REGION": "La Araucan\u00eda", "PROVINCIA": "Malleco", "COMUNA": "Lonquimay", "variable": "Monumento Nacional", "Nombres": "Complejo religioso y ceremonial ind\u00edgena mapuche de Mitrauqu\u00e9n Alto, Eltuwe (cementerio) y Ng\u00fcillatuwe", "POINT_X": -71.174921192, "POINT_Y": -38.471063449}}, {"type": "Feature", "geometry": {"type": "Point", "coordinates": [-71.695323536, -38.46710160300003]}, "properties": {"CUT_REG": "09", "CUT_PROV": "092", "CUT_COM": "09203", "REGION": "La Araucan\u00eda", "PROVINCIA": "Malleco", "COMUNA": "Curacaut\u00edn", "variable": "Monumento Nacional", "Nombres": "Estaci\u00f3n Ferroviaria El Manzanar", "POINT_X": -71.695323536, "POINT_Y": -38.467101603}}, {"type": "Feature", "geometry": {"type": "Point", "coordinates": [-72.99142888299998, -38.19180128999998]}, "properties": {"CUT_REG": "09", "CUT_PROV": "092", "CUT_COM": "09207", "REGION": "La Araucan\u00eda", "PROVINCIA": "Malleco", "COMUNA": "Lumaco", "variable": "Monumento Nacional", "Nombres": "Casa Salvestrini de Pastene", "POINT_X": -72.991428883, "POINT_Y": -38.19180129}}, {"type": "Feature", "geometry": {"type": "Point", "coordinates": [-71.81358356989031, -38.04187060670462]}, "properties": {"CUT_REG": "09", "CUT_PROV": "092", "CUT_COM": "09202", "REGION": "La Araucan\u00eda", "PROVINCIA": "Malleco", "COMUNA": "Collipulli", "variable": "Monumento Nacional", "Nombres": "Sitio Hist\u00f3rico Matanza de Mulch\u00e9n: Fundo Carmen y Maitenes", "POINT_X": -71.81358357, "POINT_Y": -38.041870606}}, {"type": "Feature", "geometry": {"type": "Point", "coordinates": [-73.07397508299997, -38.032842513999995]}, "properties": {"CUT_REG": "09", "CUT_PROV": "092", "CUT_COM": "09208", "REGION": "La Araucan\u00eda", "PROVINCIA": "Malleco", "COMUNA": "Pur\u00e9n", "variable": "Monumento Nacional", "Nombres": "Ex Escuela Municipal N\u00b044 y N\u00b045, actual Liceo Mar\u00eda Aurora Gu\u00ed\u00f1ez Ram\u00edrez", "POINT_X": -73.073975083, "POINT_Y": -38.032842514}}, {"type": "Feature", "geometry": {"type": "Point", "coordinates": [-73.065641168, -38.02775208099999]}, "properties": {"CUT_REG": "09", "CUT_PROV": "092", "CUT_COM": "09208", "REGION": "La Araucan\u00eda", "PROVINCIA": "Malleco", "COMUNA": "Pur\u00e9n", "variable": "Monumento Nacional", "Nombres": "Casa Schmidlin", "POINT_X": -73.065641168, "POINT_Y": -38.027752081}}, {"type": "Feature", "geometry": {"type": "Point", "coordinates": [-72.43865420000003, -37.96303722800002]}, "properties": {"CUT_REG": "09", "CUT_PROV": "092", "CUT_COM": "09202", "REGION": "La Araucan\u00eda", "PROVINCIA": "Malleco", "COMUNA": "Collipulli", "variable": "Monumento Nacional", "Nombres": "Viaducto del Malleco", "POINT_X": -72.4386542, "POINT_Y": -37.963037228}}, {"type": "Feature", "geometry": {"type": "Point", "coordinates": [-72.43654684300003, -37.958156108000004]}, "properties": {"CUT_REG": "09", "CUT_PROV": "092", "CUT_COM": "09202", "REGION": "La Araucan\u00eda", "PROVINCIA": "Malleco", "COMUNA": "Collipulli", "variable": "Monumento Nacional", "Nombres": "Edificio Consistorial de la Municipalidad de Collipulli", "POINT_X": -72.436546843, "POINT_Y": -37.958156108}}, {"type": "Feature", "geometry": {"type": "Point", "coordinates": [-72.44062311699997, -37.95781665699999]}, "properties": {"CUT_REG": "09", "CUT_PROV": "092", "CUT_COM": "09202", "REGION": "La Araucan\u00eda", "PROVINCIA": "Malleco", "COMUNA": "Collipulli", "variable": "Monumento Nacional", "Nombres": "Iglesia de San Leonardo de Porto Mauricio", "POINT_X": -72.440623117, "POINT_Y": -37.957816657}}, {"type": "Feature", "geometry": {"type": "Point", "coordinates": [-72.70848200399999, -37.79893400299999]}, "properties": {"CUT_REG": "09", "CUT_PROV": "092", "CUT_COM": "09201", "REGION": "La Araucan\u00eda", "PROVINCIA": "Malleco", "COMUNA": "Angol", "variable": "Monumento Nacional", "Nombres": "Espejos de agua y las 4 esculturas de m\u00e1rmol blanco de la Plaza de Angol", "POINT_X": -72.708482004, "POINT_Y": -37.798934003}}, {"type": "Feature", "geometry": {"type": "Point", "coordinates": [-72.70540346199999, -37.795604992999976]}, "properties": {"CUT_REG": "09", "CUT_PROV": "092", "CUT_COM": "09201", "REGION": "La Araucan\u00eda", "PROVINCIA": "Malleco", "COMUNA": "Angol", "variable": "Monumento Nacional", "Nombres": "Ex Hospital de Angol", "POINT_X": -72.705403462, "POINT_Y": -37.795604993}}, {"type": "Feature", "geometry": {"type": "Point", "coordinates": [-72.58200477700001, -37.672508281000006]}, "properties": {"CUT_REG": "09", "CUT_PROV": "092", "CUT_COM": "09209", "REGION": "La Araucan\u00eda", "PROVINCIA": "Malleco", "COMUNA": "Renaico", "variable": "Monumento Nacional", "Nombres": "Centro Cultural Comunal de Renaico, Ex Escuela Primaria N\u00b0 16", "POINT_X": -72.582004777, "POINT_Y": -37.672508281}}]}