{"type":"FeatureCollection", "features": [
{"type":"Feature","geometry":{"type":"Point","coordinates":[-72.09118899999999,-36.895513999999984,0,-1.7976931348623157e+308]},"properties":{"COD_CUEN":"081","COD_SUBC":"0813","COD_SSUBC":"08132","NOM_SSUBC":"Rio Dinguillin Entre Estero Danguileo y Rio Itata","CUT_REG":"16","CUT_PROV":"161","CUT_COM":"16108","REGION":"Ñuble","PROVINCIA":"Diguillín","COMUNA":"San Ignacio","Name":"Santa Isabel","POINT_X":-72.091189,"POINT_Y":-36.895514}},
{"type":"Feature","geometry":{"type":"Point","coordinates":[-71.96747400000002,-36.861419999999974,0,-1.7976931348623157e+308]},"properties":{"COD_CUEN":"081","COD_SUBC":"0813","COD_SSUBC":"08131","NOM_SSUBC":"Rio Diguillin entre Rio Renegado y bajo junta E. Danquileo","CUT_REG":"16","CUT_PROV":"161","CUT_COM":"16108","REGION":"Ñuble","PROVINCIA":"Diguillín","COMUNA":"San Ignacio","Name":"Urrutia","POINT_X":-71.967474,"POINT_Y":-36.86142}},
{"type":"Feature","geometry":{"type":"Point","coordinates":[-72.12302400000004,-36.851595,0,-1.7976931348623157e+308]},"properties":{"COD_CUEN":"081","COD_SUBC":"0813","COD_SSUBC":"08133","NOM_SSUBC":"Rio Itata entre Rio Diguillin y Estero Coyanco","CUT_REG":"16","CUT_PROV":"161","CUT_COM":"16108","REGION":"Ñuble","PROVINCIA":"Diguillín","COMUNA":"San Ignacio","Name":"Urrutia","POINT_X":-72.123024,"POINT_Y":-36.851595}},
{"type":"Feature","geometry":{"type":"Point","coordinates":[-71.89257299999996,-36.84708,0,-1.7976931348623157e+308]},"properties":{"COD_CUEN":"081","COD_SUBC":"0813","COD_SSUBC":"08131","NOM_SSUBC":"Rio Diguillin entre Rio Renegado y bajo junta E. Danquileo","CUT_REG":"16","CUT_PROV":"161","CUT_COM":"16108","REGION":"Ñuble","PROVINCIA":"Diguillín","COMUNA":"San Ignacio","Name":"El Calvario","POINT_X":-71.892573,"POINT_Y":-36.84708}},
{"type":"Feature","geometry":{"type":"Point","coordinates":[-71.80322099999987,-36.84043399999997,0,-1.7976931348623157e+308]},"properties":{"COD_CUEN":"081","COD_SUBC":"0813","COD_SSUBC":"08131","NOM_SSUBC":"Rio Diguillin entre Rio Renegado y bajo junta E. Danquileo","CUT_REG":"16","CUT_PROV":"161","CUT_COM":"16108","REGION":"Ñuble","PROVINCIA":"Diguillín","COMUNA":"San Ignacio","Name":"Zapallar","POINT_X":-71.803221,"POINT_Y":-36.840434}},
{"type":"Feature","geometry":{"type":"Point","coordinates":[-72.15094299999993,-36.819665999999984,0,-1.7976931348623157e+308]},"properties":{"COD_CUEN":"081","COD_SUBC":"0813","COD_SSUBC":"08134","NOM_SSUBC":"Rio Larqui","CUT_REG":"16","CUT_PROV":"161","CUT_COM":"16108","REGION":"Ñuble","PROVINCIA":"Diguillín","COMUNA":"San Ignacio","Name":"Gallipavo","POINT_X":-72.150943,"POINT_Y":-36.819666}},
{"type":"Feature","geometry":{"type":"Point","coordinates":[-71.96736299999999,-36.811208999999955,0,-1.7976931348623157e+308]},"properties":{"COD_CUEN":"081","COD_SUBC":"0813","COD_SSUBC":"08134","NOM_SSUBC":"Rio Larqui","CUT_REG":"16","CUT_PROV":"161","CUT_COM":"16108","REGION":"Ñuble","PROVINCIA":"Diguillín","COMUNA":"San Ignacio","Name":"San Miguel","POINT_X":-71.967363,"POINT_Y":-36.811209}},
{"type":"Feature","geometry":{"type":"Point","coordinates":[-72.030465,-36.80983899999993,0,-1.7976931348623157e+308]},"properties":{"COD_CUEN":"081","COD_SUBC":"0813","COD_SSUBC":"08134","NOM_SSUBC":"Rio Larqui","CUT_REG":"16","CUT_PROV":"161","CUT_COM":"16108","REGION":"Ñuble","PROVINCIA":"Diguillín","COMUNA":"San Ignacio","Name":"Colton Del Medio","POINT_X":-72.030465,"POINT_Y":-36.809839}},
{"type":"Feature","geometry":{"type":"Point","coordinates":[-72.044786,-36.808028000000014,0,-1.7976931348623157e+308]},"properties":{"COD_CUEN":"081","COD_SUBC":"0813","COD_SSUBC":"08134","NOM_SSUBC":"Rio Larqui","CUT_REG":"16","CUT_PROV":"161","CUT_COM":"16108","REGION":"Ñuble","PROVINCIA":"Diguillín","COMUNA":"San Ignacio","Name":"Colton","POINT_X":-72.044786,"POINT_Y":-36.808028}},
{"type":"Feature","geometry":{"type":"Point","coordinates":[-72.10804099999999,-36.79486499999999,0,-1.7976931348623157e+308]},"properties":{"COD_CUEN":"081","COD_SUBC":"0813","COD_SSUBC":"08134","NOM_SSUBC":"Rio Larqui","CUT_REG":"16","CUT_PROV":"161","CUT_COM":"16108","REGION":"Ñuble","PROVINCIA":"Diguillín","COMUNA":"San Ignacio","Name":"Colton","POINT_X":-72.108041,"POINT_Y":-36.794865}},
{"type":"Feature","geometry":{"type":"Point","coordinates":[-72.000461,-36.79035299999996,0,-1.7976931348623157e+308]},"properties":{"COD_CUEN":"081","COD_SUBC":"0813","COD_SSUBC":"08134","NOM_SSUBC":"Rio Larqui","CUT_REG":"16","CUT_PROV":"161","CUT_COM":"16108","REGION":"Ñuble","PROVINCIA":"Diguillín","COMUNA":"San Ignacio","Name":"Coihue","POINT_X":-72.000461,"POINT_Y":-36.790353}},
{"type":"Feature","geometry":{"type":"Point","coordinates":[-72.05888799999993,-36.76676699999995,0,-1.7976931348623157e+308]},"properties":{"COD_CUEN":"081","COD_SUBC":"0813","COD_SSUBC":"08134","NOM_SSUBC":"Rio Larqui","CUT_REG":"16","CUT_PROV":"161","CUT_COM":"16108","REGION":"Ñuble","PROVINCIA":"Diguillín","COMUNA":"San Ignacio","Name":"Meco","POINT_X":-72.058888,"POINT_Y":-36.766767}},
{"type":"Feature","geometry":{"type":"Point","coordinates":[-72.12519799999998,-36.75886899999999,0,-1.7976931348623157e+308]},"properties":{"COD_CUEN":"081","COD_SUBC":"0813","COD_SSUBC":"08134","NOM_SSUBC":"Rio Larqui","CUT_REG":"16","CUT_PROV":"161","CUT_COM":"16108","REGION":"Ñuble","PROVINCIA":"Diguillín","COMUNA":"San Ignacio","Name":"Meco","POINT_X":-72.125198,"POINT_Y":-36.758869}},
{"type":"Feature","geometry":{"type":"Point","coordinates":[-71.97832599999997,-36.75263899999993,0,-1.7976931348623157e+308]},"properties":{"COD_CUEN":"081","COD_SUBC":"0813","COD_SSUBC":"08134","NOM_SSUBC":"Rio Larqui","CUT_REG":"16","CUT_PROV":"161","CUT_COM":"16108","REGION":"Ñuble","PROVINCIA":"Diguillín","COMUNA":"San Ignacio","Name":"Larqui Chico","POINT_X":-71.978326,"POINT_Y":-36.752639}},
{"type":"Feature","geometry":{"type":"Point","coordinates":[-72.05916999999998,-36.74805999999996,0,-1.7976931348623157e+308]},"properties":{"COD_CUEN":"081","COD_SUBC":"0813","COD_SSUBC":"08134","NOM_SSUBC":"Rio Larqui","CUT_REG":"16","CUT_PROV":"161","CUT_COM":"16108","REGION":"Ñuble","PROVINCIA":"Diguillín","COMUNA":"San Ignacio","Name":"Larqui","POINT_X":-72.05917,"POINT_Y":-36.74806}}
]}